%time,field.header.seq,field.header.stamp,field.header.frame_id,field.roll,field.pitch,field.jaw,field.roll_dot,field.pitch_dot,field.jaw_dot
14030000000,308,14030000000,,-9.33547635213e-05,0.000370167923393,-0.000315656856401,3.96437466188e-11,-8.05728983533e-10,7.45552300452e-11
14063000000,309,14063000000,,-8.96893907338e-05,0.000319622602547,-0.000311671406962,1.25852397947e-10,-1.38081868162e-09,9.77536038227e-11
14106000000,310,14106000000,,-8.0993573647e-05,0.000240095017944,-0.000306617032038,0.00025269575417,-0.00207559112459,0.000117921728815
14144000000,311,14144000000,,-6.92529356456e-05,0.00015250602155,-0.000302116677631,0.000358419725671,-0.00241977488622,0.00011877126235
14186000000,312,14186000000,,-4.96502361784e-05,2.36433152168e-05,-0.000297334103379,0.00051605614135,-0.00329689169303,0.000119943157188
14219000000,313,14219000000,,-3.07663394779e-05,-8.51861113915e-05,-0.000293365796097,0.000585643574595,-0.00306797563098,0.000120407166833
14246000000,314,14246000000,,-1.28635720102e-05,-0.000173809807166,-0.000289983552648,0.000619839003775,-0.00296018645167,0.000120954267913
14274000000,315,14274000000,,3.99770215154e-06,-0.000245456816629,-0.000286708323983,0.000593364820816,-0.00229264353402,0.00012135138968
14302000000,316,14302000000,,2.04184889299e-05,-0.000299126928439,-0.000283188477624,3.74558772887e-10,-1.01735297964e-09,8.93882051711e-11
14338000000,317,14338000000,,3.54502990376e-05,-0.000323568354361,-0.000278826075373,6.20974452414e-11,-2.58156013927e-11,2.278409926e-11
14375000000,318,14375000000,,3.80992096325e-05,-0.000286329770461,-0.000274397636531,-9.03154113996e-12,9.80829750752e-10,8.35001859323e-11
14411000000,319,14411000000,,3.72374452127e-05,-0.000229005512665,-0.000270127115073,-3.54661092161e-11,1.56263657569e-09,1.04713855642e-10
14447000000,320,14447000000,,3.52525166818e-05,-0.000160000636242,-0.000265758251771,-6.48707199069e-11,1.80694648133e-09,1.12257501905e-10
14476000000,321,14476000000,,3.33936477546e-05,-0.000105824990897,-0.000262571731582,-6.53400784358e-05,0.00206701946445,0.000118123265565
14510000000,322,14510000000,,3.09708157147e-05,-3.11960429826e-05,-0.000258428277448,-7.80065747676e-05,0.00208153878339,0.000118636977277
14547000000,323,14547000000,,2.73364203167e-05,6.62532766e-05,-0.000254140875768,-9.3845606898e-05,0.00267375982367,0.000119335381896
14586000000,324,14586000000,,2.35699044424e-05,0.000161626099725,-0.000249367236393,-9.46002859381e-11,1.9241410687e-09,1.17049397952e-10
14624000000,325,14624000000,,1.99978640012e-05,0.00023189886997,-0.000244730210397,-5.1836035464e-11,9.20970910645e-10,8.06677016851e-11
14664000000,326,14664000000,,1.84020809684e-05,0.000234275401453,-0.000240137014771,-7.12120119817e-12,-6.26563800843e-11,2.13038215541e-11
14703000000,327,14703000000,,1.68690949067e-05,0.000213854058529,-0.000235591636738,-1.2601567359e-11,-2.71605876678e-10,4.30574742527e-11
14740000000,328,14740000000,,1.52741249622e-05,0.000181086244993,-0.000231190337217,-2.39389116169e-11,-4.72812566876e-10,5.64582755547e-11
14782000000,329,14782000000,,1.32235199999e-05,0.000134527217597,-0.00022644456476,-3.04240903304e-11,-7.95987831204e-10,7.33038282852e-11
14821000000,330,14821000000,,1.09682105176e-05,8.35446262499e-05,-0.000222030037548,-4.56116776293e-11,-1.00122465874e-09,8.26372026363e-11
14858000000,331,14858000000,,8.60199361341e-06,2.59675125562e-05,-0.000217700187932,-5.09497825874e-11,-1.3420949907e-09,9.63634935736e-11
14892000000,332,14892000000,,6.09441667621e-06,-3.30394068442e-05,-0.000213577863178,-6.43227207608e-11,-1.49280376949e-09,1.02223264575e-10
14927000000,333,14927000000,,3.49276297129e-06,-9.95657537715e-05,-0.000209311780054,-6.38082919835e-11,-1.79392511956e-09,1.12681433628e-10
14968000000,334,14968000000,,4.2654400545e-07,-0.000177583671757,-0.000204428302823,-7.06966707398e-11,-1.81170733971e-09,1.13806325475e-10
15007000000,335,15007000000,,-2.26934662351e-06,-0.000254786107689,-0.000199758942472,-6.31081437108e-11,-1.88677629076e-09,1.16643292247e-10
15047000000,336,15047000000,,-4.86839098812e-06,-0.00032734288834,-0.000195192857063,-5.96007826426e-11,-1.74896064298e-09,1.12703055222e-10
15085000000,337,15085000000,,-7.049483429e-06,-0.000400374614401,-0.000190488761291,-4.54797519089e-11,-1.5435817069e-09,1.06238989828e-10
15122000000,338,15122000000,,-8.94958066056e-06,-0.000463576434413,-0.000185893586604,-3.2325090521e-11,-1.21554821764e-09,9.45729744517e-11
15151000000,339,15151000000,,-9.88197371043e-06,-0.000506344309542,-0.000182498610229,-1.84294923072e-11,-9.88166215521e-10,8.5443950526e-11
15186000000,340,15186000000,,-1.07741561806e-05,-0.000551182136405,-0.000178127869731,-8.97386071702e-12,-5.65064550706e-10,6.48074025e-11
15225000000,341,15225000000,,-1.08689482659e-05,-0.000585729430895,-0.000173382708454,3.09451878185e-12,-2.18984483324e-10,4.06446890033e-11
15264000000,342,15264000000,,-1.0349738659e-05,-0.000602093990892,-0.000168875820236,2.91984513824e-12,-2.56716089359e-11,1.48665628419e-11
15303000000,343,15303000000,,-8.72846339917e-06,-0.000600858707912,-0.000163995515322,8.37407660575e-12,4.90045469481e-11,1.99194116063e-11
15338000000,344,15338000000,,-6.68405118631e-06,-0.000582261302043,-0.000159722520038,2.7306993472e-11,3.11560832689e-10,4.85982018517e-11
15376000000,345,15376000000,,-3.32119680024e-06,-0.000540290609933,-0.000154955399921,6.4376337594e-11,8.96273444351e-10,8.21031576059e-11
15413000000,346,15413000000,,3.0166046372e-07,-0.000484965654323,-0.000150675798068,1.04175813809e-10,1.69918179527e-09,1.12974025968e-10
15448000000,347,15448000000,,4.82964605908e-06,-0.000410243257647,-0.000146391888848,0.000137101756991,0.00234132376499,0.000122392069898
15485000000,348,15485000000,,1.02696958493e-05,-0.00031234807102,-0.000141740427352,0.000150084451889,0.00282489997335,0.000122435609228
15522000000,349,15522000000,,1.78161699296e-05,-0.000171451014467,-0.000137202237966,0.000205253643799,0.00386542268097,0.000122631186969
15558000000,350,15558000000,,2.5027889933e-05,-2.77113485936e-05,-0.0001326638303,0.000177210196853,0.00369737483561,0.00012264745601
15597000000,351,15597000000,,3.16136174661e-05,0.000111285939056,-0.000128124156618,0.000154208872118,0.00338126160204,0.000122502300655
15635000000,352,15635000000,,3.59558180207e-05,0.000222973729251,-0.000123238336528,7.27326114429e-05,0.00219515454955,0.000121682598547
15673000000,353,15673000000,,3.7228983274e-05,0.000281419168459,-0.000118638992717,-4.20925143699e-12,3.70488029144e-10,5.19992972292e-11
15709000000,354,15709000000,,3.48699722963e-05,0.000280559819657,-0.000114457332529,-2.85180507681e-11,-1.76337291991e-10,3.580358926e-11
15735000000,355,15735000000,,3.14521566906e-05,0.000239750603214,-0.000111394096166,-1.49810303052e-10,-1.92815607925e-09,1.15333208262e-10
15768000000,356,15768000000,,2.54694241448e-05,0.000167809150298,-0.000107429725176,-0.000189019367099,-0.00228091445751,0.000116159608297
15798000000,357,15798000000,,1.95604989131e-05,9.42935075727e-05,-0.00010395157733,-0.000199438145501,-0.00252549373545,0.000115763650683
15837000000,358,15837000000,,9.34916079132e-06,-2.45033679676e-05,-9.96728340397e-05,-0.000278633349808,-0.00311152939685,0.000115657487186
15876000000,359,15876000000,,-1.20319248254e-06,-0.000145049052662,-9.49268651311e-05,-0.000227617478231,-0.00254519516602,0.000115715345601
15912000000,360,15912000000,,-9.52848404268e-06,-0.000225953321205,-9.08890069695e-05,-1.93751750754e-10,-1.73136438519e-09,1.07495380652e-10
15953000000,361,15953000000,,-1.53884975589e-05,-0.000273092591669,-8.61920998432e-05,-2.37421055038e-11,-1.33442146222e-10,3.00330073311e-11
15992000000,362,15992000000,,-1.47442260641e-05,-0.000241453468334,-8.16660176497e-05,3.39172127883e-11,7.80941367129e-10,7.03568800442e-11
16033000000,363,16033000000,,-1.1802238987e-05,-0.000183627897059,-7.72072162363e-05,7.05166758319e-11,1.29006805238e-09,8.90853224522e-11
16075000000,364,16075000000,,-7.78692356107e-06,-0.000111946930701,-7.26885991753e-05,1.0650446497e-10,1.78415959784e-09,1.03957148445e-10
16114000000,365,16114000000,,-2.65560629487e-06,-3.0163444535e-05,-6.81898236508e-05,0.000128508065245,0.00199539330788,0.000109619199065
16153000000,366,16153000000,,2.79792016045e-06,5.26347175764e-05,-6.39080972178e-05,0.000149801810039,0.00218699057586,0.000110059736471
16193000000,367,16193000000,,1.06546212919e-05,0.000164220138686,-5.94994344283e-05,0.000191393613932,0.00264168018475,0.000110309971205
16233000000,368,16233000000,,1.80569732038e-05,0.000261709588813,-5.52005476493e-05,0.000178235786734,0.00217446731403,0.000110075852717
16273000000,369,16273000000,,2.47907919402e-05,0.000337880803272,-5.08175253344e-05,9.6446066411e-11,9.91962068042e-10,7.71336050587e-11
16311000000,370,16311000000,,2.89550571324e-05,0.000368612731108,-4.65897574031e-05,1.03361720225e-11,3.24648502525e-11,1.47102538484e-11
16351000000,371,16351000000,,2.83418103209e-05,0.000334604235832,-4.24175559601e-05,-2.97598438947e-11,-8.28263513331e-10,6.86043929998e-11
16391000000,372,16391000000,,2.61320674326e-05,0.000271833414445,-3.80723868147e-05,-5.80150302798e-11,-1.49894019419e-09,9.15889517006e-11
16428000000,373,16428000000,,2.3113698262e-05,0.000203262665309,-3.41697486874e-05,-8.91371490508e-11,-1.98193950141e-09,1.05066372269e-10
16469000000,374,16469000000,,1.93184041564e-05,0.000116617702588,-2.9948530937e-05,-0.000105252664071,-0.00222899834625,0.000105640938273
16509000000,375,16509000000,,1.45420863191e-05,2.15000382013e-05,-2.56064067798e-05,-0.000119943324535,-0.00241970503703,0.000106157531263
16550000000,376,16550000000,,8.3853256001e-06,-0.000102797486761,-2.14606479858e-05,-0.000163151780725,-0.00298250792548,0.0001064396929
16591000000,377,16591000000,,1.6581170712e-06,-0.00022256844386,-1.68754377228e-05,-0.000136254457175,-0.00242046429776,0.000106849423901
16632000000,378,16632000000,,-3.61388015335e-06,-0.000309550814563,-1.25975047922e-05,-8.39855338053e-11,-1.26009869206e-09,8.5232307323e-11
16671000000,379,16671000000,,-6.0930788095e-06,-0.00034544520895,-8.41510791361e-06,-4.19251395753e-12,-5.95165652872e-11,1.89783987137e-11
16711000000,380,16711000000,,-4.41633073933e-06,-0.000308505870635,-4.02721389037e-06,4.55307735958e-11,9.44298306216e-10,7.34467903163e-11
16745000000,381,16745000000,,-1.6218049268e-06,-0.000254871905781,-4.1458196165e-07,8.71336544583e-11,1.56605917123e-09,9.37715669003e-11
16782000000,382,16782000000,,2.13563271245e-06,-0.000186293938896,3.36754487762e-06,0.000109686865471,0.00201340857893,0.00010435195145
16822000000,383,16822000000,,7.11881375537e-06,-9.80749464361e-05,7.5111802289e-06,0.000134724294185,0.00229741656221,0.000102904508822
16862000000,384,16862000000,,1.3728441445e-05,1.64521516126e-05,1.15084194476e-05,0.000166696394444,0.00290751643479,0.000102152735053
16902000000,385,16902000000,,2.05341475521e-05,0.000129708321765,1.55888392328e-05,0.000155954694492,0.00251577072777,0.000101874400571
16941000000,386,16941000000,,2.63483907474e-05,0.000224561605137,1.9768895072e-05,1.10945731768e-10,1.79464920702e-09,9.68781513344e-11
16981000000,387,16981000000,,2.99385483231e-05,0.00027661290369,2.38574793912e-05,1.92765456375e-11,2.66124816628e-10,3.75119553475e-11
17019000000,388,17019000000,,2.91072683467e-05,0.000260615197476,2.75278271147e-05,-2.00371993303e-11,-3.70326352916e-10,4.39741541791e-11
17056000000,389,17056000000,,2.68938783847e-05,0.000220663743676,3.1481104088e-05,-4.32570299025e-11,-6.69490407557e-10,5.85365228511e-11
17094000000,390,17094000000,,2.37075309997e-05,0.000171233536093,3.52908027708e-05,-6.40339725688e-11,-1.02501307442e-09,7.14976758354e-11
17135000000,391,17135000000,,1.96388828044e-05,0.000108894782898,3.93444752262e-05,-8.63364518766e-11,-1.1777483433e-09,7.55511556094e-11
17173000000,392,17173000000,,1.50063387991e-05,4.41512747784e-05,4.31603111792e-05,-1.02469505103e-10,-1.4887019395e-09,8.43687827934e-11
17215000000,393,17215000000,,9.66108564171e-06,-2.63498859567e-05,4.70555532956e-05,-1.25332438872e-10,-1.52962842392e-09,8.53010856394e-11
17255000000,394,17255000000,,3.7748845898e-06,-0.000100239587482,5.09523633809e-05,-1.36342284685e-10,-1.72883618532e-09,9.09399638926e-11
17287000000,395,17287000000,,-1.05119238469e-06,-0.000155884728883,5.38835338375e-05,-1.51012979899e-10,-1.63828928201e-09,8.88184387149e-11
17324000000,396,17324000000,,-7.42561360312e-06,-0.000226439457037,5.76096099394e-05,-1.50262594034e-10,-1.69735958622e-09,9.07576791498e-11
17365000000,397,17365000000,,-1.45206031448e-05,-0.00029822147917,6.16402830929e-05,-1.43010117637e-10,-1.34874733604e-09,8.11150174806e-11
17405000000,398,17405000000,,-2.16186890611e-05,-0.000365791929653,6.57782657072e-05,-1.2134261651e-10,-1.10711928514e-09,7.36318159222e-11
17446000000,399,17446000000,,-2.81194552372e-05,-0.000420023628976,6.97240393492e-05,-8.93856447193e-11,-7.41333328058e-10,6.04468142207e-11
17486000000,400,17486000000,,-3.31929622917e-05,-0.000463087199023,7.35804424039e-05,-5.40731487364e-11,-4.25329493847e-10,4.59233172323e-11
17526000000,401,17526000000,,-3.73731236323e-05,-0.000492194085382,7.75379521656e-05,-2.21429992397e-11,-1.44746881148e-10,2.6997034816e-11
17567000000,402,17567000000,,-3.9820879465e-05,-0.000505296047777,8.15969469841e-05,-2.8944431487e-12,-4.94491730549e-12,6.59349528101e-12
17605000000,403,17605000000,,-4.0644496039e-05,-0.00049935100833,8.54549507494e-05,1.41149873907e-12,8.40097644228e-11,2.05880538312e-11
17645000000,404,17645000000,,-3.94305861846e-05,-0.000474140688311,8.93097239896e-05,2.28643527722e-11,3.94709792628e-10,4.40442682326e-11
17683000000,405,17683000000,,-3.62109058187e-05,-0.000427014863817,9.32568800636e-05,8.26205145965e-11,1.06977027237e-09,7.23475168662e-11
17722000000,406,17722000000,,-3.13083546644e-05,-0.000366290216334,9.68026433839e-05,1.46706632953e-10,1.76951875375e-09,9.27684665197e-11
17761000000,407,17761000000,,-2.33805185417e-05,-0.000273295183433,0.000100930832559,0.000221318143304,0.00248648202978,9.8201482615e-05
17799000000,408,17799000000,,-1.40603597174e-05,-0.000171361520188,0.000104655890027,0.00026363672805,0.00284654204734,9.79027681751e-05
17837000000,409,17837000000,,-3.76978107397e-07,-2.33843165915e-05,0.000108373606054,0.000376411975594,0.00397072965279,9.77325471467e-05
17877000000,410,17877000000,,1.44248106153e-05,0.000126014565467,0.000112178371637,0.00035558550735,0.00353719340637,9.74207141553e-05
17917000000,411,17917000000,,2.95997906505e-05,0.000273959129117,0.000116165094369,0.000328064576024,0.00304192164913,9.68845924945e-05
17957000000,412,17957000000,,4.01280303777e-05,0.00036353917676,0.000119920441648,1.68821914781e-10,1.342634115e-09,7.88075230074e-11
17996000000,413,17996000000,,4.60104929516e-05,0.000398684933316,0.000123905338114,4.86026496826e-12,6.5839790217e-12,7.00228026604e-12
18036000000,414,18036000000,,4.25188882218e-05,0.000347058608895,0.000127441351651,-1.45060102819e-10,-1.87944304564e-09,8.95507556997e-11
18075000000,415,18075000000,,3.58157667506e-05,0.000263599504251,0.000130998916575,-0.000201782444492,-0.00225041131489,9.03647669475e-05
18116000000,416,18116000000,,2.70188738796e-05,0.000165674951859,0.000134587593493,-0.000230424499023,-0.00259369960986,8.92630851013e-05
18151000000,417,18151000000,,1.59957926371e-05,4.55642584711e-05,0.000137782917591,-0.000317483063554,-0.00320256361738,8.84855908225e-05
18191000000,418,18191000000,,3.64285233445e-06,-7.99140325398e-05,0.00014131781063,-0.000275091035292,-0.00279665901326,8.84035034687e-05
18233000000,419,18233000000,,-7.77620516601e-06,-0.000183462383575,0.000144935125718,-2.29059105017e-10,-1.83797133069e-09,8.48128303699e-11
18272000000,420,18272000000,,-1.45943031384e-05,-0.000233734157518,0.000148360457388,-4.01151403762e-11,-2.36396541231e-10,3.04082453662e-11
18302000000,421,18302000000,,-1.48028539115e-05,-0.00021737338102,0.000150974083226,1.55636701443e-11,5.04222330555e-10,4.36216861244e-11
18340000000,422,18340000000,,-1.27638368213e-05,-0.000168299928191,0.000154327921337,5.7440850687e-11,1.11632159072e-09,6.38311764556e-11
18380000000,423,18380000000,,-9.6350813692e-06,-0.000108368432848,0.000157454807777,7.72477429245e-11,1.4631332812e-09,7.18382991982e-11
18418000000,424,18418000000,,-5.37120149602e-06,-3.14946446451e-05,0.000160873620189,1.14149828478e-10,1.93005211813e-09,8.16305981144e-11
18460000000,425,18460000000,,-3.94574755092e-07,5.29816934431e-05,0.000164345605299,0.000121173805383,0.00204853038304,8.24657981866e-05
18500000000,426,18500000000,,4.995096333e-06,0.000139628566103,0.000167644713656,0.000139398965985,0.00215598102659,8.24610251584e-05
18539000000,427,18539000000,,1.19540227388e-05,0.000247801537625,0.000170861138031,0.000174153072294,0.00266680167988,8.24297458166e-05
18577000000,428,18577000000,,1.86935994861e-05,0.000343103893101,0.000174067725311,0.000153183442308,0.00202941382304,8.18830303615e-05
18618000000,429,18618000000,,2.4097134883e-05,0.00041193398647,0.000177161826286,7.97760607574e-11,9.20464204857e-10,5.5071669447e-11
18656000000,430,18656000000,,2.73608493444e-05,0.000437235401478,0.000180212591658,3.27907991558e-12,6.50293013882e-12,5.3022915919e-12
18696000000,431,18696000000,,2.61365748884e-05,0.000395217706682,0.000183524374734,-4.37253913632e-11,-1.13925857637e-09,5.91325252652e-11
18737000000,432,18737000000,,2.32364545809e-05,0.000324851513142,0.00018671095313,-8.34189314847e-11,-1.75585013196e-09,7.2513259286e-11
18777000000,433,18777000000,,1.93162977666e-05,0.000239869972575,0.000189794096514,-0.000100965706224,-0.00229938956909,7.69605176174e-05
18818000000,434,18818000000,,1.43335182656e-05,0.000138272735057,0.000193020765437,-0.000129269552417,-0.00249353703111,7.68217723817e-05
18859000000,435,18859000000,,7.87849239714e-06,6.09645485383e-06,0.000196015884285,-0.000163133256137,-0.00332925515249,7.6736578194e-05
18899000000,436,18899000000,,7.9044997392e-07,-0.000119706528494,0.000199150672415,-0.000159140472533,-0.0027133137919,7.61768606026e-05
18939000000,437,18939000000,,-5.25089262737e-06,-0.000225744224736,0.000202180308406,-0.000131265580421,-0.00210000388324,7.52052801545e-05
18980000000,438,18980000000,,-9.58085729508e-06,-0.000278380059171,0.000205086049391,-3.00870925396e-11,-2.85381052123e-10,2.80435241001e-11
19020000000,439,19020000000,,-1.12224524855e-05,-0.000278871128103,0.000208083336474,-4.12819388049e-12,1.70794822729e-10,2.12270513666e-11
19059000000,440,19059000000,,-9.09712889552e-06,-0.000210601399885,0.000210950704059,7.96392632765e-05,0.00213750847615,7.10555759724e-05
19099000000,441,19099000000,,-5.77683931624e-06,-0.000125435428345,0.000213554216316,9.26416541915e-05,0.00238322862424,6.97240029695e-05
19139000000,442,19139000000,,-3.62698642675e-07,1.11440194814e-05,0.000216521395487,0.000136053859023,0.00325171789154,6.83898833813e-05
19178000000,443,19178000000,,4.7491244004e-06,0.000130484200781,0.000219161942368,0.000116774506751,0.00269502284937,6.71164889354e-05
19220000000,444,19220000000,,9.68147651292e-06,0.000237231259234,0.000221823531319,0.000112904242997,0.00222935480997,6.5989959694e-05
19259000000,445,19259000000,,1.29640657178e-05,0.000297136284644,0.000224437520956,2.47643936607e-11,3.90493082314e-10,2.86915075032e-11
19297000000,446,19297000000,,1.45183439599e-05,0.000306347123114,0.000226943011512,3.09134770733e-12,-5.52098471107e-11,1.06558329868e-11
19338000000,447,19338000000,,1.27491684907e-05,0.000246176234214,0.000229534634855,-5.76077865966e-11,-1.77367409648e-09,5.91797721938e-11
19379000000,448,19379000000,,1.01675586848e-05,0.000162858719705,0.000232036385569,-7.47938684071e-05,-0.00218886509538,6.22761072009e-05
19417000000,449,19417000000,,6.96555389368e-06,7.2967086453e-05,0.000234460094362,-8.34332386148e-05,-0.00241616135463,6.21034414507e-05
19459000000,450,19459000000,,2.44142393058e-06,-5.87526010349e-05,0.000237066924456,-0.000110330598545,-0.00291773024946,6.20894716121e-05
19495000000,451,19495000000,,-1.34776655614e-06,-0.000159633098519,0.000239304135903,-9.20039019547e-05,-0.00250518904068,6.21912768111e-05
19525000000,452,19525000000,,-3.98146903535e-06,-0.000229730503634,0.00024110324739,-8.53553210618e-05,-0.00203191791661,6.18567792117e-05
19554000000,453,19554000000,,-6.03512626185e-06,-0.000275093829259,0.000242952897679,-2.81067912e-11,-5.88396664725e-10,3.33553185072e-11
19586000000,454,19586000000,,-6.99327301845e-06,-0.00029111202457,0.000244908151217,-3.58245171809e-13,-1.00817097726e-12,1.80965225444e-12
19625000000,455,19625000000,,-6.06153389526e-06,-0.000252422003541,0.000247138523264,2.91113244621e-11,1.05904518488e-09,4.36150282557e-11
19662000000,456,19662000000,,-4.09440281146e-06,-0.000189865269931,0.000249344448093,5.72464610438e-11,1.7437761235e-09,5.54371132333e-11
19698000000,457,19698000000,,-1.82419023531e-06,-0.000116301467642,0.000251532066613,6.49400026305e-05,0.0021122538019,5.89872797718e-05
19733000000,458,19733000000,,8.93339972663e-07,-3.44743748428e-05,0.000253654608969,7.94850930106e-05,0.00233125430532,5.88948823861e-05
19774000000,459,19774000000,,4.80763083033e-06,8.62170491018e-05,0.000256068160525,9.70642795437e-05,0.00297702709213,5.87944668951e-05
19817000000,460,19817000000,,8.97779955267e-06,0.000204049967579,0.000258529034909,8.51886798046e-05,0.00238139252178,5.82439752179e-05
19857000000,461,19857000000,,1.21144230434e-05,0.000293616380077,0.000260843866272,5.85422266219e-11,1.56383617167e-09,5.08542617739e-11
19897000000,462,19897000000,,1.40394404298e-05,0.0003368020989,0.000263174471911,5.14792722339e-12,1.03948634422e-10,1.28675785305e-11
19938000000,463,19938000000,,1.33493758767e-05,0.00030827728915,0.000265343667706,-1.67966821008e-11,-7.10445480223e-10,3.29116005282e-11
19978000000,464,19978000000,,1.17556328405e-05,0.00025128229754,0.000267639989033,-3.70227321023e-11,-1.14865916778e-09,4.11754103036e-11
20017000000,465,20017000000,,9.76659703156e-06,0.000184746168088,0.000269748969004,-4.58348428656e-11,-1.66565272686e-09,4.9214233383e-11
20056000000,466,20056000000,,7.34774721423e-06,0.000110574306746,0.000271843775408,-6.56462592619e-11,-1.90536986189e-09,5.23582080469e-11
20095000000,467,20095000000,,4.77906723972e-06,3.1024141208e-05,0.000273880985333,-6.73527974868e-05,-0.00213511614129,5.35468752787e-05
20133000000,468,20133000000,,1.74152592081e-06,-5.3128314903e-05,0.00027596441214,-8.03938382887e-05,-0.00217465520836,5.332865112e-05
20174000000,469,20174000000,,-2.3324673748e-06,-0.000171632447746,0.000278145977063,-9.86661107163e-05,-0.00272766547278,5.30368306499e-05
20214000000,470,20214000000,,-6.10548386248e-06,-0.000263364519924,0.00028015562566,-8.65546171553e-05,-0.00206722319126,5.27579832124e-05
20254000000,471,20254000000,,-9.28920053411e-06,-0.000340532977134,0.000282363092992,-3.93333109139e-11,-7.77457487278e-10,3.26012654372e-11
20295000000,472,20295000000,,-1.09153306767e-05,-0.000360642821761,0.000284437002847,-6.38344628892e-13,2.73103089622e-12,2.03019827512e-12
20334000000,473,20334000000,,-9.79873948381e-06,-0.000314631237416,0.000286426307866,2.92728098705e-11,1.19033594093e-09,3.8935819846e-11
20372000000,474,20372000000,,-8.0313457147e-06,-0.0002484053839,0.00028827166534,5.9549951402e-05,0.00201959116384,4.93598745379e-05
20412000000,475,20412000000,,-5.30944953425e-06,-0.000158348193509,0.00029026469565,6.72322057653e-05,0.00229445286095,4.79951449961e-05
20452000000,476,20452000000,,-1.46963930092e-06,-3.36786324624e-05,0.000292166369036,0.000102815953142,0.00311724212952,4.71692328574e-05
20493000000,477,20493000000,,2.47769230555e-06,8.77822603798e-05,0.000294083642075,8.6188862042e-05,0.00264925812371,4.64682707388e-05
20532000000,478,20532000000,,6.25119810138e-06,0.000192138060811,0.000295889331028,8.79584549693e-05,0.00224209646694,4.61268755316e-05
20573000000,479,20573000000,,8.89386410563e-06,0.000257674546447,0.000297820544802,2.20227204528e-11,4.76409078853e-10,2.23971449026e-11
20611000000,480,20611000000,,1.02950771179e-05,0.000272763398243,0.000299507781165,1.15162220038e-12,-5.33894413055e-12,2.52539872694e-12
20647000000,481,20647000000,,9.35361549637e-06,0.000227705939324,0.000301215652144,-2.91077231762e-11,-1.24416743574e-09,3.51760912065e-11
20686000000,482,20686000000,,7.86638247519e-06,0.000159278570209,0.000302936416119,-4.34302073471e-11,-1.72204928095e-09,4.04479019722e-11
20726000000,483,20726000000,,5.84330291531e-06,8.27942785691e-05,0.000304615648929,-5.21030633536e-05,-0.00206237612292,4.2624076741e-05
20767000000,484,20767000000,,3.76846583094e-06,-7.65599736496e-07,0.000306262430968,-5.95140627411e-05,-0.00208297604695,4.18324743805e-05
20806000000,485,20806000000,,6.75600119848e-07,-0.000112999579869,0.000307965179672,-7.15884380043e-05,-0.0027010680642,4.13514098909e-05
20847000000,486,20847000000,,-2.0473873974e-06,-0.000208259676583,0.000309609546093,-6.29607893599e-11,-1.915615222e-09,4.00843976067e-11
20887000000,487,20887000000,,-4.3336381168e-06,-0.000282347318716,0.00031128351111,-2.5056904468e-11,-8.91489382315e-10,2.71743322289e-11
20925000000,488,20925000000,,-4.77751427752e-06,-0.000284208450466,0.000312818447128,-7.50203881222e-13,8.51268500135e-11,8.30021815168e-12
20964000000,489,20964000000,,-4.58559725303e-06,-0.000260820175754,0.000314368167892,5.42969965864e-12,3.21423498928e-10,1.57710823567e-11
21002000000,490,21002000000,,-4.19337720814e-06,-0.000224862262257,0.000315841287374,6.47404482454e-12,5.95930194081e-10,2.08797684004e-11
21043000000,491,21043000000,,-3.38843346981e-06,-0.000175697656232,0.000317311816616,1.73498906214e-11,9.46101530452e-10,2.55694736218e-11
21083000000,492,21083000000,,-2.46592844633e-06,-0.00011470534082,0.000318815960782,2.0634239109e-11,1.28369292973e-09,2.90797576991e-11
21123000000,493,21123000000,,-1.10495125227e-06,-4.47927523055e-05,0.000320255378028,3.04056571587e-11,1.62006252857e-09,3.20902436568e-11
21163000000,494,21163000000,,2.75366147662e-07,3.1591476727e-05,0.000321671948768,4.16826151195e-05,0.00200378126465,3.52471943188e-05
21202000000,495,21202000000,,2.10064263229e-06,0.000115442300739,0.0003230747825,4.16302063968e-05,0.0020696381107,3.48524008587e-05
21240000000,496,21240000000,,4.24800418841e-06,0.000217652879655,0.000324358610669,6.18314224994e-05,0.00271746702492,3.45688531525e-05
21277000000,497,21277000000,,6.4834675868e-06,0.000311822950607,0.000325663393596,4.74381340609e-05,0.00208321399987,3.40945880453e-05
21316000000,498,21316000000,,8.41663222673e-06,0.000387740001315,0.000326984707499,3.53289862642e-11,1.17318632586e-09,2.58306293022e-11
21355000000,499,21355000000,,9.62246849667e-06,0.000419679883635,0.000328253838234,2.35859010274e-12,4.36451152996e-11,4.90737788947e-12
21394000000,500,21394000000,,9.39816345635e-06,0.000388525018934,0.000329498579958,-5.0852789861e-12,-7.5640954611e-10,1.99638760384e-11
21433000000,501,21433000000,,8.74140550877e-06,0.000329962873366,0.000330807233695,-1.93575242641e-11,-1.30529853593e-09,2.53922854965e-11
21470000000,502,21470000000,,7.85722477303e-06,0.00026382462238,0.000331922754413,-2.14598304404e-11,-1.98651450845e-09,3.04538373685e-11
21504000000,503,21504000000,,6.80625862515e-06,0.000190089151147,0.000332973169861,-3.54626135959e-05,-0.00215847790241,2.95833415294e-05
21536000000,504,21536000000,,5.63023286304e-06,0.000115223338071,0.000333908887114,-3.45343178196e-05,-0.00243098381907,2.89852850983e-05
21575000000,505,21575000000,,3.63392791769e-06,-1.12675752462e-05,0.000335077929776,-5.31239966222e-05,-0.00300721963868,2.81707270915e-05
21616000000,506,21616000000,,1.76496655513e-06,-0.000125535516418,0.000336167431669,-3.81267745979e-05,-0.00262370426208,2.77443559753e-05
21656000000,507,21656000000,,-3.99437176668e-08,-0.000219085181016,0.00033723708475,-4.15435151557e-11,-1.85718218582e-09,2.61924319039e-11
21697000000,508,21697000000,,-1.14892122838e-06,-0.00027342067915,0.000338340381859,-5.69292443048e-12,-2.6291110955e-10,9.63630650969e-12
21737000000,509,21737000000,,-1.32763886995e-06,-0.000250548211625,0.000339411926689,1.18269218204e-12,5.60068547095e-10,1.36090418448e-11
21779000000,510,21779000000,,-9.78077991931e-07,-0.00020081398543,0.000340422644513,5.47046739505e-12,9.77697256488e-10,1.7297843713e-11
21816000000,511,21816000000,,-7.3931175848e-07,-0.00014102437126,0.00034136819886,9.55923274565e-12,1.3859957626e-09,1.98344309726e-11
21855000000,512,21855000000,,-2.03119697062e-07,-7.50583276385e-05,0.000342235667631,9.05876155338e-12,1.62562974193e-09,2.07738999614e-11
21894000000,513,21894000000,,2.36791265706e-07,3.30219086209e-06,0.000343166524544,1.59660132337e-11,1.98098715209e-09,2.23398816807e-11
21934000000,514,21934000000,,9.13862436391e-07,8.52099110489e-05,0.000344051921275,1.13693276944e-05,0.00200879969634,2.18545028474e-05
21974000000,515,21974000000,,1.55279781211e-06,0.000169743609149,0.00034491790575,2.29250199482e-05,0.0021314159967,2.14841747948e-05
22011000000,516,22011000000,,2.33820628637e-06,0.000264248083113,0.000345660402672,1.69403119799e-05,0.00259694037959,2.09904810617e-05
22042000000,517,22042000000,,3.09527058562e-06,0.000345358246705,0.000346346205333,2.58813979599e-05,0.00219179154374,2.06356853596e-05
22066000000,518,22066000000,,3.65639402844e-06,0.000395084818592,0.000346817047102,1.78908624027e-11,1.72868819259e-09,1.88532592316e-11
22097000000,519,22097000000,,4.13795896748e-06,0.00043603789527,0.000347437598975,5.5639282244e-12,3.82033460422e-10,8.65014483653e-12
22124000000,520,22124000000,,4.2932811084e-06,0.000431148306234,0.000347967172274,2.00055054987e-12,-1.77625164577e-10,5.79380510582e-12
22152000000,521,22152000000,,4.31052194472e-06,0.000408966443501,0.000348501838744,-2.35147079759e-12,-4.72222483339e-10,9.14792807477e-12
22176000000,522,22176000000,,4.17520186602e-06,0.000381128193112,0.000348947825842,-3.58957134849e-12,-8.80840789197e-10,1.21822855623e-11
22226000000,523,22226000000,,3.94175822294e-06,0.000299004575936,0.000349858572008,-8.95745977392e-12,-1.58523938421e-09,1.54601557251e-11
22257000000,524,22257000000,,-0.000159832576173,0.000394286616938,0.000351169146597,-0.00479132449254,0.00249358615838,4.16978873545e-05
22278000000,525,22278000000,,-0.000175777313416,0.000361216749297,0.000351722730557,0.000511588703375,-0.00301499990746,2.4084949473e-05
22313000000,526,22313000000,,1.59952560352e-05,7.86050804891e-05,0.000352477858542,0.00899254530668,-0.0120888967067,2.18514614971e-05
22344000000,527,22344000000,,0.000303420878481,-0.000317571335472,0.000353106675902,0.00952954590321,-0.0131880566478,1.94987242139e-05
22378000000,528,22378000000,,0.00051166175399,-0.000616836594418,0.00035355440923,0.00277189165354,-0.0043957317248,8.92884236237e-06
22406000000,529,22406000000,,0.000495369487908,-0.000623677740805,0.000353736832039,-0.00217379676178,0.00181247957516,4.28817929787e-06
22434000000,530,22434000000,,0.000390985253034,-0.000509424135089,0.000353959359927,-0.00440829247236,0.00492661260068,9.21426271816e-06
22458000000,531,22458000000,,0.000283202971332,-0.000383747974411,0.000354236370185,-0.00440808339044,0.00528512895107,1.20519407574e-05
22473000000,532,22473000000,,0.000228873526794,-0.000319500570185,0.000354442279786,-0.00316786114126,0.00377126550302,1.2937005522e-05
22511000000,533,22511000000,,0.000138761999551,-0.000224362782319,0.000354923336999,-0.00225452729501,0.00221561803482,1.27929952214e-05
22557000000,534,22557000000,,4.19244279328e-05,-0.000125501697767,0.000355438998668,-0.00234852242284,0.00249804696068,1.18448924695e-05
22581000000,535,22581000000,,-3.51141607098e-05,-4.32745982835e-05,0.000355755561031,-0.00317763839848,0.00334931630641,9.5813520602e-06
22607000000,536,22607000000,,-0.000108419786557,3.99606142309e-05,0.000355950003723,-0.00307840434834,0.00371062918566,7.75628723204e-06
22642000000,537,22642000000,,-0.000191872590221,0.000147500817548,0.000356258911779,-0.00164644815959,0.00215729232877,8.33076137496e-06
22681000000,538,22681000000,,-0.000214115396375,0.000176626068424,0.000356636650395,-3.84366254103e-11,5.57398988077e-11,1.80504732255e-12
22712000000,539,22712000000,,-0.000212187544093,0.000168672879227,0.000356976233888,3.6354568661e-11,-8.32779400994e-11,2.31522353372e-12
22736000000,540,22736000000,,-0.000215914973523,0.000168436861713,0.000357222568709,-1.80276991252e-11,7.01034803124e-12,9.7062798337e-13
22775000000,541,22775000000,,-0.000222123868298,0.000179953043698,0.000357560318662,-2.44915532299e-10,7.36774641297e-10,3.94230915274e-12
22814000000,542,22814000000,,-0.000204405019758,0.000189942147699,0.000357820943464,1.72351369288e-10,2.42795245714e-11,2.08167792899e-12
22862000000,543,22862000000,,-0.000150023697643,0.000120858632727,0.000358209712431,1.04279040958e-09,-1.41860523328e-09,7.49710363235e-12
22910000000,544,22910000000,,-0.000163070319104,0.000125813079649,0.000358437595423,-2.01472019623e-10,2.87766810381e-10,1.67414573957e-12
22926000000,545,22926000000,,-0.000180374641786,0.000175154928002,0.000358414050424,-0.00129125919193,0.00407482916489,-5.03498813487e-06
22949000000,546,22949000000,,-0.000149991639773,0.000201163260499,0.000358439137926,0.0021362346597,0.000269790005405,3.02805915453e-06
22973000000,547,22973000000,,-0.000105375758721,0.000177873793291,0.000358558056178,1.68047120663e-09,-1.01750941006e-09,5.02154524559e-12
23008000000,548,23008000000,,-0.000118371863209,0.000212091224967,0.000358784891432,-4.0245626276e-10,7.46067929658e-10,4.07353794793e-12
23036000000,549,23036000000,,-0.000155559362611,0.000270040269243,0.00035892878077,-0.00129938742612,0.00213164533488,5.01007889397e-06
23061000000,550,23061000000,,-8.72965174494e-05,0.000225929252338,0.00035899609793,0.00328143755905,-0.00223368313164,1.94246763385e-06
23103000000,551,23103000000,,4.00359967898e-05,0.000146917314851,0.000359072320862,0.00245157652535,-0.00141555815935,1.85906969818e-06
23137000000,552,23137000000,,7.76489832788e-06,0.000189241967746,0.000359375902917,-0.0016426818911,0.00164663337637,9.1528700068e-06
23159000000,553,23159000000,,-3.97146723117e-05,0.000228634191444,0.000359589292202,-0.00224611512385,0.00167522078846,9.45938882069e-06
23189000000,554,23189000000,,-4.68650359835e-05,0.000226798932999,0.000359726109309,9.4962426811e-10,-1.06063591243e-09,1.26401330808e-12
23215000000,555,23215000000,,-2.2915255613e-06,0.000178576709004,0.00035973355989,0.00174228299875,-0.00187879335135,-1.98203267132e-07
23236000000,556,23236000000,,-1.6026540834e-05,0.000185505967238,0.000359821307939,-1.21469356795e-09,7.57418738839e-10,4.57555000832e-12
23290000000,557,23290000000,,-5.27561678609e-05,0.000172358748387,0.000360057572834,-3.39163072627e-11,-3.02666502972e-10,1.30645700421e-12
23322000000,558,23322000000,,5.38090207556e-05,6.76860217936e-05,0.000360095407814,0.00327081931755,-0.0031192698516,6.46476792099e-07
23358000000,559,23358000000,,0.0001217160534,2.20093315875e-05,0.000360221718438,1.02583341821e-09,-6.94617918739e-10,2.74375097295e-12
23405000000,560,23405000000,,8.44638725539e-06,6.86428102199e-05,0.000360429636203,-0.00257712067105,0.000923036714084,3.58327838512e-06
23448000000,561,23448000000,,-0.0001074916363,7.2005961556e-05,0.000360742938938,-1.54622559201e-09,-4.92566765153e-10,5.87408680724e-12
23497000000,562,23497000000,,8.49354910315e-05,-0.000106606348709,0.000361399201211,0.00411679130048,-0.0033944749739,1.08785961856e-05
23556000000,563,23556000000,,0.000435204216046,-0.000231966070714,0.00036294592428,0.00306046940386,-0.00068137148628,2.18276109081e-05
23602000000,564,23602000000,,0.000192391788005,-8.54413301568e-05,0.000364448147593,-0.00726791378111,0.00350152165629,2.73596160696e-05
23654000000,565,23654000000,,-0.000525970477611,0.000137297683978,0.000365975196473,-0.0107758706436,0.00284944823943,2.20562651521e-05
23699000000,566,23699000000,,-0.000603350286838,6.53330353089e-05,0.000368485663785,0.0016102216905,-0.00244414526969,4.99595807923e-05
23748000000,567,23748000000,,6.61328231217e-05,-0.000200363792828,0.000372219044948,0.0124831963331,-0.00403843168169,6.13167212578e-05
23783000000,568,23783000000,,0.000312081770971,-0.000228310687817,0.000374476949219,0.00404156837612,0.00149314280134,7.83557406976e-05
23817000000,569,23817000000,,4.0334994992e-05,1.36351200126e-05,0.00037769266055,-0.0111765041947,0.00760119315237,8.23398368084e-05
23853000000,570,23853000000,,-0.000386952538975,0.000201706003281,0.000380190496799,-0.0104415966198,0.00375466793776,5.88516595599e-05
23891000000,571,23891000000,,-0.000383284786949,0.000101196885225,0.000382044730941,0.0035887947306,-0.00421101646498,4.07124462072e-05
23916000000,572,23916000000,,-0.000187100391486,-1.17632980619e-05,0.000383078382583,0.00876881554723,-0.00408102851361,3.66558124369e-05
23938000000,573,23938000000,,-0.000188349586097,4.4665815949e-05,0.000383001141017,-0.0012575610308,0.00326200621203,-8.94517324923e-06
23975000000,574,23975000000,,-0.000368390203221,0.000191808285308,0.000382699741749,-0.00544741842896,0.00388752389699,-9.75840703177e-06
24007000000,575,24007000000,,-0.000320080376696,0.000142382996273,0.000382741942303,0.00508580403402,-0.0041480017826,2.06739150599e-06
24043000000,576,24043000000,,1.87866753549e-05,-9.46376676438e-05,0.000382965547033,0.0119639206678,-0.00758998841047,9.14851716516e-06
24079000000,577,24079000000,,0.000251886318438,-0.000210496844375,0.000382941536373,0.00270905392244,-0.000316823425237,-6.2410845203e-06
24121000000,578,24121000000,,0.000137057184475,-3.95099559682e-05,0.000383042206522,-0.00510627729818,0.00584719702601,4.25335565524e-06
24140000000,579,24140000000,,7.17918665032e-05,4.95855201734e-05,0.000382938102121,-0.0011490075849,0.00248208991252,-1.18133975775e-05
24185000000,580,24185000000,,0.000245322094997,-8.60613436089e-05,0.000381419347832,0.00620361045003,-0.00550945708528,-4.5636199502e-05
24218000000,581,24218000000,,0.000378180848202,-0.000234329098021,0.000379784818506,0.00192055583466,-0.00314799300395,-4.82200266561e-05
24272000000,582,24272000000,,0.000119732270832,-3.34518554155e-05,0.000377968681278,-0.00699431821704,0.00609547132626,-2.75667116512e-05
24310000000,583,24310000000,,-0.000112016379717,0.000232593170949,0.000376767216949,-0.00476848706603,0.00571410031989,-3.19274986396e-05
24345000000,584,24345000000,,-7.69567341194e-05,0.000218354078243,0.000375573872589,0.00416874140501,-0.00349928648211,-5.07604127051e-05
24373000000,585,24373000000,,0.000132057917654,-4.96808788739e-05,0.000373961927835,0.00574337877333,-0.00831425469369,-3.94347152906e-05
24416000000,586,24416000000,,0.000156156602316,-0.000173326712684,0.000372114678612,-0.00267937546596,0.000381892954465,-5.02981092723e-05
24449000000,587,24449000000,,-6.04525957897e-05,5.54192192794e-05,0.000370115449186,-0.00662707025185,0.00811622105539,-5.37718187843e-05
24484000000,588,24484000000,,-0.000146032849443,0.000235287312535,0.000368231616449,-0.000510923622642,0.00324519327842,-5.10922691319e-05
24519000000,589,24519000000,,8.53894744068e-06,9.19949088711e-05,0.000366486841813,0.00524107739329,-0.00581253599375,-4.75393935631e-05
24540000000,590,24540000000,,7.4737421528e-05,-2.7786289138e-05,0.000365409330698,0.00152392196469,-0.00536425691098,-5.3570853197e-05
24572000000,591,24572000000,,-4.74008011224e-05,1.41983191497e-05,0.000363963481504,-0.00573182478547,0.00403015175834,-4.10029751947e-05
24606000000,592,24606000000,,-0.000172699597897,0.000200664420845,0.000362506863894,-0.00269828573801,0.0046266335994,-4.15000213252e-05
24643000000,593,24643000000,,-1.57439626491e-05,7.65023723943e-05,0.000360641250154,0.0045155743137,-0.00428509013727,-4.83611693198e-05
24675000000,594,24675000000,,0.000114756563562,-0.000183036056114,0.000358701043297,0.00314420671202,-0.00714899227023,-5.8030767832e-05
24704000000,595,24704000000,,3.32214985974e-05,-0.000213517909287,0.000356357195415,-0.00587787665427,0.00239913840778,-8.94802360563e-05
24740000000,596,24740000000,,-0.000200918395421,4.34504072473e-05,0.000353532552253,-0.00723314937204,0.00967023056,-8.45424001454e-05
24770000000,597,24770000000,,-0.00025507810642,0.00020367174875,0.000351215305272,0.00106933526695,0.00245691323653,-6.74170805723e-05
24818000000,598,24818000000,,-5.24470488017e-06,-6.3492640038e-05,0.000349053007085,0.0046165031381,-0.00572864292189,-3.86262654501e-05
24843000000,599,24843000000,,-1.55737943714e-05,-0.000136797767482,0.000347221444827,-0.0022472308483,-0.00105328601785,-7.30957835913e-05
24877000000,600,24877000000,,-0.000293317454634,0.000145866550156,0.00034481898183,-0.00880825892091,0.00987968035042,-7.21149262972e-05
24904000000,601,24904000000,,-0.00043478232692,0.000386356987292,0.000342493207427,-0.00353864370845,0.00749641982839,-8.60060827108e-05
24940000000,602,24940000000,,-0.000241367844865,0.000245334667852,0.000340153317666,0.00600480567664,-0.00556076224893,-5.42133966519e-05
24981000000,603,24981000000,,-7.76731321821e-05,-4.16525908804e-05,0.000337784760632,0.00245175906457,-0.00518900481984,-5.4665353673e-05
25015000000,604,25015000000,,-0.000299249193631,0.000141103344504,0.000334878161084,-0.00847592204809,0.00838236510754,-8.88575959834e-05
25046000000,605,25046000000,,-0.000557637307793,0.000510209589265,0.000331687071593,-0.00815635640174,0.012795898132,-0.000111640430987
25082000000,606,25082000000,,-0.000495844811667,0.000580479332712,0.000328361900756,0.00435519963503,-0.00161535933148,-7.79664769652e-05
25116000000,607,25116000000,,-0.00022719638946,0.000255481631029,0.000326014996972,0.00731301447377,-0.00944480113685,-6.19749334874e-05
25149000000,608,25149000000,,-0.000267526105745,0.000213756327867,0.000324081338476,-0.00344873475842,0.00126423453912,-5.48039170098e-05
25176000000,609,25176000000,,-0.000489363796078,0.000473526510177,0.000322376174154,-0.00875587575138,0.0108260111883,-6.51238806313e-05
25227000000,610,25227000000,,-0.000494618783705,0.000626818509772,0.000319394748658,1.68833846903e-09,3.2174304887e-10,-4.80464210084e-11
25273000000,611,25273000000,,-0.000127346560475,0.000212621715036,0.000315369135933,0.0074866944924,-0.00897325295955,-8.27196708997e-05
25308000000,612,25308000000,,-0.000145451849676,1.31785336634e-05,0.000311339099426,-0.00235079647973,-0.00374795077369,-0.000108859829197
25337000000,613,25337000000,,-0.000405005906941,0.00020659758593,0.000307206530124,-0.0101085761562,0.00914442259818,-0.000143601544551
25385000000,614,25385000000,,-0.000533437705599,0.000576549849939,0.000301666004816,-0.000225990050239,0.00518711190671,-9.84699363471e-05
25424000000,615,25424000000,,-0.000213121747947,0.000317896541674,0.000296471756883,0.00898080691695,-0.0084629477933,-0.000130581480335
25474000000,616,25474000000,,-4.06085200666e-05,-0.000202785624424,0.00028963224031,0.000851572840475,-0.00756571488455,-0.000119266136608
25514000000,617,25514000000,,-0.000434838410001,-4.01809529649e-07,0.000280935957562,-0.010080838576,0.00749292317778,-0.000201954258955
25565000000,618,25565000000,,-0.000786290795077,0.000698890595231,0.000268014613539,-0.00338892010041,0.0100825801492,-0.000217466484173
25614000000,619,25614000000,,-0.000315334531479,0.000550979282707,0.000254650280112,0.0117166982964,-0.00733248051256,-0.000244759168709
25664000000,620,25664000000,,0.000356386444764,-0.000300224230159,0.000239477420109,0.0102966548875,-0.0159544702619,-0.000273900019238
25733000000,621,25733000000,,1.61871066666e-05,-0.000629015441518,0.000216110507608,-0.00798692833632,0.0022605471313,-0.000263674737653
25796000000,622,25796000000,,-0.000842856126837,0.000363928935258,0.000183811163879,-0.00786814652383,0.0145878810436,-0.000401075318223
25851000000,623,25851000000,,-0.000432957778685,0.00120352534577,0.000145345780766,0.0121849523857,0.008904424496,-0.000579284213018
25894000000,624,25894000000,,0.000559938373044,0.000913319003303,0.00011237081344,0.0216508116573,-0.0109637668356,-0.000669142697006
25945000000,625,25945000000,,0.00131124490872,-0.000129196909256,7.56792069296e-05,0.00933165755123,-0.0180691499263,-0.000612000236288
26004000000,626,26004000000,,0.000942145125009,-0.000450369057944,4.9129150284e-05,-0.00926268380135,0.000509281409904,-0.000331434683176
26055000000,627,26055000000,,0.000327520858264,0.000241085348534,3.32892595907e-05,-0.00943911727518,0.0149127310142,-0.000241450921749
26098000000,628,26098000000,,0.000428053434007,0.000860032625496,2.03760791919e-05,0.00516639975831,0.0105332946405,-0.000255239254329
26145000000,629,26145000000,,0.000986051280051,0.000694453774486,1.55674308644e-06,0.0102063119411,-0.00671679293737,-0.000355588417733
26221000000,630,26221000000,,0.000666977488436,-0.000162240001373,-2.33331502386e-05,-0.00870367884636,-0.00555391609669,-0.000205202086363
26273000000,631,26273000000,,-0.000295390869724,0.000205852556974,-4.6710458264e-05,-0.0160249099135,0.0104260873049,-0.000371205591364
26311000000,632,26311000000,,-0.000604864559136,0.00100400077645,-6.93427791703e-05,-0.00375237339176,0.019317349419,-0.000514094543178
26357000000,633,26357000000,,-0.000181285155122,0.00152709730901,-9.24077612581e-05,0.0116237327456,0.00678221136332,-0.000428418628871
26403000000,634,26403000000,,0.000345891312463,0.00117569195572,-0.000108485466626,0.00815668143332,-0.0102308448404,-0.000258970481809
26476000000,635,26476000000,,-1.67470498127e-05,0.000417201867094,-0.000116921117296,-0.0061990628019,-0.00541966455057,-4.15691065427e-05
26544000000,636,26544000000,,-0.00055479205912,0.00091506872559,-0.000132654531626,-0.00308446516283,0.00999458879232,-0.000181914278073
26577000000,637,26577000000,,-0.000257731793681,0.00148057949264,-0.000149705272634,0.0129168527201,0.0160672552884,-0.000520610366948
26624000000,638,26624000000,,0.000817436666694,0.0016142630484,-0.000175737630343,0.0197939611971,-0.00205699144863,-0.000442696356913
26661000000,639,26661000000,,0.00110430724453,0.00113098975271,-0.000194722495507,0.00322398170829,-0.0141486637294,-0.00046609545825
26701000000,640,26701000000,,0.000689233711455,0.000808403594419,-0.00020119540568,-0.0121169760823,-0.00543637899682,-7.03984333086e-05
26767000000,641,26767000000,,0.000141612559673,0.0011706026271,-0.000194007676328,-0.00439446931705,0.00280977366492,0.000123332982184
26809000000,642,26809000000,,0.000394269824028,0.00104787829332,-0.00019868228992,0.00847241934389,-0.00629471754655,-0.000133429086418
26861000000,643,26861000000,,0.00087972311303,5.03006194776e-05,-0.00020811741706,0.00623907381669,-0.0194311942905,-0.00012505306222
26900000000,644,26900000000,,0.000660909514409,-0.00073498376878,-0.000219928086153,-0.00827088393271,-0.0169360339642,-0.000265452457825
26953000000,645,26953000000,,-7.9427860328e-05,-0.000841614441015,-0.000237322354224,-0.011566804722,0.00224858010188,-0.000246968120337
27000000000,646,27000000000,,-4.54756227555e-05,-0.000331203249516,-0.000244774390012,0.00338743743487,0.00939743034542,-9.7528223705e-05
27064000000,647,27064000000,,0.0007189156604,-0.000403161509894,-0.000248634343734,0.00802972074598,-0.00414506765082,-1.89373422472e-05
27124000000,648,27124000000,,0.0004697466793,-0.00118021678645,-0.000268412113655,-0.00851811096072,-0.00903351046145,-0.000248978874879
27151000000,649,27151000000,,4.31431317338e-06,-0.00123063137289,-0.000280980282696,-0.021616153419,0.00169735495001,-0.00053588632727
27182000000,650,27182000000,,-0.000654848816339,-0.000816248881165,-0.000295222649584,-0.0184558387846,0.0167825743556,-0.000371625035768
27236000000,651,27236000000,,-0.000939547666349,9.17991492315e-05,-0.000303830951452,-0.00166846427601,0.0125448517501,-6.79135046084e-05
27294000000,652,27294000000,,-0.000877495156601,0.000118671705422,-0.000301022228086,0.000407824350987,-0.00292830355465,9.51888068812e-05
27342000000,653,27342000000,,-0.00122028868645,-0.000277082290268,-0.000291712378385,-0.00739395851269,-0.00729120476171,0.000216213215026
27372000000,654,27372000000,,-0.00151485577226,-0.000257995852735,-0.000290600204607,-0.0093434555456,0.00320685422048,1.19384503705e-05
27443000000,655,27443000000,,-0.00129289750475,0.000537741405424,-0.00029803669895,0.00620874902233,0.00678473711014,-2.67881168838e-05
27475000000,656,27475000000,,-0.000923529325519,0.000494702660944,-0.000302562606521,0.0118844592944,-0.00496180308983,-0.000128871790366
27503000000,657,27503000000,,-0.000775497057475,2.84907309833e-05,-0.000300470652292,0.00411377521232,-0.018661512062,0.000116695890028
27562000000,658,27562000000,,-0.00084095535567,-0.000841764791403,-0.000290521187708,0.000164684402989,-0.00970747601241,0.000166283876752
27627000000,659,27627000000,,-0.000371491652913,-0.000552497804165,-0.000280320062302,0.00898010469973,0.00717339618132,0.000154887122335
27666000000,660,27666000000,,0.000281563552562,-5.82709217269e-05,-0.000272740289802,0.0168197453022,0.0115226926282,0.000201457092771
27698000000,661,27698000000,,0.000696551986039,5.74268269702e-05,-0.000270293472568,0.00943600945175,-0.00163907639217,3.56924783773e-06
27749000000,662,27749000000,,0.00060523749562,-0.000403617945267,-0.000273569283308,-0.00501576019451,-0.00953210890293,-5.19949026057e-05
27772000000,663,27772000000,,0.000473062711535,-0.000502798939124,-0.000273413024843,-0.00472449045628,-0.000319801882142,4.3017356802e-05
27806000000,664,27806000000,,0.000582961016335,-0.000189623577171,-0.000266207178356,0.00506839714944,0.01102421619,0.000251533696428
27848000000,665,27848000000,,0.000792498001829,5.64347574254e-05,-0.0002578603453,0.0033681311179,0.00331926881336,0.000180962902959
27881000000,666,27881000000,,0.000644108105917,-0.00011286562949,-0.000254490587395,-0.00773582514375,-0.00795670691878,7.95953092165e-05
27911000000,667,27911000000,,0.000378682831069,-0.000290922878776,-0.000252287456533,-0.0121529223397,-0.00578007427976,8.99018632481e-05
27939000000,668,27939000000,,0.000207191274967,-0.000236148523982,-0.000247963296715,-0.00290444353595,0.00439088977873,0.000158082941198
27981000000,669,27981000000,,0.000254248094279,-4.79384652863e-05,-0.000241131579969,0.00120296119712,0.00341303809546,0.000163929289556
28024000000,670,28024000000,,4.26247497671e-05,-0.000220108500798,-0.000234172839555,-0.00591628206894,-0.00475288694724,0.000166719619301
28048000000,671,28048000000,,-0.000227514246944,-0.000382121797884,-0.000230427074712,-0.0112549010664,-0.00624109106138,0.000156162743224
28089000000,672,28089000000,,-0.000417567556724,-0.000326957320794,-0.000225348921958,-0.00274938577786,0.00262414035387,0.000127734441776
28126000000,673,28126000000,,-0.000294642173685,-0.00012733231415,-0.000221260255785,0.00469332654029,0.00490189949051,0.000101041528978
28158000000,674,28158000000,,-0.000239403991145,-0.000161384567036,-0.000216798420297,0.000655267271213,-0.00275087216869,0.000150528372615
28173000000,675,28173000000,,-0.000297185470117,-0.000243208458414,-0.000214696003241,-0.00583173334599,-0.00746571971104,0.000179954920895
28208000000,676,28208000000,,-0.000444977980806,-0.0003472204844,-0.000208523037145,-0.00271179992706,-0.000826577655971,0.000161551506608
28250000000,677,28250000000,,-0.000355649826815,-0.000250114389928,-0.000202374823857,0.00441273767501,0.00338100269437,0.000141286058351
28283000000,678,28283000000,,-0.000207509307074,-0.000256871338934,-0.000196903871256,0.00354700954631,-0.000639978330582,0.000158485840075
28316000000,679,28316000000,,-0.00026317013544,-0.000398736650823,-0.000192169391084,-0.00190048338845,-0.00382803054526,0.000148875275045
28341000000,680,28341000000,,-0.000323959247908,-0.000417559582274,-0.000189089827472,-0.00250956439413,0.000352772884071,0.000131173044792
28372000000,681,28372000000,,-0.000247562362347,-0.000261945911916,-0.000184384552995,0.00355053227395,0.00568484840915,0.000151957356138
28407000000,682,28407000000,,-7.06410064595e-05,-0.000147952276166,-0.000178985166713,0.00464732013643,0.00227004825138,0.000155269241077
28433000000,683,28433000000,,-6.73512913636e-05,-0.000201505812583,-0.000175172492163,-0.00136260234285,-0.00311146397144,0.000138419869472
28479000000,684,28479000000,,-0.000249793811236,-0.000276067468803,-0.00016854556452,-0.00336502003483,-0.000641334685497,0.000146740072523
28517000000,685,28517000000,,-0.000203354211408,-0.000130568703753,-0.000163715783856,0.00253323302604,0.00453125871718,0.000131190390675
28563000000,686,28563000000,,0.000114504029625,6.10232564213e-05,-0.000158152601216,0.00648550735787,0.00307417637669,0.000127644234453
28610000000,687,28610000000,,0.000220931338845,-3.31255323545e-05,-0.000152948501636,-7.67811070546e-05,-0.00305643770844,0.000109169814095
28644000000,688,28644000000,,2.06852587326e-06,-0.000191124418052,-0.000150052772369,-0.00810594856739,-0.004772615619,9.37682270887e-05
28682000000,689,28682000000,,-0.000263858324615,-0.00019931535644,-0.000146010192111,-0.00542909698561,0.00108830060344,0.000110502449388
28722000000,690,28722000000,,-0.000170316969161,-2.80957028735e-05,-0.000141855940456,0.00388334970921,0.00426681013778,0.000108219857793
28749000000,691,28749000000,,-2.849525481e-05,-7.93036724644e-06,-0.000139040639624,0.005259714555,-0.000227912940318,0.0001112522732
28776000000,692,28776000000,,-6.52385497233e-05,-0.000133214882226,-0.000135492620757,-0.00323774293065,-0.00514684338123,0.000127329461975
28823000000,693,28823000000,,-0.000337698118528,-0.000224113100558,-0.000129616586491,-0.00438313232735,-0.000683665915858,0.000127904917463
28874000000,694,28874000000,,-0.000176148911123,-8.92866592039e-06,-0.000125394159113,0.00515792006627,0.00452152034268,9.10231538001e-05
28931000000,695,28931000000,,0.000431577500422,0.00012123536726,-0.000121560391563,0.00764890620485,0.000152664651978,8.04520022939e-05
28954000000,696,28954000000,,0.000475013395771,-1.91336130229e-05,-0.000121894096083,-8.86522539076e-05,-0.00713047012687,-1.7382832084e-05
29009000000,697,29009000000,,-0.00011946081213,-0.000437791662989,-0.000122274039313,-0.0111881867051,-0.00564953545108,2.07244174817e-05
29053000000,698,29053000000,,-0.000383790145861,-0.000380752695492,-0.000122764191474,-0.0026323327329,0.00367324263789,1.57314298121e-06
29088000000,699,29088000000,,-3.20154103974e-05,-5.39812535862e-05,-0.000123348349007,0.0122984508052,0.0094657689333,-7.54928805691e-07
29107000000,700,29107000000,,0.000241882604314,6.3405954279e-05,-0.000123330159113,0.0158299785107,0.00399948516861,-1.58380998982e-06
29119000000,701,29119000000,,0.00032408311381,3.70654888684e-05,-0.000122493816889,0.00237358431332,-0.00521578127518,0.00010498813208
29159000000,702,29159000000,,0.000365664513083,-7.97093525762e-05,-0.000117272982607,0.000761667732149,-0.00225097779185,0.000139724710607
29199000000,703,29199000000,,0.000601074600127,0.000104399354314,-0.000110174893052,0.00649073813111,0.00546074425802,0.000184805321624
29235000000,704,29235000000,,0.00080978218466,0.000248119933531,-0.000103836602648,0.00401009945199,0.00242214370519,0.000167223042808
29275000000,705,29275000000,,0.000704105012119,1.05144736153e-05,-0.000100817109342,-0.00410578167066,-0.00665133586153,7.93277940829e-05
29312000000,706,29312000000,,0.000445534271421,-0.000263440044364,-9.83420904959e-05,-0.00623453035951,-0.00571371428668,7.62125855545e-05
29342000000,707,29342000000,,0.000423268036684,-0.000147189668496,-9.41766484175e-05,0.000440366973635,0.0054119550623,0.000145606230944
29381000000,708,29381000000,,0.000596798548941,0.000208895420656,-8.76096892171e-05,0.00385436066426,0.00807159114629,0.000168048674823
29417000000,709,29417000000,,0.000537469226401,0.000162345269928,-8.29254931887e-05,-0.00335345743224,-0.00326351937838,0.00013283987937
29459000000,710,29459000000,,0.00012534079724,-0.000277284154436,-7.77586610639e-05,-0.00868970248848,-0.00897031836212,0.000128498053527
29492000000,711,29492000000,,-1.22019600894e-05,-0.000296388636343,-7.41461699363e-05,-0.00240340572782,0.00166541931685,0.00011450106831
29507000000,712,29507000000,,8.67663984536e-05,-0.00010419911996,-7.25918507669e-05,0.00815562158823,0.0143150500953,9.60312027019e-05
29536000000,713,29536000000,,0.000254361249972,0.000169482373167,-6.93382971804e-05,0.00530403340235,0.00845478568226,0.000127916937345
29568000000,714,29568000000,,0.000177983369213,0.000104953440314,-6.42535742372e-05,-0.00397448427975,-0.00413260795176,0.000154650930199
29627000000,715,29627000000,,1.82152161869e-05,3.81039462809e-05,-5.59778527531e-05,-6.32573715631e-10,8.59643800588e-10,1.04871306084e-10
29693000000,716,29693000000,,0.00052971689729,0.00079420383554,-4.94658488606e-05,0.00741714751348,0.00959995295852,0.000103749247501
29727000000,717,29727000000,,0.000833674101159,0.00104659970384,-4.86585522594e-05,0.00819430034608,0.00509844301268,7.49832588554e-06
29773000000,718,29773000000,,0.00068881601328,0.000662394741084,-4.67673635285e-05,-0.00620602862909,-0.0110751036555,6.68458742439e-05
29815000000,719,29815000000,,0.000166573285242,2.40575609496e-05,-4.37775415776e-05,-0.0108185103163,-0.0126570863649,8.01407804829e-05
29855000000,720,29855000000,,0.000129729392938,4.79269401694e-05,-3.96853065467e-05,0.00144794606604,0.00339607545175,0.00011206977797
29919000000,721,29919000000,,0.000719024101272,0.000716663489584,-3.09512033709e-05,0.00620253244415,0.00648225378245,0.000141619559145
29965000000,722,29965000000,,0.000529043143615,0.000427184189903,-2.70482978522e-05,-0.00815821159631,-0.0107805356383,8.14796730992e-05
30002000000,723,30002000000,,-0.000190504229977,-0.000377806194592,-2.43713020609e-05,-0.020799163729,-0.0213735755533,9.40833633649e-05
30046000000,724,30046000000,,-0.0009962876793,-0.00115274079144,-2.0039437004e-05,-0.0138789266348,-0.0130990408361,0.000109612898086
30092000000,725,30092000000,,-0.00095937383594,-0.00106232892722,-1.42075314216e-05,0.00476736528799,0.0059154597111,0.000130184474983
30142000000,726,30142000000,,-0.000402784411563,-0.000474133266835,-6.7679256972e-06,0.00914176832885,0.0091536398977,0.000148292965605
30185000000,727,30185000000,,-0.0005028435844,-0.000541334098671,-5.10071117787e-07,-0.00537578482181,-0.00456538470462,0.00014805252431
30220000000,728,30220000000,,-0.000994832371362,-0.000996189424768,4.87059969601e-06,-0.0145277027041,-0.0128399431705,0.000160145340487
30269000000,729,30269000000,,-0.0011186945485,-0.00108796707354,1.2157324818e-05,0.0012893382227,0.00167307129595,0.000137526163599
30331000000,730,30331000000,,-0.000347584660631,-0.000329691072693,1.80938604899e-05,0.0116717480123,0.0112576102838,0.000109463027911
30375000000,731,30375000000,,-7.99665649538e-05,-0.000118830852443,2.31974918279e-05,0.00220975396223,0.000714426918421,0.000117259267427
30419000000,732,30419000000,,-0.000537570100278,-0.000643786217552,2.89560721285e-05,-0.0120971212164,-0.0133303264156,0.000133423745865
30448000000,733,30448000000,,-0.000897910504136,-0.00103031937033,3.26058907376e-05,-0.0120239201933,-0.0126806087792,0.000136369621032
30493000000,734,30493000000,,-0.000819696986582,-0.000976138340775,3.97575713578e-05,0.00454399967566,0.00431470572948,0.000150398074766
30547000000,735,30547000000,,-0.000415090820752,-0.000526088289917,4.75873457617e-05,0.00526926899329,0.00612783897668,0.00014375403407
30583000000,736,30583000000,,-0.000516974541824,-0.000605861132499,5.23987946508e-05,-0.00804868340492,-0.00732225645334,0.000160143797984
30640000000,737,30640000000,,-0.00128884427249,-0.00141998031177,6.17242840235e-05,-0.0103388661519,-0.0109747461975,0.000155450296006
30678000000,738,30678000000,,-0.00126769265626,-0.00141643115785,6.84136757627e-05,0.0056567187421,0.00551762850955,0.000162807860761
30703000000,739,30703000000,,-0.000856000871863,-0.000991745269857,7.36132278689e-05,0.0194040499628,0.0201362296939,0.000211075428524
30762000000,740,30762000000,,-5.06684373249e-05,-4.80617345602e-05,8.29208147479e-05,0.00978981796652,0.0120759392157,0.000151688800543
30798000000,741,30798000000,,-0.000122167752124,-4.44564284408e-05,9.10539311008e-05,-0.00374535704032,-0.00239942548797,0.000217410124606
30843000000,742,30843000000,,-0.000281535438262,-0.000347379333107,9.95636946755e-05,-0.00202430645004,-0.00610730331391,0.0001799006277
