%time,field.header.seq,field.header.stamp,field.header.frame_id,field.angular_velocities0,field.angular_velocities1,field.angular_velocities2,field.angular_velocities3
14246000000,315,14246000000,,430.775014004,430.868985581,430.775014004,430.868985581
14274000000,316,14274000000,,431.317339373,431.41131095,431.317339373,431.41131095
14302000000,317,14302000000,,433.894012134,433.987983712,433.894012134,433.987983712
14338000000,318,14338000000,,434.727938579,434.821910156,434.727938579,434.821910156
14375000000,319,14375000000,,431.933564517,431.828637871,431.933564517,431.828637871
14411000000,320,14411000000,,434.758820624,434.653893979,434.758820624,434.653893979
14447000000,321,14447000000,,435.283847564,435.178920918,435.283847564,435.178920918
14476000000,322,14476000000,,434.722654315,434.617727669,434.722654315,434.617727669
14510000000,323,14510000000,,434.392898594,434.485721201,434.392898594,434.485721201
14547000000,324,14547000000,,431.804632414,431.89745502,431.804632414,431.89745502
14585000000,325,14585000000,,431.515283719,431.608106325,431.515283719,431.608106325
14624000000,326,14624000000,,433.437643623,433.530466229,433.437643623,433.530466229
14664000000,327,14664000000,,430.989696913,430.888746831,430.989696913,430.888746831
14703000000,328,14703000000,,432.400535399,432.299585317,432.400535399,432.299585317
14740000000,329,14740000000,,433.42074778,433.319797698,433.42074778,433.319797698
14782000000,330,14782000000,,431.117836717,431.016886635,431.117836717,431.016886635
14819000000,331,14819000000,,431.466661264,431.455199179,431.466661264,431.455199179
14858000000,332,14858000000,,432.374427748,432.362965663,432.374427748,432.362965663
14892000000,333,14892000000,,433.242732675,433.231270591,433.242732675,433.231270591
14927000000,334,14927000000,,431.52682882,431.515366735,431.52682882,431.515366735
14968000000,335,14968000000,,430.478996837,430.468021254,430.478996837,430.468021254
15007000000,336,15007000000,,431.182713602,431.17173802,431.182713602,431.17173802
15047000000,337,15047000000,,431.362959172,431.351983589,431.362959172,431.351983589
15085000000,338,15085000000,,430.281902082,430.270926499,430.281902082,430.270926499
15122000000,339,15122000000,,429.990755983,429.980984846,429.990755983,429.980984846
15151000000,340,15151000000,,430.801709569,430.791938431,430.801709569,430.791938431
15186000000,341,15186000000,,433.412746687,433.40297555,433.412746687,433.40297555
15225000000,342,15225000000,,431.107213177,431.09744204,431.107213177,431.09744204
15262000000,343,15262000000,,429.745606499,429.736197959,429.745606499,429.736197959
15302000000,344,15302000000,,430.029703151,430.02029461,430.029703151,430.02029461
15338000000,345,15338000000,,430.225625694,430.216217154,430.225625694,430.216217154
15376000000,346,15376000000,,432.717690541,432.708282,432.717690541,432.708282
15412000000,347,15412000000,,431.070634345,431.062333807,431.070634345,431.062333807
15448000000,348,15448000000,,432.575250953,432.566950416,432.575250953,432.566950416
15485000000,349,15485000000,,433.053109979,433.044809441,433.053109979,433.044809441
15522000000,350,15522000000,,429.896744265,429.888443727,429.896744265,429.888443727
15558000000,351,15558000000,,432.306165351,432.408912572,432.306165351,432.408912572
15597000000,352,15597000000,,432.550753166,432.653500387,432.550753166,432.653500387
15635000000,353,15635000000,,432.467726813,432.570474034,432.467726813,432.570474034
15673000000,354,15673000000,,433.534817743,433.637564964,433.534817743,433.637564964
15708000000,355,15708000000,,431.072807817,430.974217068,431.072807817,430.974217068
15735000000,356,15735000000,,433.85745493,433.75886418,433.85745493,433.75886418
15768000000,357,15768000000,,430.66877166,430.57018091,430.66877166,430.57018091
15798000000,358,15798000000,,433.31264089,433.21405014,433.31264089,433.21405014
15837000000,359,15837000000,,433.167912884,433.26530543,433.167912884,433.26530543
15876000000,360,15876000000,,431.364724787,431.462117333,431.364724787,431.462117333
15912000000,361,15912000000,,430.729993422,430.827385968,430.729993422,430.827385968
15953000000,362,15953000000,,431.11283716,431.210229706,431.11283716,431.210229706
15992000000,363,15992000000,,433.393085819,433.30094845,433.393085819,433.30094845
16033000000,364,16033000000,,430.214435969,430.1222986,430.214435969,430.1222986
16075000000,365,16075000000,,431.468990685,431.376853316,431.468990685,431.376853316
16114000000,366,16114000000,,431.792956948,431.700819578,431.792956948,431.700819578
16153000000,367,16153000000,,433.615172548,433.709415544,433.615172548,433.709415544
16193000000,368,16193000000,,430.345184123,430.439427119,430.345184123,430.439427119
16233000000,369,16233000000,,433.747615097,433.841858094,433.747615097,433.841858094
16273000000,370,16273000000,,429.97099004,430.065233036,429.97099004,430.065233036
16311000000,371,16311000000,,433.178852658,433.092857981,433.178852658,433.092857981
16351000000,372,16351000000,,432.374463835,432.288469158,432.374463835,432.288469158
16391000000,373,16391000000,,433.564530328,433.478535651,433.564530328,433.478535651
16428000000,374,16428000000,,431.934535849,431.848541172,431.934535849,431.848541172
16469000000,375,16469000000,,433.855544816,433.852346536,433.855544816,433.852346536
16508000000,376,16508000000,,433.687777654,433.684579374,433.687777654,433.684579374
16550000000,377,16550000000,,433.947458246,433.944259966,433.947458246,433.944259966
16591000000,378,16591000000,,431.482589158,431.479390878,431.482589158,431.479390878
16632000000,379,16632000000,,433.310573456,433.404503971,433.310573456,433.404503971
16671000000,380,16671000000,,433.468066272,433.561996788,433.468066272,433.561996788
16711000000,381,16711000000,,432.615810251,432.709740767,432.615810251,432.709740767
16745000000,382,16745000000,,432.234791565,432.32872208,432.234791565,432.32872208
16782000000,383,16782000000,,431.924429574,431.842611865,431.924429574,431.842611865
16822000000,384,16822000000,,436.524275515,436.442457806,436.524275515,436.442457806
16862000000,385,16862000000,,433.068405931,432.986588222,433.068405931,432.986588222
16902000000,386,16902000000,,431.113140086,431.031322377,431.113140086,431.031322377
16941000000,387,16941000000,,432.995117267,433.085783285,432.995117267,433.085783285
16981000000,388,16981000000,,432.722109916,432.812775933,432.722109916,432.812775933
17019000000,389,17019000000,,432.28849219,432.379158207,432.28849219,432.379158207
17056000000,390,17056000000,,432.762019837,432.852685854,432.762019837,432.852685854
17094000000,391,17094000000,,432.020695586,431.943962882,432.020695586,431.943962882
17135000000,392,17135000000,,432.156885534,432.08015283,432.156885534,432.08015283
17173000000,393,17173000000,,432.394539833,432.317807129,432.394539833,432.317807129
17215000000,394,17215000000,,431.16112918,431.084396476,431.16112918,431.084396476
17255000000,395,17255000000,,429.922801615,429.923109681,429.922801615,429.923109681
17287000000,396,17287000000,,430.217435626,430.217743692,430.217435626,430.217743692
17324000000,397,17324000000,,429.533247256,429.533555322,429.533247256,429.533555322
17364000000,398,17364000000,,428.639660138,428.639968204,428.639660138,428.639968204
17405000000,399,17405000000,,431.240565471,431.241314537,431.240565471,431.241314537
17445000000,400,17445000000,,434.545939353,434.546688419,434.545939353,434.546688419
17486000000,401,17486000000,,431.823627445,431.824376511,431.823627445,431.824376511
17526000000,402,17526000000,,434.140995455,434.141744521,434.140995455,434.141744521
17567000000,403,17567000000,,429.677417679,429.679186811,429.677417679,429.679186811
17605000000,404,17605000000,,430.300516027,430.302285158,430.300516027,430.302285158
17643000000,405,17643000000,,432.087551215,432.089320347,432.087551215,432.089320347
17683000000,406,17683000000,,431.665229119,431.666998251,431.665229119,431.666998251
17722000000,407,17722000000,,431.469506667,431.471954206,431.469506667,431.471954206
17761000000,408,17761000000,,434.66567193,434.668119468,434.66567193,434.668119468
17799000000,409,17799000000,,430.361104687,430.363552225,430.361104687,430.363552225
17837000000,410,17837000000,,429.928050563,429.930498101,429.928050563,429.930498101
17877000000,411,17877000000,,432.986887185,433.077890771,432.986887185,433.077890771
17917000000,412,17917000000,,431.776409022,431.867412607,431.776409022,431.867412607
17956000000,413,17956000000,,431.174802172,431.265805758,431.174802172,431.265805758
17996000000,414,17996000000,,432.37981649,432.470820076,432.37981649,432.470820076
18036000000,415,18036000000,,431.493564793,431.424116912,431.493564793,431.424116912
18075000000,416,18075000000,,433.464427261,433.394979379,433.464427261,433.394979379
18116000000,417,18116000000,,430.977133031,430.90768515,430.977133031,430.90768515
18151000000,418,18151000000,,428.943493494,428.874045612,428.943493494,428.874045612
18191000000,419,18191000000,,432.456237584,432.540030365,432.456237584,432.540030365
18232000000,420,18232000000,,431.898836888,431.982629669,431.898836888,431.982629669
18272000000,421,18272000000,,433.983593687,434.067386468,433.983593687,434.067386468
18302000000,422,18302000000,,432.092015769,432.17580855,432.092015769,432.17580855
18340000000,423,18340000000,,431.651148505,431.589397383,431.651148505,431.589397383
18380000000,424,18380000000,,431.594503896,431.532752774,431.594503896,431.532752774
18418000000,425,18418000000,,434.967234009,434.905482888,434.967234009,434.905482888
18460000000,426,18460000000,,430.718913315,430.657162194,430.718913315,430.657162194
18500000000,427,18500000000,,431.327477675,431.407004899,431.327477675,431.407004899
18539000000,428,18539000000,,432.81664146,432.896168684,432.81664146,432.896168684
18577000000,429,18577000000,,431.739135235,431.818662459,431.739135235,431.818662459
18618000000,430,18618000000,,431.658829529,431.738356753,431.658829529,431.738356753
18656000000,431,18656000000,,432.335908424,432.279840212,432.335908424,432.279840212
18696000000,432,18696000000,,431.665237426,431.609169214,431.665237426,431.609169214
18737000000,433,18737000000,,432.635465731,432.57939752,432.635465731,432.57939752
18777000000,434,18777000000,,431.447103889,431.391035677,431.447103889,431.391035677
18818000000,435,18818000000,,432.500605162,432.576231292,432.500605162,432.576231292
18859000000,436,18859000000,,434.364725848,434.440351977,434.364725848,434.440351977
18899000000,437,18899000000,,433.117037551,433.19266368,433.117037551,433.19266368
18939000000,438,18939000000,,432.000499875,432.076126004,432.000499875,432.076126004
18980000000,439,18980000000,,432.533565243,432.550447678,432.533565243,432.550447678
19020000000,440,19020000000,,429.039672424,429.056554859,429.039672424,429.056554859
19059000000,441,19059000000,,431.996864109,432.013746545,431.996864109,432.013746545
19099000000,442,19099000000,,433.759935882,433.776818317,433.759935882,433.776818317
19139000000,443,19139000000,,433.794481953,433.808085241,433.794481953,433.808085241
19178000000,444,19178000000,,434.72676854,434.740371827,434.72676854,434.740371827
19220000000,445,19220000000,,430.473121552,430.486724839,430.473121552,430.486724839
19259000000,446,19259000000,,433.745053229,433.758656517,433.745053229,433.758656517
19297000000,447,19297000000,,432.631431081,432.586800038,432.631431081,432.586800038
19338000000,448,19338000000,,433.938331494,433.893700452,433.938331494,433.893700452
19379000000,449,19379000000,,433.368426338,433.323795295,433.368426338,433.323795295
19417000000,450,19417000000,,432.199120911,432.154489868,432.199120911,432.154489868
19459000000,451,19459000000,,432.926070306,432.989935648,432.926070306,432.989935648
19495000000,452,19495000000,,432.97110096,433.034966302,432.97110096,433.034966302
19525000000,453,19525000000,,432.477862684,432.541728026,432.477862684,432.541728026
19554000000,454,19554000000,,431.357702396,431.421567738,431.357702396,431.421567738
19586000000,455,19586000000,,430.94956686,430.911028705,430.94956686,430.911028705
19625000000,456,19625000000,,432.898717641,432.860179487,432.898717641,432.860179487
19662000000,457,19662000000,,430.68288448,430.644346325,430.68288448,430.644346325
19698000000,458,19698000000,,432.121356922,432.082818768,432.121356922,432.082818768
19733000000,459,19733000000,,432.091046683,432.152633882,432.091046683,432.152633882
19774000000,460,19774000000,,431.557019424,431.618606623,431.557019424,431.618606623
19817000000,461,19817000000,,431.959765963,432.021353161,431.959765963,432.021353161
19857000000,462,19857000000,,432.846184329,432.907771528,432.846184329,432.907771528
19897000000,463,19897000000,,432.209512827,432.174386258,432.209512827,432.174386258
19938000000,464,19938000000,,430.997786031,430.962659462,430.997786031,430.962659462
19978000000,465,19978000000,,432.448131839,432.41300527,432.448131839,432.41300527
20017000000,466,20017000000,,431.295287995,431.260161427,431.295287995,431.260161427
20056000000,467,20056000000,,434.202044771,434.211500215,434.202044771,434.211500215
20095000000,468,20095000000,,430.372746062,430.382201506,430.372746062,430.382201506
20133000000,469,20133000000,,429.204857484,429.214312928,429.204857484,429.214312928
20174000000,470,20174000000,,431.840540893,431.849996337,431.840540893,431.849996337
20214000000,471,20214000000,,433.549136888,433.606643571,433.549136888,433.606643571
20254000000,472,20254000000,,432.155909102,432.213415786,432.155909102,432.213415786
20295000000,473,20295000000,,432.617621691,432.675128375,432.617621691,432.675128375
20334000000,474,20334000000,,433.023050029,433.080556713,433.023050029,433.080556713
20372000000,475,20372000000,,434.124952408,434.09532913,434.124952408,434.09532913
20412000000,476,20412000000,,431.356717233,431.327093955,431.356717233,431.327093955
20452000000,477,20452000000,,434.524102512,434.494479235,434.524102512,434.494479235
20493000000,478,20493000000,,433.355542265,433.325918988,433.355542265,433.325918988
20532000000,479,20532000000,,431.266113065,431.318347074,431.266113065,431.318347074
20573000000,480,20573000000,,433.187995246,433.240229256,433.187995246,433.240229256
20611000000,481,20611000000,,433.074486459,433.126720468,433.074486459,433.126720468
20647000000,482,20647000000,,432.092204495,432.144438504,432.092204495,432.144438504
20686000000,483,20686000000,,433.986514694,433.962314999,433.986514694,433.962314999
20726000000,484,20726000000,,433.375119373,433.350919678,433.375119373,433.350919678
20767000000,485,20767000000,,429.854405103,429.830205408,429.854405103,429.830205408
20806000000,486,20806000000,,430.558881026,430.534681331,430.558881026,430.534681331
20847000000,487,20847000000,,431.067700898,431.11583979,431.067700898,431.11583979
20887000000,488,20887000000,,431.392388527,431.440527419,431.392388527,431.440527419
20925000000,489,20925000000,,429.676620696,429.724759589,429.676620696,429.724759589
20964000000,490,20964000000,,430.969243057,431.017381949,430.969243057,431.017381949
21002000000,491,21002000000,,431.947740792,431.927897781,431.947740792,431.927897781
21043000000,492,21043000000,,429.558632255,429.538789244,429.558632255,429.538789244
21083000000,493,21083000000,,433.56458893,433.54474592,433.56458893,433.54474592
21123000000,494,21123000000,,429.63874539,429.61890238,429.63874539,429.61890238
21163000000,495,21163000000,,429.439340514,429.450698372,429.439340514,429.450698372
21202000000,496,21202000000,,432.239165062,432.250522919,432.239165062,432.250522919
21240000000,497,21240000000,,429.463725382,429.47508324,429.463725382,429.47508324
21277000000,498,21277000000,,431.732601896,431.743959754,431.732601896,431.743959754
21316000000,499,21316000000,,432.773531546,432.815762749,432.773531546,432.815762749
21355000000,500,21355000000,,430.926657596,430.968888799,430.926657596,430.968888799
21394000000,501,21394000000,,429.704517471,429.746748673,429.704517471,429.746748673
21433000000,502,21433000000,,431.212946911,431.255178114,431.212946911,431.255178114
21470000000,503,21470000000,,431.194061582,431.180248488,431.194061582,431.180248488
21504000000,504,21504000000,,430.979728482,430.965915387,430.979728482,430.965915387
21536000000,505,21536000000,,431.808089619,431.794276525,431.808089619,431.794276525
21575000000,506,21575000000,,434.246951202,434.233138108,434.246951202,434.233138108
21616000000,507,21616000000,,434.118293741,434.155452407,434.118293741,434.155452407
21656000000,508,21656000000,,434.316600144,434.353758809,434.316600144,434.353758809
21697000000,509,21697000000,,434.827791012,434.864949677,434.827791012,434.864949677
21737000000,510,21737000000,,435.632699461,435.669858126,435.632699461,435.669858126
21779000000,511,21779000000,,436.368417801,436.359344803,436.368417801,436.359344803
21816000000,512,21816000000,,432.348412711,432.339339713,432.348412711,432.339339713
21855000000,513,21855000000,,432.827578595,432.818505598,432.827578595,432.818505598
21894000000,514,21894000000,,435.978504076,435.969431078,435.978504076,435.969431078
21934000000,515,21934000000,,432.082539685,432.094674497,432.082539685,432.094674497
21974000000,516,21974000000,,432.26024359,432.272378402,432.26024359,432.272378402
22011000000,517,22011000000,,433.192203802,433.204338614,433.192203802,433.204338614
22042000000,518,22042000000,,432.153430226,432.165565038,432.153430226,432.165565038
22066000000,519,22066000000,,432.250111352,432.280881804,432.250111352,432.280881804
22096000000,520,22096000000,,434.095733603,434.126504055,434.095733603,434.126504055
22124000000,521,22124000000,,431.71929291,431.750063361,431.71929291,431.750063361
22152000000,522,22152000000,,432.020001419,432.05077187,432.020001419,432.05077187
22176000000,523,22176000000,,432.401080711,432.397710712,432.401080711,432.397710712
22226000000,524,22226000000,,430.409488113,430.323073331,430.326443795,430.406118577
22257000000,525,22257000000,,434.871833095,434.833229345,434.836599594,434.868463345
22278000000,526,22278000000,,431.617377616,431.616367418,431.619733543,431.614003743
22313000000,527,22313000000,,432.140173088,432.185712031,432.151486015,432.174386419
22344000000,528,22344000000,,431.895283481,431.93853277,431.904309091,431.92949915
22378000000,529,22378000000,,433.112841322,433.152473167,433.118253011,433.147060514
22406000000,530,22406000000,,431.702172049,431.738818634,431.704599634,431.736392396
22434000000,531,22434000000,,431.923041949,431.921457766,431.923254864,431.921243346
22458000000,532,22458000000,,431.151027208,431.148282026,431.150078877,431.149228357
22473000000,533,22473000000,,428.791678916,428.789000587,428.790799935,428.789882563
22511000000,534,22511000000,,430.082581426,430.080642273,430.08244077,430.080784222
22557000000,535,22557000000,,430.588627989,430.609518261,430.588896437,430.60924406
22581000000,536,22581000000,,431.211559376,431.232256408,431.211634291,431.232175153
22607000000,537,22607000000,,431.596479326,431.617005236,431.596387802,431.617099787
22642000000,538,22642000000,,431.628116396,431.648743612,431.628128015,431.648738694
22681000000,539,22681000000,,430.713517705,430.72390558,430.71354077,430.723881003
22712000000,540,22712000000,,433.697415525,433.707755088,433.69738877,433.707777314
22736000000,541,22736000000,,431.789767907,431.800139916,431.789774915,431.800131013
22775000000,542,22775000000,,431.807966415,431.818340059,431.807979687,431.818334152
22814000000,543,22814000000,,433.563037357,433.569335448,433.563029175,433.569344734
22862000000,544,22862000000,,430.008082366,430.014383301,430.008071341,430.014384055
22910000000,545,22910000000,,430.40677423,430.41308933,430.406783978,430.413082528
22926000000,546,22926000000,,431.224552514,431.230862265,431.224560808,431.230864707
22949000000,547,22949000000,,431.56312554,431.571117382,431.563108332,431.571120666
22973000000,548,22973000000,,433.245842703,433.25385692,433.245858283,433.253848242
23008000000,549,23008000000,,429.39174161,429.399735869,429.391734258,429.399744174
23036000000,550,23036000000,,431.613721238,431.621709165,431.613707037,431.621723287
23061000000,551,23061000000,,429.957788542,429.978623309,429.957810042,429.978596999
23103000000,552,23103000000,,431.578012519,431.59882713,431.578015832,431.598822945
23137000000,553,23137000000,,433.078436618,433.099229241,433.078419758,433.099248858
23159000000,554,23159000000,,432.237548464,432.258350194,432.237541616,432.25836161
23189000000,555,23189000000,,431.845514161,431.862922953,431.845529438,431.862902428
23215000000,556,23215000000,,431.980588202,431.997999555,431.980606745,431.997977174
23236000000,557,23236000000,,433.885954972,433.903312776,433.885922664,433.903346642
23290000000,558,23290000000,,430.658884559,430.676250456,430.658866341,430.676282226
23322000000,559,23322000000,,433.2395491,433.245152011,433.239590629,433.245110696
23358000000,560,23358000000,,430.073549518,430.079141746,430.073565631,430.079096381
23405000000,561,23405000000,,432.894576642,432.900120092,432.894553433,432.900132961
23448000000,562,23448000000,,430.303993875,430.309495012,430.303952264,430.309574105
23497000000,563,23497000000,,432.416322367,432.429079985,432.416329574,432.429129985
23556000000,564,23556000000,,434.749776441,434.762634458,434.749831735,434.762531748
23602000000,565,23602000000,,433.539406072,433.552270614,433.539436643,433.552130131
23654000000,566,23654000000,,434.295877618,434.308606194,434.295831505,434.308660959
23699000000,567,23699000000,,432.498348261,432.532154865,432.498278047,432.532353208
23748000000,568,23748000000,,431.614706033,431.648638376,431.614720755,431.648670177
23783000000,569,23783000000,,429.802020637,429.836096701,429.802112377,429.835918078
23817000000,570,23817000000,,430.314094063,430.348094838,430.314125907,430.348006896
23853000000,571,23853000000,,428.97126988,429.044909608,428.971196585,429.04499409
23891000000,572,23891000000,,431.947105529,432.020753645,431.947047575,432.020836691
23916000000,573,23916000000,,429.874753105,429.948516057,429.874794529,429.94846881
23938000000,574,23938000000,,431.522868704,431.596645786,431.522924949,431.5965851
23975000000,575,23975000000,,430.375343768,430.320499328,430.375319013,430.320540806
24007000000,576,24007000000,,433.899357626,433.844485546,433.899297601,433.844547034
24043000000,577,24043000000,,432.50740456,432.452602462,432.507404043,432.452583494
24079000000,578,24079000000,,432.131008354,432.076246822,432.131059248,432.076198133
24121000000,579,24121000000,,430.370810052,430.385735488,430.370827248,430.385739947
24140000000,580,24140000000,,431.216796002,431.231675404,431.216758005,431.231716737
24185000000,581,24185000000,,432.379156316,432.394063807,432.379132671,432.394063316
24218000000,582,24218000000,,432.099802036,432.114755123,432.09983093,432.114715977
24272000000,583,24272000000,,431.908168919,431.882481425,431.908194212,431.88247636
24310000000,584,24310000000,,430.415220073,430.389490973,430.415200473,430.389524227
24345000000,585,24345000000,,432.628945206,432.603226762,432.628922384,432.603235482
24373000000,586,24373000000,,433.300259895,433.27457687,433.300273048,433.274550727
24416000000,587,24416000000,,431.933005274,431.945873162,431.933022056,431.945865181
24449000000,588,24449000000,,432.217377456,432.230217732,432.217366564,432.2302373
24484000000,589,24484000000,,434.397313417,434.410163568,434.397306584,434.410167445
24519000000,590,24519000000,,433.916138082,433.9290051,433.916148155,433.928992149
24540000000,591,24540000000,,432.886411957,432.884695749,432.886406273,432.884700776
24572000000,592,24572000000,,435.693476642,435.691755597,435.693464429,435.691763768
24606000000,593,24606000000,,435.009917634,435.00822489,435.009933238,435.008204277
24643000000,594,24643000000,,432.84185547,432.840197372,432.841889226,432.840125618
24675000000,595,24675000000,,433.040596034,433.045070659,433.040835467,433.043872007
24704000000,596,24704000000,,430.849361679,430.855700465,430.856235747,430.857408126
24740000000,597,24740000000,,431.905088674,431.910327583,431.910158603,431.912430859
24770000000,598,24770000000,,429.975866587,429.979686541,429.978436546,429.982127757
24818000000,599,24818000000,,432.060654367,432.045505999,432.059493737,432.046656135
24843000000,600,24843000000,,429.134691569,429.120056568,429.133549077,429.120198107
24877000000,601,24877000000,,433.552943613,433.53889567,433.552766224,433.538828197
24904000000,602,24904000000,,431.12652543,431.112724938,431.126808758,431.112623279
24940000000,603,24940000000,,428.601487856,428.584987337,428.601747211,428.584930585
24981000000,604,24981000000,,433.237652849,433.22108395,433.237845555,433.221097308
25015000000,605,25015000000,,432.406195108,432.389554067,432.406296795,432.389620689
25046000000,606,25046000000,,433.277636853,433.260964821,433.27766057,433.261015456
25082000000,607,25082000000,,432.427196894,432.400479663,432.427236103,432.400457761
25116000000,608,25116000000,,430.491683149,430.464972449,430.491732916,430.464948043
25149000000,609,25149000000,,432.908523525,432.881751093,432.908506519,432.881783378
25176000000,610,25176000000,,433.743838678,433.71706763,433.743793861,433.717069337
25227000000,611,25227000000,,430.241335157,430.275628814,430.241350661,430.27560291
25273000000,612,25273000000,,433.05189345,433.086180622,433.051927905,433.086186639
25308000000,613,25308000000,,431.702789847,431.737040106,431.702771211,431.737066858
25337000000,614,25337000000,,431.468049077,431.502319265,431.468026133,431.502301852
25385000000,615,25385000000,,433.730961889,433.657721853,433.730980708,433.65768917
25424000000,616,25424000000,,431.330295219,431.257065639,431.330310536,431.257008543
25474000000,617,25474000000,,433.931341394,433.858528477,433.931312986,433.85759433
25514000000,618,25514000000,,434.936807124,434.86895613,434.936781345,434.858100767
25565000000,619,25565000000,,432.349908894,432.281933318,432.349834234,432.276505921
25613000000,620,25613000000,,432.450111842,432.380618303,432.449011257,432.377200906
25664000000,621,25664000000,,434.91446533,434.839338867,434.903319827,434.8371424
25733000000,622,25733000000,,431.940563668,431.868047598,431.935519682,431.866731862
25796000000,623,25796000000,,431.877498168,431.78240721,431.874899705,431.781775932
25851000000,624,25851000000,,430.043574371,429.948875146,430.042155761,429.948640255
25894000000,625,25894000000,,433.576393972,433.482008081,433.575890971,433.482062131
25945000000,626,25945000000,,429.847586105,429.753458493,429.847724231,429.753637111
26004000000,627,26004000000,,433.880719676,433.495983064,433.881105061,433.496088866
26055000000,628,26055000000,,433.555577397,433.170873811,433.555868666,433.170819444
26098000000,629,26098000000,,434.028387089,433.643537926,434.028416265,433.643512621
26145000000,630,26145000000,,434.148541247,433.763602335,434.148436939,433.763623043
26221000000,631,26221000000,,434.562123097,434.680712307,434.562138512,434.680709939
26273000000,632,26273000000,,429.796176543,429.914766014,429.796203457,429.914774623
26311000000,633,26311000000,,433.217874029,433.336445021,433.217833143,433.336422788
26357000000,634,26357000000,,430.978005365,431.09660323,430.978045154,431.096607925
26403000000,635,26403000000,,432.3808078,432.232642187,432.380799318,432.232662767
26476000000,636,26476000000,,431.386622933,431.238461806,431.386607747,431.23846671
26544000000,637,26544000000,,432.132101363,431.983933607,432.13211014,431.983975733
26577000000,638,26577000000,,430.518576806,430.370198042,430.518590236,430.370666837
26624000000,639,26624000000,,429.846131355,429.671823599,429.84615599,429.678352765
26661000000,640,26661000000,,430.537076421,430.371370392,430.537270911,430.360865958
26701000000,641,26701000000,,434.798437932,434.63075457,434.801067709,434.62664009
26767000000,642,26767000000,,430.349276994,430.185303379,430.361161363,430.183023998
26809000000,643,26809000000,,432.008067058,432.491767029,432.017238156,432.49072548
26861000000,644,26861000000,,432.916822821,433.398273932,432.922382563,433.398118747
26899000000,645,26899000000,,429.784028691,430.264107972,429.78740347,430.264511484
26952000000,646,26952000000,,431.61993753,432.099198595,431.621862621,432.09978885
27000000000,647,27000000000,,430.039046957,429.699886723,430.039984349,429.70016652
27064000000,648,27064000000,,432.211036518,431.871689928,432.211232166,431.871600693
27124000000,649,27124000000,,432.45182323,432.112305066,432.451648386,432.112188488
27151000000,650,27151000000,,430.634073616,430.294416062,430.63381662,430.294496112
27182000000,651,27182000000,,428.66889415,428.344772935,428.668826851,428.344788994
27236000000,652,27236000000,,432.40735084,432.083346649,432.407449053,432.083294171
27294000000,653,27294000000,,431.920729122,431.596640596,431.92073276,431.596662213
27342000000,654,27342000000,,432.726179122,432.40209616,432.726174298,432.402098187
27372000000,655,27372000000,,430.788055586,431.364529241,430.788058518,431.364536081
27443000000,656,27443000000,,428.584764917,429.161226678,428.584735538,429.161224995
27475000000,657,27475000000,,432.401586732,432.978068915,432.401598687,432.978067722
27503000000,658,27503000000,,431.508975957,432.08547045,431.508996364,432.085453089
27562000000,659,27562000000,,432.899491822,432.822433498,432.899482897,432.822333098
27627000000,660,27627000000,,432.997539726,432.920806236,432.997545902,432.920071269
27666000000,661,27666000000,,433.4819904,433.409440431,433.482007715,433.400349561
27698000000,662,27698000000,,428.791886087,428.709069764,428.791906377,428.720514578
27749000000,663,27749000000,,433.207492934,433.112251103,433.207570737,433.114427372
27772000000,664,27772000000,,429.409402763,429.31615,429.410751886,429.315619452
27806000000,665,27806000000,,432.338216283,432.256051242,432.360768826,432.254548671
27848000000,666,27848000000,,431.431539456,431.340734689,431.436688315,431.339107885
27881000000,667,27881000000,,431.462691761,431.612969886,431.468399683,431.61195195
27911000000,668,27911000000,,434.576531157,434.725999167,434.581466896,434.725829279
27939000000,669,27939000000,,431.669340837,431.817450685,431.672032555,431.817753098
27981000000,670,27981000000,,435.328246209,435.475783343,435.329633009,435.475926268
28024000000,671,28024000000,,432.093298612,432.09401883,432.094034568,432.093905637
28048000000,672,28048000000,,433.011275389,433.011770539,433.011680348,433.011776485
28089000000,673,28089000000,,434.196200834,434.196623641,434.196482125,434.196650607
28126000000,674,28126000000,,435.696063048,435.696478251,435.696270839,435.696446924
28158000000,675,28158000000,,433.214812233,433.172954411,433.214951551,433.172983434
28173000000,676,28173000000,,433.271954689,433.230073637,433.272005712,433.230060825
28208000000,677,28208000000,,432.226689328,432.184765276,432.226657413,432.184755526
28250000000,678,28250000000,,433.389644169,433.347705538,433.389602323,433.347715014
28283000000,679,28283000000,,432.218843355,432.260979883,432.218854813,432.260984639
28316000000,680,28316000000,,433.050533124,433.092688162,433.050549376,433.092660691
28339000000,681,28339000000,,432.557348642,432.599526235,432.55733487,432.59942363
28372000000,682,28372000000,,435.080093996,435.122614644,435.080094255,435.121839961
28407000000,683,28407000000,,432.473256249,432.500436832,432.473262169,432.490483074
28433000000,684,28433000000,,431.804817851,431.82133681,431.804820794,431.832703323
28479000000,685,28479000000,,434.010834474,434.033515261,434.010826409,434.03254711
28517000000,686,28517000000,,431.405028707,431.428928685,431.405027262,431.425528772
28563000000,687,28563000000,,431.025710976,431.024333879,431.025712665,431.021234953
28610000000,688,28610000000,,432.607184673,432.605019026,432.607174355,432.603485192
28644000000,689,28644000000,,432.17054846,432.16758971,432.170529395,432.167633336
28682000000,690,28682000000,,431.528750479,431.525495226,431.528722004,431.526122447
28721000000,691,28721000000,,432.074853302,432.068806491,432.074615663,432.069033258
28749000000,692,28749000000,,435.498913463,435.491599631,435.495683203,435.491367819
28776000000,693,28776000000,,434.388678905,434.371853056,434.366660249,434.371856883
28823000000,694,28823000000,,433.379688604,433.370285343,433.372566468,433.370340514
28874000000,695,28874000000,,429.133980999,429.160463075,429.135193409,429.160394721
28931000000,696,28931000000,,431.627084774,431.65497434,431.631221158,431.655014979
28954000000,697,28954000000,,431.934125456,431.961401198,431.936987177,431.961394823
29009000000,698,29009000000,,427.988151451,428.014516754,427.989209524,428.014527609
29052000000,699,29052000000,,432.028541406,431.942946232,432.028122262,431.942947288
29088000000,700,29088000000,,429.563912393,429.478288329,429.563431885,429.478285801
29107000000,701,29107000000,,432.774996155,432.689697697,432.775122011,432.689650321
29119000000,702,29119000000,,430.437096036,430.3518377,430.437173491,430.351661679
29159000000,703,29159000000,,430.757481249,430.827049167,430.75737373,430.826112874
29199000000,704,29199000000,,431.409053049,431.482317594,431.409120755,431.474163271
29235000000,705,29235000000,,429.870912823,429.94005676,429.870907287,429.940070412
29275000000,706,29275000000,,430.319166392,430.390291442,430.319199117,430.386381128
29312000000,707,29312000000,,431.77399482,431.760647389,431.773971632,431.764885547
29342000000,708,29342000000,,431.630673161,431.617954967,431.630673852,431.620958528
29381000000,709,29381000000,,430.211391386,430.200642982,430.211385214,430.199700102
29416000000,710,29416000000,,430.560742704,430.549434105,430.560702441,430.549577523
29459000000,711,29459000000,,434.34788872,434.403883669,434.347810679,434.404187776
29492000000,712,29492000000,,429.415049296,429.471372087,429.414814814,429.470864069
29507000000,713,29507000000,,432.692505691,432.747689076,432.69063847,432.747827131
29536000000,714,29536000000,,431.061265514,431.108504687,431.043282935,431.108415808
29568000000,715,29568000000,,434.424752716,434.441066096,434.434805706,434.44110651
29625000000,716,29625000000,,431.852874971,431.866226425,431.857037058,431.866299789
29693000000,717,29693000000,,434.774085267,434.784413724,434.772139832,434.78442556
29727000000,718,29727000000,,435.267895243,435.27760687,435.264669832,435.277572391
29773000000,719,29773000000,,430.069710202,429.978185538,430.06812629,429.977943201
29815000000,720,29815000000,,434.874959098,434.784996731,434.875267595,434.78352221
29855000000,721,29855000000,,433.447554337,433.363313715,433.447900061,433.350432931
29919000000,722,29919000000,,429.003607018,428.907036285,429.003176552,428.918039532
29965000000,723,29965000000,,433.66379846,433.785866924,433.663765199,433.782397054
30002000000,724,30002000000,,432.976366948,433.099290888,432.976475744,433.094252124
30046000000,725,30046000000,,430.74414352,430.864975185,430.74408594,430.863954595
30092000000,726,30092000000,,431.704192031,431.823833529,431.704229271,431.825288092
30142000000,727,30142000000,,431.6021932,431.611988941,431.602154415,431.612468013
30185000000,728,30185000000,,432.411618971,432.421981316,432.411625911,432.421372906
30218000000,729,30218000000,,432.805314523,432.815294818,432.805365242,432.815494287
30269000000,730,30269000000,,435.785072012,435.795100582,435.785114285,435.795195054
30331000000,731,30331000000,,430.254174188,430.282891717,430.25419728,430.282772069
30375000000,732,30375000000,,433.358528032,433.387135965,433.358515276,433.387199661
30419000000,733,30419000000,,434.727642707,434.756204916,434.72746159,434.756191699
30448000000,734,30448000000,,435.436363287,435.464212648,435.434783023,435.46422598
30493000000,735,30493000000,,431.635528559,431.648241687,431.617468249,431.648248101
30547000000,736,30547000000,,430.074247769,430.103068181,430.088352637,430.103025206
30583000000,737,30583000000,,431.017972814,431.043690192,431.025829009,431.04360461
30640000000,738,30640000000,,433.477184861,433.500840483,433.480783479,433.500620837
30677000000,739,30677000000,,434.146119662,434.190303116,434.147238881,434.189289664
30703000000,740,30703000000,,434.05237183,434.099420818,434.051984984,434.091170233
30761000000,741,30761000000,,432.496031357,432.539929757,432.495111699,432.537447536
30798000000,742,30798000000,,430.351989124,430.399275973,430.351442672,430.39039006
30843000000,743,30843000000,,430.81643199,430.902830661,430.816510767,430.902183548
30898000000,744,30898000000,,432.042324719,432.126950435,432.042586418,432.130032155
30952000000,745,30952000000,,434.113232861,434.198735965,434.113242392,434.199810741
31006000000,746,31006000000,,433.635246689,433.721762513,433.63517811,433.720733738
31036000000,747,31036000000,,430.231346403,430.305210033,430.231404605,430.305166849
31082000000,748,31082000000,,431.598178367,431.671796961,431.598169727,431.672177008
31140000000,749,31140000000,,432.487950201,432.561892998,432.487918305,432.561601382
31168000000,750,31168000000,,429.17196343,429.245708135,429.171962775,429.245843943
31198000000,751,31198000000,,432.589583595,432.624447707,432.58960509,432.624393418
31236000000,752,31236000000,,429.963474234,429.99827467,429.963487539,429.998339543
31265000000,753,31265000000,,429.338216161,429.37307102,429.33820669,429.373004271
31294000000,754,31294000000,,428.657605371,428.692419621,428.657570183,428.692408372
31318000000,755,31318000000,,431.185266677,431.102338373,431.185216587,431.102375052
31341000000,756,31341000000,,430.84671385,430.763740994,430.84660323,430.763806247
31374000000,757,31374000000,,432.531102237,432.44789188,432.530640203,432.448080721
31416000000,758,31416000000,,430.443575192,430.358468933,430.440065487,430.359401908
31443000000,759,31443000000,,434.130742966,434.153874012,434.10966324,434.161098496
31476000000,760,31476000000,,430.909189007,430.944894459,430.913599423,430.952460272
31515000000,761,31515000000,,431.624469851,431.66127086,431.631370144,431.669135437
31554000000,762,31554000000,,433.137109529,433.17626614,433.138941834,433.174351524
31598000000,763,31598000000,,431.975247554,432.001353682,431.973489467,431.997973223
31644000000,764,31644000000,,433.90324056,433.927817096,433.901935027,433.927948374
31676000000,765,31676000000,,431.016742537,431.041684643,431.017233351,431.042881129
31704000000,766,31704000000,,432.892735367,432.918408476,432.893055587,432.917972362
31747000000,767,31747000000,,431.002441673,431.071398316,431.002085624,431.07125898
31785000000,768,31785000000,,431.31879684,431.387801154,431.318918929,431.388044615
31818000000,769,31818000000,,432.829635213,432.898784121,432.829632868,432.898613959
31855000000,770,31855000000,,433.102987124,433.171999531,433.102979134,433.172096726
31886000000,771,31886000000,,432.958887422,432.99493851,432.958871171,432.99487744
31913000000,772,31913000000,,431.095505925,431.131530403,431.095523062,431.13155594
31940000000,773,31940000000,,432.332946857,432.368959507,432.33294559,432.368990296
31988000000,774,31988000000,,431.031500651,431.067545652,431.03151742,431.067529775
32032000000,775,32032000000,,432.140177342,432.106012622,432.140188495,432.105952761
32058000000,776,32058000000,,430.425029684,430.390914736,430.425005777,430.390720271
32096000000,777,32096000000,,430.439252991,430.405444373,430.439110264,430.404518427
32141000000,778,32141000000,,428.589530063,428.558435428,428.588674759,428.55136894
32190000000,779,32190000000,,433.60213774,433.691282243,433.593995159,433.682699098
32226000000,780,32226000000,,432.336527246,432.428084169,432.334340272,432.420631789
32273000000,781,32273000000,,429.980701742,430.063453689,429.970868514,430.065965008
32328000000,782,32328000000,,432.250603758,432.335572535,432.245973856,432.338853521
32361000000,783,32361000000,,432.25757497,432.423532436,432.257515215,432.423048563
32407000000,784,32407000000,,431.457246751,431.624461555,431.459046893,431.623322904
32450000000,785,32450000000,,431.261300658,431.427316671,431.262395844,431.427870645
32488000000,786,32488000000,,431.594926196,431.760507827,431.594649562,431.760558745
32535000000,787,32535000000,,431.875595148,431.894455599,431.875171464,431.894247927
32569000000,788,32569000000,,434.027926957,434.046897173,434.028088219,434.047054917
32607000000,789,32607000000,,432.451092111,432.470138587,432.451153589,432.470044028
32666000000,790,32666000000,,431.723294914,431.742191657,431.723214942,431.742255112
32715000000,791,32715000000,,432.089061139,432.06579377,432.089137564,432.065784072
32768000000,792,32768000000,,433.484341278,433.461032882,433.484291631,433.460979166
32824000000,793,32824000000,,433.011373498,432.988086713,433.011376396,432.98804232
32884000000,794,32884000000,,430.36137552,430.33808231,430.361357646,430.338029995
32938000000,795,32938000000,,435.326156022,435.616947001,435.326190409,435.616885918
32997000000,796,32997000000,,433.34780919,433.638622462,433.347852951,433.638526168
33046000000,797,33046000000,,431.471050628,431.762199332,431.47110038,431.761438165
33092000000,798,33092000000,,433.36794289,433.663036525,433.367969807,433.654362659
33138000000,799,33138000000,,431.708897515,431.999988244,431.708853364,432.001520979
33186000000,800,33186000000,,433.555580121,433.851411346,433.555239511,433.84316663
33220000000,801,33220000000,,434.398306938,434.691823143,434.395325655,434.685567793
33265000000,802,33265000000,,433.806350528,434.088268107,433.783157894,434.08499866
33293000000,803,33293000000,,435.530911083,435.231318487,435.534581877,435.230567812
33345000000,804,33345000000,,437.052689171,436.753941923,437.059506866,436.754647453
33381000000,805,33381000000,,430.715260396,430.415365527,430.719879164,430.416167372
33407000000,806,33407000000,,433.249663397,432.948658355,433.25136643,432.94876481
33444000000,807,33444000000,,432.146498627,432.281568884,432.146075937,432.281300666
33459000000,808,33459000000,,430.236820037,430.371498862,430.235864432,430.371480593
33502000000,809,33502000000,,430.90766816,431.042632324,430.907401509,431.042732332
33546000000,810,33546000000,,428.141457714,428.276781668,428.141750941,428.276721973
33580000000,811,33580000000,,431.526448996,431.42548408,431.526518086,431.425485855
33620000000,812,33620000000,,432.256104001,432.155032229,432.255981514,432.155056139
33659000000,813,33659000000,,430.735237184,430.634269345,430.735300731,430.634271424
33685000000,814,33685000000,,431.233550692,431.132563557,431.23355843,431.132548419
33717000000,815,33717000000,,429.445367122,429.493019946,429.445336051,429.493010776
33763000000,816,33763000000,,432.123224042,432.170886781,432.123227728,432.170892538
33789000000,817,33789000000,,431.027310703,431.074967713,431.027323257,431.074993796
33825000000,818,33825000000,,433.979062116,434.026715861,433.979072137,434.02674594
33855000000,819,33855000000,,431.40967439,431.397875247,431.409671007,431.397923484
33908000000,820,33908000000,,431.391732842,431.379877633,431.391705486,431.38001403
33958000000,821,33958000000,,431.212891838,431.200662158,431.212848162,431.201531175
34025000000,822,34025000000,,430.041892564,430.025848447,430.041819857,430.034317307
34064000000,823,34064000000,,432.620039703,432.635396588,432.61984743,432.636754723
34106000000,824,34106000000,,432.386881077,432.39745679,432.385595387,432.407283852
34143000000,825,34143000000,,432.895572709,432.903265467,432.883321573,432.907892992
34183000000,826,34183000000,,432.419723286,432.440737327,432.429354144,432.440604282
34240000000,827,34240000000,,430.660706784,430.728279049,430.655780812,430.726360874
34286000000,828,34286000000,,432.604048211,432.67088474,432.598601923,432.669917723
34321000000,829,34321000000,,434.271305149,434.339275977,434.269545428,434.339726928
34356000000,830,34356000000,,434.597242976,434.666689688,434.598369596,434.667075212
34397000000,831,34397000000,,433.020296871,433.191164699,433.021424266,433.190915697
34429000000,832,34429000000,,431.001909738,431.171963287,431.001634687,431.171940397
34459000000,833,34459000000,,435.641043572,435.810980774,435.640649575,435.811071632
34486000000,834,34486000000,,431.328827731,431.499156899,431.329067925,431.499098017
34530000000,835,34530000000,,432.150751683,432.152088393,432.150753591,432.152132065
34573000000,836,34573000000,,432.933712196,432.935065366,432.933662724,432.935024738
34620000000,837,34620000000,,430.966859039,430.968222302,430.966881952,430.968233873
34658000000,838,34658000000,,431.489997846,431.491331974,431.489960494,431.491341549
34691000000,839,34691000000,,431.425131697,431.443982541,431.425167207,431.443994722
34733000000,840,34733000000,,431.019065337,431.037905733,431.019086794,431.037924757
34780000000,841,34780000000,,432.90251908,432.921348672,432.902497855,432.921346623
34822000000,842,34822000000,,432.659061395,432.677926042,432.659014098,432.677827811
34864000000,843,34864000000,,432.604103397,432.633478387,432.604035947,432.632944681
34890000000,844,34890000000,,434.208311469,434.239515086,434.208181679,434.235261786
34916000000,845,34916000000,,432.811176894,432.850363842,432.810683392,432.829780169
34946000000,846,34946000000,,432.149876628,432.177834312,432.146416617,432.176742658
34983000000,847,34983000000,,431.064048668,430.943158627,431.043474141,430.948888414
35035000000,848,35035000000,,431.476311957,431.370428513,431.483733731,431.374141406
35060000000,849,35060000000,,429.628841778,429.52414714,429.634909492,429.524128362
35097000000,850,35097000000,,431.56705469,431.459549888,431.566080599,431.458109633
35150000000,851,35150000000,,431.456695492,431.666226341,431.454213295,431.665944085
35207000000,852,35207000000,,433.98051249,434.190971081,433.980706108,434.191509156
35234000000,853,35234000000,,433.203428642,433.414523585,433.204283044,433.414449741
35256000000,854,35256000000,,429.560177744,429.770666428,429.559746877,429.770519832
35286000000,855,35286000000,,433.549797111,433.569506395,433.549778723,433.569635434
35328000000,856,35328000000,,432.243206364,432.263087996,432.243343796,432.263028159
35375000000,857,35375000000,,432.22409127,432.243812278,432.224005158,432.243850145
35410000000,858,35410000000,,432.447539505,432.467369459,432.447591478,432.467327518
35459000000,859,35459000000,,432.254690199,432.18604372,432.254649218,432.186062222
35500000000,860,35500000000,,434.301175474,434.232551715,434.301169563,434.232559848
35534000000,861,35534000000,,429.519178146,429.450578136,429.519217634,429.450584169
35569000000,862,35569000000,,432.175883403,432.107273021,432.175907329,432.107284236
35605000000,863,35605000000,,430.977632769,430.945420093,430.977643872,430.945422237
35651000000,864,35651000000,,433.751464092,433.719269066,433.751460311,433.719221025
35676000000,865,35676000000,,431.325552221,431.293436564,431.325482084,431.293163431
35719000000,866,35719000000,,429.582060291,429.550802228,429.581583142,429.548406894
35746000000,867,35746000000,,432.390577091,432.37667339,432.38560849,432.354383793
35802000000,868,35802000000,,433.354881893,433.318585982,433.336743067,433.32791058
35827000000,869,35827000000,,435.014952901,434.983088832,435.004603993,434.991339663
35855000000,870,35855000000,,430.529660855,430.503469294,430.526666818,430.507729981
35893000000,871,35893000000,,430.026027486,430.037104982,430.026417441,430.038148861
35959000000,872,35959000000,,431.137785893,431.150409257,431.139438342,431.149623893
35992000000,873,35992000000,,432.692748885,432.705445009,432.694279113,432.704391905
36018000000,874,36018000000,,434.183143865,434.195022176,434.183779229,434.194709834
36040000000,875,36040000000,,431.444620682,431.467619765,431.444419163,431.467911999
36095000000,876,36095000000,,431.536638073,431.559637051,431.536291319,431.559784261
36137000000,877,36137000000,,432.625399289,432.64871249,432.625414139,432.648592857
36182000000,878,36182000000,,433.694715476,433.718028205,433.694848216,433.718027407
36237000000,879,36237000000,,432.131060845,432.118380274,432.131013154,432.118407178
36259000000,880,36259000000,,433.185087105,433.172446857,433.185061562,433.172415262
36279000000,881,36279000000,,434.293506433,434.280860171,434.293529246,434.280888962
36316000000,882,36316000000,,433.208825174,433.196178823,433.208806859,433.196166663
36358000000,883,36358000000,,431.703003084,431.6756221,431.70302885,431.675623485
36402000000,884,36402000000,,436.528895564,436.501498762,436.52888271,436.501493164
36437000000,885,36437000000,,434.230972057,434.20357394,434.230960189,434.203571957
36475000000,886,36475000000,,431.803416428,431.776023252,431.803409681,431.776016509
36515000000,887,36515000000,,432.882639288,432.91229703,432.882652296,432.912284474
36551000000,888,36551000000,,432.722993081,432.752650189,432.723048723,432.752681534
36604000000,889,36604000000,,434.704331074,434.733933602,434.704466758,434.73415415
36646000000,890,36646000000,,431.587101731,431.616248557,431.58752273,431.617665824
36695000000,891,36695000000,,434.168394842,434.149645858,434.170834245,434.16288688
36750000000,892,36750000000,,434.115939781,434.117034306,434.133390645,434.105599772
36792000000,893,36792000000,,431.398106769,431.37680004,431.385487695,431.380098076
36831000000,894,36831000000,,432.086678459,432.070945466,432.087148526,432.076185171
36883000000,895,36883000000,,431.088957269,431.083838428,431.093407482,431.086192205
36919000000,896,36919000000,,426.708359534,426.702634153,426.708623357,426.70201462
36957000000,897,36957000000,,431.148289754,431.14190247,431.146669174,431.14072234
37004000000,898,37004000000,,433.419650966,433.413668252,433.420018424,433.41366702
37053000000,899,37053000000,,429.833123103,429.785707891,429.833440884,429.786132548
37089000000,900,37089000000,,431.50156549,431.45409415,431.501231743,431.453979535
37133000000,901,37133000000,,429.029019043,428.981804292,429.02925144,428.981742642
37174000000,902,37174000000,,429.413461712,429.365994025,429.413321413,429.366065553
37218000000,903,37218000000,,429.562456547,429.729515187,429.562517992,429.729442437
37267000000,904,37267000000,,431.920005711,432.086952657,431.919956736,432.086992876
37310000000,905,37310000000,,434.247813074,434.4148292,434.247860682,434.414827642
37361000000,906,37361000000,,432.809424382,432.976428535,432.809470968,432.9764499
37398000000,907,37398000000,,428.544855708,428.183622006,428.544851058,428.183617038
37449000000,908,37449000000,,434.35695249,433.995705043,434.356882421,433.995662146
37497000000,909,37497000000,,429.363507071,429.002163185,429.363207763,429.002083927
37537000000,910,37537000000,,430.626345313,430.26440569,430.624810066,430.264281967
37593000000,911,37593000000,,434.13518491,434.025000505,434.123764721,434.024676653
37646000000,912,37646000000,,432.410864322,432.309550213,432.415779668,432.307821304
37692000000,913,37692000000,,433.67069083,433.56868958,433.662482766,433.555211544
37723000000,914,37723000000,,432.947613395,432.837619551,432.946438486,432.847159857
37766000000,915,37766000000,,434.755822421,434.58103881,434.758730683,434.574866028
37812000000,916,37812000000,,433.600390729,433.422926167,433.600435252,433.419251549
37858000000,917,37858000000,,432.222778807,432.042062235,432.22174868,432.043816986
37910000000,918,37910000000,,430.942697367,430.76300507,430.943271806,430.764315838
37958000000,919,37958000000,,430.991013451,431.065793003,430.990910274,431.064896479
38005000000,920,38005000000,,432.881577504,432.955932184,432.88151736,432.955928437
38036000000,921,38036000000,,432.207051915,432.281318164,432.207078214,432.281577722
38055000000,922,38055000000,,431.502382583,431.576891024,431.502387889,431.576645204
38096000000,923,38096000000,,431.819483192,431.740874457,431.819486335,431.741040824
38131000000,924,38131000000,,430.490980693,430.412507349,430.491011179,430.412430277
38176000000,925,38176000000,,429.880138002,429.801565019,429.880086676,429.801605412
38230000000,926,38230000000,,432.039078929,431.960528068,432.038995362,431.960491975
38271000000,927,38271000000,,431.101831699,431.066609177,431.101711023,431.066578355
38313000000,928,38313000000,,431.09336703,431.058010037,431.09304877,431.058050573
38350000000,929,38350000000,,431.324498624,431.28842843,431.322824764,431.288539768
38387000000,930,38387000000,,432.489299654,432.447604656,432.47655974,432.447899548
38440000000,931,38440000000,,433.335117142,433.375079602,433.343056907,433.37637386
38488000000,932,38488000000,,433.561426558,433.590069851,433.554206295,433.598842415
38525000000,933,38525000000,,434.32131898,434.354688399,434.318660301,434.358570295
38556000000,934,38556000000,,434.430530304,434.464954126,434.432983401,434.471838992
38596000000,935,38596000000,,432.351326371,432.173968392,432.352069156,432.17031386
38642000000,936,38642000000,,432.670983159,432.4917488,432.669922304,432.490043388
38697000000,937,38697000000,,434.473765057,434.293446288,434.474084571,434.295290063
38750000000,938,38750000000,,436.099065588,435.919741138,436.099128424,435.919339598
38792000000,939,38792000000,,435.408574134,435.424299721,435.408428261,435.424002834
38827000000,940,38827000000,,433.896488803,433.91203609,433.896624602,433.912377474
38876000000,941,38876000000,,433.420837813,433.436569148,433.420783427,433.436352252
38911000000,942,38911000000,,433.365936465,433.381507627,433.365924814,433.381653812
38955000000,943,38955000000,,431.647396552,431.605206366,431.647399072,431.605127986
39001000000,944,39001000000,,432.50543658,432.463220017,432.505420722,432.463176014
39056000000,945,39056000000,,432.678842684,432.636600033,432.678877144,432.636658524
39114000000,946,39114000000,,432.626668,432.584457825,432.626785365,432.584534269
39160000000,947,39160000000,,430.011323586,429.792888357,430.011664291,429.793016812
39204000000,948,39204000000,,432.265139653,432.047261217,432.266779434,432.047575162
39248000000,949,39248000000,,432.699597847,432.486242833,432.711382295,432.487654601
39294000000,950,39294000000,,431.68760083,431.461386446,431.68222089,431.471352566
39342000000,951,39342000000,,429.05764639,429.09148668,429.065690856,429.091227443
39385000000,952,39385000000,,433.399698877,433.425635596,433.400315523,433.43375568
39436000000,953,39436000000,,433.807182382,433.836320469,433.804282832,433.834521622
39470000000,954,39470000000,,428.865593159,428.896838149,428.866076614,428.8942085
39517000000,955,39517000000,,431.068974759,430.997938452,431.069732438,430.99928295
39546000000,956,39546000000,,430.207135635,430.135936411,430.206463338,430.136176767
39586000000,957,39586000000,,431.701919804,431.631642145,431.702244775,431.631036639
39624000000,958,39624000000,,429.393717268,429.322700721,429.393600898,429.32313165
39656000000,959,39656000000,,430.594554635,430.690214478,430.594638158,430.689992204
39673000000,960,39673000000,,429.662783204,429.758164303,429.66267818,429.75831097
39695000000,961,39695000000,,431.443240263,431.538840981,431.443297299,431.53871047
39738000000,962,39738000000,,427.016009945,427.111501139,427.016026667,427.111549362
39769000000,963,39769000000,,432.695020642,432.809972589,432.695021743,432.81002547
39816000000,964,39816000000,,431.267231736,431.382206786,431.267222816,431.38220344
39844000000,965,39844000000,,430.038349797,430.153310976,430.038291619,430.153286113
39854000000,966,39854000000,,433.125490818,433.240371965,433.125213756,433.240288284
39879000000,967,39879000000,,430.294815157,430.144966097,430.292735229,430.144562904
39914000000,968,39914000000,,431.865598204,431.709763244,431.849240105,431.70705368
39948000000,969,39948000000,,433.153371861,433.020660422,433.16646144,433.001151493
39980000000,970,39980000000,,430.694514122,430.538918167,430.693426419,430.551000989
40022000000,971,40022000000,,431.270454849,431.76788587,431.265727964,431.771547876
40053000000,972,40053000000,,428.643953003,429.146561753,428.642829181,429.143471365
40088000000,973,40088000000,,431.082902221,431.586445982,431.084467268,431.584174442
40119000000,974,40119000000,,430.800744834,431.302139642,430.801100664,431.302956791
40148000000,975,40148000000,,432.116970005,431.726142642,432.11630756,431.726905929
40163000000,976,40163000000,,433.405653072,433.015897915,433.405853578,433.01537974
40232000000,977,40232000000,,432.16675261,431.776655137,432.166826327,431.776694805
40285000000,978,40285000000,,432.671921754,432.281704053,432.671827615,432.28181632
40330000000,979,40330000000,,433.049467763,433.133044433,433.049523451,433.132933591
40348000000,980,40348000000,,432.46185218,432.545279064,432.461803069,432.545362994
40373000000,981,40373000000,,430.261533331,430.345064191,430.261567149,430.345023098
40405000000,982,40405000000,,432.611964738,432.695452469,432.611975165,432.695474244
40446000000,983,40446000000,,430.825618758,430.812431474,430.82559143,430.812435659
40487000000,984,40487000000,,432.391484038,432.378324971,432.391463696,432.378279708
40527000000,985,40527000000,,432.990949534,432.977790772,432.990932199,432.977747907
40561000000,986,40561000000,,435.382380669,435.369205019,435.382346119,435.369178715
40587000000,987,40587000000,,431.882220852,431.813008028,431.882085761,431.812995217
40617000000,988,40617000000,,434.860207245,434.790558343,434.859174627,434.790520162
40654000000,989,40654000000,,431.89350227,431.819147196,431.882647106,431.818698813
40688000000,990,40688000000,,432.168443603,432.105609406,432.17568253,432.10021336
40726000000,991,40726000000,,434.526246789,434.539173227,434.5202968,434.523292542
40752000000,992,40752000000,,434.570020244,434.581272825,434.564173967,434.568843567
40789000000,993,40789000000,,433.771875276,433.781566038,433.768887612,433.775119031
40819000000,994,40819000000,,434.156483828,434.165818783,434.156236266,434.162823492
40861000000,995,40861000000,,436.49507933,436.514152851,436.496102257,436.513226229
40895000000,996,40895000000,,432.063034275,432.081334184,432.063674089,432.081571672
40930000000,997,40930000000,,434.06864336,434.086300303,434.068447782,434.086988331
40967000000,998,40967000000,,433.522177092,433.539869326,433.521934472,433.54043973
41001000000,999,41001000000,,432.177833176,432.1195763,432.17794941,432.119731959
41042000000,1000,41042000000,,431.417809061,431.359665496,431.417836884,431.359506122
41082000000,1001,41082000000,,430.498465132,430.440259952,430.498409044,430.440139898
41121000000,1002,41121000000,,433.261848538,433.203601227,433.261890904,433.203663889
41163000000,1003,41163000000,,433.172698004,433.144010593,433.172676719,433.144056663
41199000000,1004,41199000000,,431.462971141,431.43434017,431.462979953,431.434303458
41231000000,1005,41231000000,,431.801701319,431.773043031,431.801688811,431.773039633
41270000000,1006,41270000000,,431.757239928,431.728593728,431.757248879,431.728587613
41318000000,1007,41318000000,,431.404957629,431.425418518,431.404968754,431.4254344
41358000000,1008,41358000000,,431.642499489,431.662959067,431.6425048,431.662971757
41397000000,1009,41397000000,,433.738721012,433.759186703,433.738709851,433.759170695
41445000000,1010,41445000000,,430.135379589,430.15582517,430.135314017,430.155794971
41482000000,1011,41482000000,,429.920212674,429.833067174,429.919919959,429.833069541
41523000000,1012,41523000000,,432.450805337,432.362831903,432.448911967,432.362889483
41561000000,1013,41561000000,,432.391772034,432.296717198,432.375768192,432.29682711
41600000000,1014,41600000000,,431.201668493,431.121212487,431.214996902,431.121456991
41637000000,1015,41637000000,,432.580099513,432.546751113,432.579142489,432.547724992
41672000000,1016,41672000000,,431.432907806,431.394925385,431.428168108,431.401384633
41713000000,1017,41713000000,,432.629380633,432.589752162,432.627631949,432.602494524
41746000000,1018,41746000000,,431.435393258,431.402470939,431.436621053,431.404777475
41788000000,1019,41788000000,,433.064238868,433.086798074,433.065035895,433.081207115
41832000000,1020,41832000000,,433.636337071,433.655391112,433.635799134,433.655475519
41873000000,1021,41873000000,,430.745479248,430.763826958,430.745397369,430.765780085
