%time,field.header.seq,field.header.stamp,field.header.frame_id,field.pose.position.x,field.pose.position.y,field.pose.position.z,field.pose.orientation.x,field.pose.orientation.y,field.pose.orientation.z,field.pose.orientation.w
13745000000,1020,13745000000,world,0.00461515151787,-0.00164665482778,2.915555972,-2.41834108855e-06,6.90964694336e-05,-0.000174598532809,0.999999982368
13755000000,1021,13755000000,world,0.0046233074289,-0.00164959351891,2.91539507409,-4.57534223325e-06,7.91428012166e-05,-0.000174014283357,0.999999981717
13765000000,1022,13765000000,world,0.0046337328646,-0.00165208086754,2.9152265168,-6.80722176181e-06,8.93929295599e-05,-0.000173428918838,0.999999980942
13775000000,1023,13775000000,world,0.00464460248233,-0.00165447550098,2.9150506478,-9.10356135915e-06,9.95531209684e-05,-0.000172842824956,0.999999980066
13785000000,1024,13785000000,world,0.00465466026997,-0.00165702541493,2.91486763787,-1.14599467701e-05,0.00010934656315,-0.000172255985629,0.99999997912
13795000000,1025,13795000000,world,0.00466396650575,-0.00165971984632,2.91467764904,-1.38456798199e-05,0.000118823239963,-0.000171668227188,0.99999997811
13805000000,1026,13805000000,world,0.00470967615565,-0.00165456214691,2.91448087395,-1.70551642362e-05,0.000131989226628,-0.000171078482483,0.99999997651
13815000000,1027,13815000000,world,0.00475656150663,-0.00164913743763,2.91427777171,-2.02417206353e-05,0.00014511046121,-0.000170487822309,0.999999974734
13825000000,1028,13825000000,world,0.00480013723687,-0.00164441424017,2.91406886268,-2.32688310292e-05,0.00015760673044,-0.00016989623978,0.999999972877
13835000000,1029,13835000000,world,0.00484029100913,-0.00164042089919,2.91385464596,-2.6154170417e-05,0.000169252796108,-0.000169303746411,0.999999971003
13845000000,1030,13845000000,world,0.00484776366148,-0.0016434209388,2.91363564158,-2.8247232546e-05,0.000176794184253,-0.00016871163117,0.999999969741
13855000000,1031,13855000000,world,0.00485049744481,-0.00164743932992,2.91341248133,-3.02044762657e-05,0.000183147559488,-0.000168119069109,0.99999996864
13865000000,1032,13865000000,world,0.004857184232,-0.00165045267226,2.91318582998,-3.22292683428e-05,0.000189256332296,-0.000167525610024,0.999999967539
13875000000,1033,13875000000,world,0.00490606286545,-0.00164301007398,2.91295600323,-3.52555069452e-05,0.00019905048176,-0.000166929367715,0.999999965635
13885000000,1034,13885000000,world,0.00495168320285,-0.00163636864785,2.91272243506,-3.80466222855e-05,0.000207853707756,-0.000166332852047,0.999999963841
13895000000,1035,13895000000,world,0.00498579838328,-0.00163256890661,2.91248440264,-4.03522826753e-05,0.000214660900024,-0.000165736431164,0.999999962412
13905000000,1036,13905000000,world,0.00498535365754,-0.00163729791767,2.91224154895,-4.16131891506e-05,0.000216912966548,-0.000165141212106,0.999999961973
13915000000,1037,13915000000,world,0.00498411795056,-0.00164224377446,2.91199422687,-4.26843551734e-05,0.000218190468252,-0.000164546266535,0.999999961748
13925000000,1038,13925000000,world,0.00498253690158,-0.00164730151202,2.9117428883,-4.36139309255e-05,0.000218576926635,-0.000163951923749,0.999999961721
13935000000,1039,13935000000,world,0.00498288947066,-0.00165185214985,2.91148795528,-4.44764530442e-05,0.000218390680895,-0.00016335807434,0.999999961821
13945000000,1040,13945000000,world,0.00498468545614,-0.00165596268335,2.91122966929,-4.52345125241e-05,0.000217600122205,-0.000162764764684,0.999999962056
13955000000,1041,13955000000,world,0.00498697811214,-0.00165997054247,2.91096813719,-4.5844725421e-05,0.000216060028873,-0.000162172336148,0.999999962458
13965000000,1042,13965000000,world,0.00499037454279,-0.00166366472693,2.91070360274,-4.63264250099e-05,0.000213845681315,-0.000161580804965,0.999999963008
13975000000,1043,13975000000,world,0.00499434755343,-0.00166726524931,2.91043662295,-4.66632992006e-05,0.000210920228477,-0.000160990225531,0.999999963709
13985000000,1044,13985000000,world,0.00499915809376,-0.00167041642212,2.91016775103,-4.68890291269e-05,0.000207353066851,-0.000160400798992,0.999999964539
13995000000,1045,13995000000,world,0.00500475228465,-0.00167331669219,2.9098972678,-4.7015042503e-05,0.000203189911459,-0.00015981279284,0.999999965482
14005000000,1046,14005000000,world,0.00501102867632,-0.00167608597926,2.90962529691,-4.70411566193e-05,0.000198533006066,-0.000159225924476,0.999999966509
14015000000,1047,14015000000,world,0.0050177497585,-0.00167857001042,2.90935197175,-4.69661645733e-05,0.000193371841145,-0.000158639656967,0.999999967617
14025000000,1048,14025000000,world,0.00502525633803,-0.00168094372474,2.90907746766,-4.67645684421e-05,0.000187585032271,-0.000158053958656,0.999999968822
14035000000,1049,14035000000,world,0.00503338390615,-0.00168318429523,2.9088019625,-4.64367673444e-05,0.000181141673594,-0.000157468540256,0.999999970117
14045000000,1050,14045000000,world,0.00504166515785,-0.00168522889066,2.90852576186,-4.59874260129e-05,0.000174007214221,-0.000156882931946,0.999999971497
14055000000,1051,14055000000,world,0.00505072877302,-0.00168716979607,2.90824945822,-4.53907555833e-05,0.000166320168786,-0.000156297147056,0.999999972924
14065000000,1052,14065000000,world,0.00506054674106,-0.00168900970858,2.90797366063,-4.46657792576e-05,0.000158150001055,-0.000155711362872,0.999999974374
14075000000,1053,14075000000,world,0.00507018431037,-0.00169073593659,2.90769895865,-4.38306809231e-05,0.000149534740278,-0.000155125266351,0.999999975827
14085000000,1054,14085000000,world,0.00507996562547,-0.001692357175,2.90742597883,-4.28755826614e-05,0.00014059874663,-0.00015453851636,0.999999977256
14095000000,1055,14095000000,world,0.00509047821792,-0.0016938870043,2.90715536943,-4.18000692414e-05,0.000131140538704,-0.00015395099993,0.999999978677
14105000000,1056,14105000000,world,0.00510168446345,-0.00169532852855,2.90688775471,-4.06045588003e-05,0.000121091520815,-0.000153362556173,0.999999980084
14115000000,1057,14115000000,world,0.00511249687543,-0.00169674007765,2.90662373491,-3.92812420358e-05,0.000110338793443,-0.000152772789659,0.999999981471
14125000000,1058,14125000000,world,0.00512244511506,-0.00169814658827,2.9063638882,-3.78047701183e-05,9.89198276445e-05,-0.00015218153904,0.999999982813
14135000000,1059,14135000000,world,0.00513310181994,-0.00169946511518,2.90610877181,-3.61814140924e-05,8.71088080651e-05,-0.000151589363527,0.999999984062
14145000000,1060,14145000000,world,0.00514442707658,-0.0017006988693,2.90585892182,-3.44346220316e-05,7.50483579483e-05,-0.000150996361717,0.999999985191
14155000000,1061,14155000000,world,0.00512634988087,-0.00170543060284,2.90561482864,-3.21757011495e-05,5.98780836236e-05,-0.000150400813381,0.999999986379
14165000000,1062,14165000000,world,0.0050981002539,-0.00171136586647,2.90537664148,-2.96767792629e-05,4.33212259014e-05,-0.000149803678318,0.999999987401
14175000000,1063,14175000000,world,0.00507320422369,-0.00171688990148,2.90514432565,-2.71342985525e-05,2.67154484993e-05,-0.000149205706954,0.999999988144
14185000000,1064,14185000000,world,0.00505183708983,-0.00172197911745,2.90491784818,-2.45652394459e-05,1.0179263277e-05,-0.00014860681306,0.999999988604
14195000000,1065,14195000000,world,0.00502954317184,-0.00172778708513,2.90469717998,-2.18328003863e-05,-6.56396682856e-06,-0.000148006648434,0.999999988787
14205000000,1066,14205000000,world,0.0050044629237,-0.00173446941812,2.90448239615,-1.89049217614e-05,-2.34558743631e-05,-0.000147405500811,0.999999988682
14215000000,1067,14215000000,world,0.00498351170784,-0.00174055742985,2.90427370292,-1.5974648081e-05,-3.95103429973e-05,-0.000146803924095,0.999999988316
14225000000,1068,14225000000,world,0.00495710428023,-0.0017476604665,2.90407130772,-1.28817864556e-05,-5.53812200114e-05,-0.00014620122013,0.999999987696
14235000000,1069,14235000000,world,0.00492124992971,-0.00175644232419,2.90387547263,-9.60258267518e-06,-7.16319430684e-05,-0.000145597043497,0.999999986789
14245000000,1070,14245000000,world,0.00489050823066,-0.00176442293948,2.90368653467,-6.44438718641e-06,-8.69039335661e-05,-0.000144992327034,0.999999985692
14255000000,1071,14255000000,world,0.00486325748721,-0.00177346539608,2.90350475087,-3.23381160083e-06,-0.000101250930542,-0.000144386047677,0.999999984445
14265000000,1072,14265000000,world,0.00484050372942,-0.00178207916848,2.90332984305,-1.24432702438e-07,-0.000114387462827,-0.00014377897006,0.999999983122
14275000000,1073,14275000000,world,0.00482236089018,-0.00178980485768,2.90316131202,2.86099303333e-06,-0.000126075188688,-0.000143171785193,0.999999981799
14285000000,1074,14285000000,world,0.00480545884505,-0.00179821106836,2.90299869233,5.83903168192e-06,-0.000136507660783,-0.000142564039837,0.999999980504
14295000000,1075,14295000000,world,0.00479266564311,-0.00180579857922,2.90284160373,8.62575059146e-06,-0.000145188833099,-0.000141956791862,0.999999979347
14305000000,1076,14305000000,world,0.00478362727648,-0.00181252841485,2.90268969561,1.11773588581e-05,-0.000152173214154,-0.000141350112939,0.999999978369
14315000000,1077,14315000000,world,0.00478534954113,-0.00181886226762,2.90254268968,1.35063748019e-05,-0.000156860665479,-0.000140742861385,0.999999977702
14325000000,1078,14325000000,world,0.00479043510826,-0.00182447564902,2.9024006165,1.55682044919e-05,-0.000159986803532,-0.000140136483719,0.999999977262
14335000000,1079,14335000000,world,0.00479760309205,-0.00182938484504,2.90226360782,1.73710307762e-05,-0.000161634787549,-0.000139531110941,0.999999977052
14345000000,1080,14345000000,world,0.00481841346183,-0.00183059433922,2.90213179617,1.86172542515e-05,-0.000160542236178,-0.000138928097992,0.999999977289
14355000000,1081,14355000000,world,0.0048670351126,-0.0018244534547,2.90200536167,1.8915664352e-05,-0.000155296587756,-0.000138329320602,0.999999978195
14365000000,1082,14365000000,world,0.00491418605861,-0.00181844645104,2.90188454655,1.90427053231e-05,-0.00014921155674,-0.000137732178708,0.999999979202
14375000000,1083,14375000000,world,0.00495932030953,-0.00181270811783,2.90176960435,1.90225419232e-05,-0.000142461485995,-0.000137136595171,0.999999980268
14385000000,1084,14385000000,world,0.0050006112318,-0.00180811254289,2.9016607155,1.89775821095e-05,-0.000135188118962,-0.000136542194841,0.99999998136
14395000000,1085,14395000000,world,0.00503917230789,-0.00180399379283,2.90155771351,1.88622519553e-05,-0.000127308560773,-0.000135949179869,0.999999982477
14405000000,1086,14405000000,world,0.0050750385051,-0.00180030312855,2.90146032539,1.87005095655e-05,-0.000118882889014,-0.000135357174789,0.999999983598
14415000000,1087,14415000000,world,0.00510826231467,-0.00179707230252,2.90136828878,1.85013929544e-05,-0.000110033117459,-0.000134765864973,0.999999984694
14425000000,1088,14425000000,world,0.00514052474948,-0.00179445819295,2.90128141386,1.82811245752e-05,-0.000100724082446,-0.000134175197523,0.999999985759
14435000000,1089,14435000000,world,0.00517004512671,-0.00179229960348,2.90119984919,1.80076451262e-05,-9.13068595471e-05,-0.000133585253262,0.999999986747
14445000000,1090,14445000000,world,0.0051969323812,-0.00179057432227,2.90112384865,1.76833861482e-05,-8.18994831516e-05,-0.000132995634545,0.999999987646
14455000000,1091,14455000000,world,0.0052222444867,-0.00178925610342,2.90105365668,1.73398032992e-05,-7.22390124417e-05,-0.00013240600977,0.999999988475
14465000000,1092,14465000000,world,0.00524726469347,-0.00178831337093,2.90098954086,1.69911651095e-05,-6.21543890317e-05,-0.000131816171026,0.999999989236
14475000000,1093,14475000000,world,0.00526995441861,-0.00178773312395,2.90093181308,1.66572046902e-05,-5.18796415178e-05,-0.000131225918822,0.999999989905
14485000000,1094,14485000000,world,0.00529310263089,-0.00178742839997,2.90088077322,1.63248312959e-05,-4.12067952879e-05,-0.000130634847858,0.999999990485
14495000000,1095,14495000000,world,0.00531522056013,-0.00178740744073,2.90083664938,1.59928529098e-05,-3.04293496561e-05,-0.000130043188698,0.999999990954
14505000000,1096,14505000000,world,0.00533532204633,-0.0017876679694,2.90079962629,1.56362909133e-05,-1.97826108354e-05,-0.000129450987116,0.999999991303
14515000000,1097,14515000000,world,0.00535780197039,-0.00178805125663,2.90076988125,1.52294708712e-05,-8.96289113935e-06,-0.00012885787154,0.999999991542
14525000000,1098,14525000000,world,0.00541522846579,-0.0017875248052,2.90074757559,1.46880090323e-05,5.44256814923e-06,-0.000128262877462,0.999999991652
14535000000,1099,14535000000,world,0.00546865589742,-0.00178727508267,2.90073283433,1.4162945543e-05,1.95139312951e-05,-0.00012766716704,0.99999999156
14545000000,1100,14545000000,world,0.0055179431474,-0.00178728716363,2.90072577586,1.36724141672e-05,3.31249071123e-05,-0.00012707088951,0.999999991284
14555000000,1101,14555000000,world,0.0055646487293,-0.00178743879944,2.90072651172,1.32038865577e-05,4.62825522502e-05,-0.000126474059196,0.999999990844
14565000000,1102,14565000000,world,0.00561004189997,-0.00178758371906,2.90073498697,1.27364111202e-05,5.88916022852e-05,-0.000125877085929,0.999999990262
14575000000,1103,14575000000,world,0.00565128762801,-0.00178795796086,2.90075087681,1.22715635725e-05,7.04623437274e-05,-0.000125280555261,0.999999989595
14585000000,1104,14585000000,world,0.00568858848266,-0.0017885448792,2.90077384337,1.17950236712e-05,8.08115365126e-05,-0.000124684568169,0.999999988892
14595000000,1105,14595000000,world,0.00573212716022,-0.00178904145327,2.90080355782,1.12955317721e-05,9.10383964814e-05,-0.000124088975052,0.999999988093
14605000000,1106,14605000000,world,0.00577811788623,-0.00178954556389,2.90083967877,1.08083663382e-05,0.000100808046087,-0.0001234940645,0.999999987235
14615000000,1107,14615000000,world,0.00581992812824,-0.00179023800593,2.90088185824,1.03665313131e-05,0.000109361331256,-0.000122900075983,0.999999986414
14625000000,1108,14625000000,world,0.00585778149959,-0.00179110417317,2.90092976009,9.97549856097e-06,0.000116610702865,-0.000122307001476,0.999999985672
14635000000,1109,14635000000,world,0.00586093521685,-0.0017932091553,2.90098309071,9.73930765909e-06,0.000119160410513,-0.000121715693527,0.999999985446
14645000000,1110,14645000000,world,0.00584960525427,-0.0017958450381,2.90104175572,9.56298093229e-06,0.000119188560289,-0.000121126270039,0.999999985516
14655000000,1111,14655000000,world,0.00583813924595,-0.00179850904867,2.90110578425,9.37314178975e-06,0.000118326799298,-0.000120538565664,0.999999985691
14665000000,1112,14665000000,world,0.00582710482244,-0.00180117812819,2.90117520952,9.17604475683e-06,0.000116770687326,-0.000119952502735,0.999999985946
14675000000,1113,14675000000,world,0.00582100762427,-0.00180366096253,2.90125000735,8.96576003806e-06,0.000114947815619,-0.00011936805925,0.999999986229
14685000000,1114,14685000000,world,0.00581587317993,-0.00180611866052,2.90132985717,8.76278119388e-06,0.000112465855771,-0.000118785170489,0.999999986582
14695000000,1115,14695000000,world,0.005811906818,-0.0018085523213,2.90141435085,8.57314047363e-06,0.000109390129629,-0.000118203435832,0.999999986994
14705000000,1116,14705000000,world,0.00580924713736,-0.0018109562874,2.90150309639,8.39688414173e-06,0.00010579997108,-0.000117622556906,0.99999998745
14715000000,1117,14715000000,world,0.0058081917881,-0.00181327463636,2.90159573147,8.21685851966e-06,0.000101798801286,-0.000117042674523,0.999999987935
14725000000,1118,14725000000,world,0.00580863866024,-0.00181554025477,2.90169205739,8.00652047001e-06,9.74677499016e-05,-0.000116463644765,0.999999988436
14735000000,1119,14735000000,world,0.00581048737002,-0.00181777663685,2.90179197016,7.76973545332e-06,9.29253394812e-05,-0.000115885071008,0.999999988938
14745000000,1120,14745000000,world,0.0058137082353,-0.00181998440565,2.9018953709,7.52373473251e-06,8.80627972376e-05,-0.000115306682371,0.999999989446
14755000000,1121,14755000000,world,0.0058174661959,-0.00182210675862,2.90200218025,7.26716092483e-06,8.27375708389e-05,-0.000114728318605,0.99999998997
14765000000,1122,14765000000,world,0.00582232878257,-0.00182419343338,2.90211243687,7.01222380497e-06,7.70293225082e-05,-0.000114149689727,0.999999990494
14775000000,1123,14775000000,world,0.00582842155027,-0.00182626248842,2.90222622889,6.76259068603e-06,7.10034824802e-05,-0.000113570468198,0.999999991007
14785000000,1124,14785000000,world,0.00583548579331,-0.00182831292384,2.90234364121,6.52017727747e-06,6.47049515689e-05,-0.000112990834913,0.999999991502
14795000000,1125,14795000000,world,0.00584210267993,-0.0018302793084,2.90246466455,6.24358035461e-06,5.80654982912e-05,-0.000112410789552,0.999999991977
14805000000,1126,14805000000,world,0.00584977326695,-0.00183224239226,2.90258901888,5.93609227014e-06,5.13903646221e-05,-0.000111830026575,0.999999992409
14815000000,1127,14815000000,world,0.00585841445524,-0.00183420463701,2.90271638691,5.6175244431e-06,4.45774530936e-05,-0.000111248252002,0.999999992803
14825000000,1128,14825000000,world,0.00586793981243,-0.00183616833365,2.90284646381,5.29505278107e-06,3.74734201443e-05,-0.000110665388741,0.99999999316
14835000000,1129,14835000000,world,0.00587602106285,-0.00183804122728,2.90297896859,4.96518487393e-06,2.98315212092e-05,-0.000110081244186,0.999999993484
14845000000,1130,14845000000,world,0.00588469508597,-0.00183991446952,2.90311367783,4.6407693059e-06,2.19051104197e-05,-0.000109495649349,0.999999993755
14855000000,1131,14855000000,world,0.00589414686091,-0.00184180067188,2.90325038854,4.33354684198e-06,1.38011073347e-05,-0.000108908871215,0.999999993965
14865000000,1132,14865000000,world,0.00590345715298,-0.00184366617707,2.90338890645,4.00680221204e-06,5.49965928369e-06,-0.000108321244,0.99999999411
14875000000,1133,14875000000,world,0.00591152014612,-0.00184546861943,2.90352910144,3.64282549282e-06,-2.95839762949e-06,-0.000107732709058,0.999999994186
14885000000,1134,14885000000,world,0.00592030152996,-0.00184729468897,2.90367094386,3.26937276187e-06,-1.13779438053e-05,-0.000107143112643,0.99999999419
14895000000,1135,14895000000,world,0.00592974774354,-0.00184914474306,2.90381441428,2.8968444592e-06,-1.99918743792e-05,-0.000106552540514,0.999999994119
14905000000,1136,14905000000,world,0.0059372451846,-0.00185091780645,2.90395950704,2.52001526234e-06,-2.90958415951e-05,-0.000105960991034,0.99999999396
14915000000,1137,14915000000,world,0.00594480432729,-0.00185269546943,2.90410631477,2.15257332179e-06,-3.84501036466e-05,-0.000105368320931,0.999999993707
14925000000,1138,14925000000,world,0.00595303358401,-0.00185450339519,2.90425496978,1.80856540421e-06,-4.78913857029e-05,-0.000104774622569,0.999999993363
14935000000,1139,14935000000,world,0.0059608706913,-0.00185630016335,2.90440559798,1.46123185062e-06,-5.74448522637e-05,-0.000104180307855,0.999999992922
14945000000,1140,14945000000,world,0.00596702739362,-0.00185803496466,2.90455821317,1.08251231249e-06,-6.7097727876e-05,-0.000103585389173,0.999999992383
14955000000,1141,14955000000,world,0.00597386934388,-0.00185980567276,2.90471264875,6.95879877805e-07,-7.65064223419e-05,-0.000102989684353,0.99999999177
14965000000,1142,14965000000,world,0.00598135320246,-0.00186161063981,2.90486872761,3.16100858957e-07,-8.59432917731e-05,-0.000102393212602,0.999999991065
14975000000,1143,14975000000,world,0.00598751596481,-0.00186338290508,2.90502627732,-5.88759237239e-08,-9.56718394195e-05,-0.000101796011126,0.999999990242
14985000000,1144,14985000000,world,0.00599245003558,-0.0018651115003,2.90518505465,-4.2409146524e-07,-0.000105663271603,-0.000101197954843,0.999999989297
14995000000,1145,14995000000,world,0.00599806818372,-0.00186687630055,2.9053447261,-7.62996528989e-07,-0.000115620840065,-0.000100598991706,0.999999988256
15005000000,1146,15005000000,world,0.00600431696615,-0.00186867555169,2.90550496455,-1.08247571189e-06,-0.000125450312969,-9.99995431247e-05,0.999999987131
15015000000,1147,15015000000,world,0.00600976956653,-0.00187045551525,2.90566545592,-1.4194602235e-06,-0.000135183698144,-9.93997178283e-05,0.999999985922
15025000000,1148,15025000000,world,0.00601269661906,-0.00187215001918,2.90582594213,-1.77665760481e-06,-0.000144837329208,-9.87993421104e-05,0.999999984629
15035000000,1149,15035000000,world,0.00601631999499,-0.00187388149786,2.90598625048,-2.1219903539e-06,-0.000154294289371,-9.81983535722e-05,0.999999983273
15045000000,1150,15045000000,world,0.00602059242018,-0.00187564771641,2.90614622121,-2.45017127151e-06,-0.000163671206511,-9.759682597e-05,0.99999998184
15055000000,1151,15055000000,world,0.0060229646255,-0.00187736135476,2.90630570111,-2.7640523233e-06,-0.000173224612229,-9.69946604225e-05,0.999999980289
15065000000,1152,15065000000,world,0.00602401125209,-0.0018790413931,2.90646456127,-3.05670051524e-06,-0.000182819920023,-9.63917087895e-05,0.999999978638
15075000000,1153,15075000000,world,0.00602577632818,-0.0018807567497,2.90662269169,-3.31362418858e-06,-0.000192128363099,-9.57883172187e-05,0.99999997695
15085000000,1154,15085000000,world,0.00602820098955,-0.00188250582814,2.90677998638,-3.569832779e-06,-0.000201058949913,-9.51847144296e-05,0.999999975251
15095000000,1155,15095000000,world,0.00602820373368,-0.00188418122884,2.90693633127,-3.84237333127e-06,-0.000209768424408,-9.45807669379e-05,0.999999973518
15105000000,1156,15105000000,world,0.00602763437808,-0.00188584633199,2.90709150463,-4.1045909322e-06,-0.000218164539825,-9.39763314139e-05,0.999999971778
15115000000,1157,15115000000,world,0.00602776854,-0.00188754482391,2.90724522691,-4.34446909252e-06,-0.00022627862287,-9.33714878139e-05,0.99999997003
15125000000,1158,15125000000,world,0.00602809309838,-0.00188926086451,2.90739722812,-4.55782464658e-06,-0.000234152771923,-9.27661796761e-05,0.999999968273
15135000000,1159,15135000000,world,0.00602510548553,-0.00189089131154,2.90754723576,-4.75055857781e-06,-0.000242105852883,-9.21602155464e-05,0.999999966434
15145000000,1160,15145000000,world,0.00602284995685,-0.0018925533616,2.90769495787,-4.89788952322e-06,-0.000249609951409,-9.15538004713e-05,0.999999964644
15155000000,1161,15155000000,world,0.00602048240931,-0.00189422236589,2.90784010558,-5.03205573922e-06,-0.000256675887367,-9.09472761493e-05,0.99999996291
15165000000,1162,15165000000,world,0.00601569770085,-0.00189583069946,2.9079824415,-5.17514892129e-06,-0.000263420166288,-9.03405780492e-05,0.999999961211
15175000000,1163,15175000000,world,0.0060116610757,-0.0018974700954,2.90812183149,-5.30246698591e-06,-0.000269491359936,-8.97335280406e-05,0.999999959647
15185000000,1164,15185000000,world,0.00600831157277,-0.00189913778527,2.90825815692,-5.40318603917e-06,-0.000275060802183,-8.91261653546e-05,0.999999958184
15195000000,1165,15195000000,world,0.00600459275342,-0.00190081263645,2.90839130517,-5.47419826108e-06,-0.000280234153755,-8.85184727371e-05,0.999999956802
15205000000,1166,15205000000,world,0.00599968018785,-0.00190246943167,2.90852133061,-5.51105688538e-06,-0.000285061999517,-8.79102897448e-05,0.999999955491
15215000000,1167,15215000000,world,0.00599536159533,-0.00190414879806,2.90864856064,-5.50116729989e-06,-0.00028928531845,-8.73016435985e-05,0.999999954331
15225000000,1168,15225000000,world,0.00599155639052,-0.0019058484005,2.90877333453,-5.45986602821e-06,-0.00029286418486,-8.66929406482e-05,0.999999953343
15235000000,1169,15235000000,world,0.00598671107685,-0.00190753674387,2.90889596903,-5.4142778144e-06,-0.000295911435046,-8.60842043997e-05,0.999999952498
15245000000,1170,15245000000,world,0.00598085616348,-0.00190921339275,2.90901657182,-5.35925658351e-06,-0.000298370508069,-8.5475242256e-05,0.99999995182
15255000000,1171,15255000000,world,0.00597542872864,-0.00191090574962,2.90913505162,-5.27683334689e-06,-0.000300171326674,-8.48660312024e-05,0.999999951334
15265000000,1172,15265000000,world,0.0059703551328,-0.00191261142303,2.90925131173,-5.16204999651e-06,-0.000301322268563,-8.42566063741e-05,0.99999995104
15275000000,1173,15275000000,world,0.00596366954364,-0.00191431695152,2.90936523749,-5.00697112678e-06,-0.000302002415983,-8.36468116467e-05,0.999999950886
15285000000,1174,15285000000,world,0.00595683067356,-0.00191602907917,2.90947656756,-4.80827399585e-06,-0.000302025754778,-8.30365596442e-05,0.999999950931
15295000000,1175,15295000000,world,0.00595026233221,-0.00191774875107,2.90958498257,-4.5668458397e-06,-0.000301333889935,-8.24262387628e-05,0.999999951191
15305000000,1176,15305000000,world,0.0059438990603,-0.00191947491342,2.90969017518,-4.31144219454e-06,-0.000299937826058,-8.18159953916e-05,0.999999951662
15315000000,1177,15315000000,world,0.00593632275916,-0.00192122699015,2.90979185767,-4.04466744048e-06,-0.000297992140463,-8.12056343423e-05,0.999999952295
15325000000,1178,15325000000,world,0.00592889681544,-0.00192298094793,2.90988978923,-3.75424248985e-06,-0.000295321579612,-8.0595078874e-05,0.999999953138
15335000000,1179,15335000000,world,0.00592156525895,-0.00192473517233,2.90998374584,-3.43360562663e-06,-0.000291905588777,-7.99843895304e-05,0.999999954191
15345000000,1180,15345000000,world,0.00591419425822,-0.00192650530454,2.91007351232,-3.07161608032e-06,-0.000287725080243,-7.93734678681e-05,0.999999955452
15355000000,1181,15355000000,world,0.00590651057863,-0.00192833867594,2.91015889169,-2.66101031761e-06,-0.000282802623757,-7.8762107123e-05,0.999999956906
15365000000,1182,15365000000,world,0.00589877894023,-0.00193016406977,2.910239717,-2.20457256483e-06,-0.000277147251822,-7.81506190147e-05,0.999999958539
15375000000,1183,15375000000,world,0.00589095296996,-0.00193198118918,2.91031583054,-1.72951052697e-06,-0.000270812256752,-7.75392708397e-05,0.999999960323
15385000000,1184,15385000000,world,0.00588335502088,-0.00193385565017,2.91038709667,-1.24072866584e-06,-0.000263861932402,-7.69279296384e-05,0.999999962229
15395000000,1185,15395000000,world,0.00587579526104,-0.00193576025299,2.91045362456,-7.32903183708e-07,-0.000256248058707,-7.63164356841e-05,0.999999964256
15405000000,1186,15405000000,world,0.00586798182419,-0.00193764909564,2.91051570146,-2.00852149439e-07,-0.000247881497187,-7.5704857004e-05,0.999999966412
15415000000,1187,15415000000,world,0.00585988066542,-0.00193952200135,2.9105736079,3.63025967499e-07,-0.00023872267805,-7.50931495534e-05,0.999999968686
15425000000,1188,15425000000,world,0.00585339032058,-0.00194156333809,2.91062756569,9.86494940809e-07,-0.000228567765971,-7.44810607591e-05,0.999999971104
15435000000,1189,15435000000,world,0.00584645130168,-0.00194357900601,2.91067759005,1.64849310693e-06,-0.000217724963387,-7.38687706945e-05,0.999999973568
15445000000,1190,15445000000,world,0.0058390362829,-0.00194556942157,2.91072364891,2.33117059226e-06,-0.000206292311985,-7.32566466029e-05,0.999999976036
15455000000,1191,15455000000,world,0.00583223258157,-0.0019476177614,2.91076571465,3.02622317302e-06,-0.000194320425965,-7.26446340701e-05,0.999999978477
15465000000,1192,15465000000,world,0.00582647948046,-0.00194975868348,2.91080387192,3.73490030276e-06,-0.000181791369655,-7.20325310451e-05,0.999999980875
15475000000,1193,15475000000,world,0.00582005937289,-0.00195186633673,2.91083834497,4.45719902378e-06,-0.000168626547482,-7.14203798319e-05,0.999999983222
15485000000,1194,15485000000,world,0.00581296558949,-0.00195394190555,2.91086935917,5.1993088707e-06,-0.00015475457035,-7.08081838376e-05,0.999999985505
15495000000,1195,15495000000,world,0.00583374289478,-0.00195754151474,2.91089714214,6.13573450855e-06,-0.000137137755794,-7.01952559369e-05,0.999999988114
15505000000,1196,15505000000,world,0.00587072134837,-0.00196226065735,2.91092193735,7.21274148157e-06,-0.000117218652311,-6.95816428253e-05,0.999999990683
15515000000,1197,15515000000,world,0.00590399273537,-0.00196677338649,2.91094401941,8.27915930505e-06,-9.74149800289e-05,-6.89682453106e-05,0.999999992843
15525000000,1198,15525000000,world,0.00593620861026,-0.00197117969539,2.91096366069,9.3202071087e-06,-7.7774152973e-05,-6.83550927579e-05,0.999999994596
15535000000,1199,15535000000,world,0.00597546356181,-0.00197579445097,2.91098096378,1.03501852373e-05,-5.77719728565e-05,-6.77418665792e-05,0.999999995983
15545000000,1200,15545000000,world,0.00600981957221,-0.00198015361261,2.91099567018,1.13246757379e-05,-3.83385111525e-05,-6.71287064781e-05,0.999999996948
15555000000,1201,15555000000,world,0.00603928061624,-0.00198426041236,2.91100748748,1.22457411403e-05,-1.94207028777e-05,-6.6515649465e-05,0.999999997524
15565000000,1202,15565000000,world,0.00606396968039,-0.00198812367464,2.91101613482,1.31259779702e-05,-1.09543276096e-06,-6.5902591342e-05,0.999999997742
15575000000,1203,15575000000,world,0.00610571575454,-0.00199292552528,2.91102137812,1.40760700691e-05,1.87536833115e-05,-6.52889375843e-05,0.999999997594
15585000000,1204,15585000000,world,0.00614714337416,-0.00199772854258,2.91102327058,1.49907230568e-05,3.79572165593e-05,-6.46755510098e-05,0.999999997076
15595000000,1205,15595000000,world,0.00618279270969,-0.00200223959902,2.91102198737,1.58103615565e-05,5.56418752029e-05,-6.40629533954e-05,0.999999996275
15605000000,1206,15605000000,world,0.00621532469099,-0.00200642112323,2.91101769817,1.65120070237e-05,7.17747706015e-05,-6.34510465723e-05,0.999999995275
15615000000,1207,15615000000,world,0.00624482023244,-0.00201029401389,2.91101058945,1.70996170763e-05,8.65409189637e-05,-6.28398874214e-05,0.999999994135
15625000000,1208,15625000000,world,0.0062690741176,-0.00201393044771,2.91100085895,1.75869429549e-05,9.97924429362e-05,-6.2229890125e-05,0.99999999293
15635000000,1209,15635000000,world,0.00628845615879,-0.0020173528039,2.91098869665,1.7984766789e-05,0.000111485666195,-6.16211689543e-05,0.999999991725
15645000000,1210,15645000000,world,0.00630455434192,-0.00202056241846,2.91097428415,1.82941385238e-05,0.000121658915558,-6.10136110165e-05,0.999999990571
15655000000,1211,15655000000,world,0.00631731462337,-0.00202359185448,2.91095778835,1.85150973651e-05,0.000130133638031,-6.04076049835e-05,0.999999989537
15665000000,1212,15665000000,world,0.0063263480825,-0.00202648014274,2.91093936361,1.86252631196e-05,0.000136760950428,-5.98036875975e-05,0.999999988687
15675000000,1213,15675000000,world,0.00633207381367,-0.00202925006816,2.91091915773,1.86094591965e-05,0.000141512584673,-5.92019294102e-05,0.999999988062
15685000000,1214,15685000000,world,0.00632087447224,-0.00203080471456,2.91089734109,1.83610016916e-05,0.00014308709213,-5.86020492585e-05,0.999999987877
15695000000,1215,15695000000,world,0.00630649751867,-0.00203222711149,2.91087419193,1.80100402396e-05,0.000142882993502,-5.8004431203e-05,0.999999987948
15705000000,1216,15705000000,world,0.00629104467141,-0.00203367248566,2.9108500234,1.75832038457e-05,0.000141109881428,-5.74092107578e-05,0.999999988242
15715000000,1217,15715000000,world,0.00626736368652,-0.00203490743886,2.91082513755,1.70655772491e-05,0.000137006865059,-5.6816585228e-05,0.999999988855
15725000000,1218,15725000000,world,0.00621431433454,-0.00203522483734,2.9107996708,1.63904294306e-05,0.000128412452219,-5.62272715064e-05,0.99999999004
15735000000,1219,15735000000,world,0.00616356435063,-0.00203569447523,2.91077346348,1.56557853835e-05,0.000118888192309,-5.56403396519e-05,0.999999991262
15745000000,1220,15745000000,world,0.00611569019309,-0.00203628142574,2.91074636066,1.48353175092e-05,0.000108758263019,-5.50554694071e-05,0.99999999246
15755000000,1221,15755000000,world,0.00607100811987,-0.00203700003046,2.91071845193,1.39469607844e-05,9.82986974401e-05,-5.44721848911e-05,0.999999993588
15765000000,1222,15765000000,world,0.00602962773201,-0.00203790931434,2.91069006031,1.30221994871e-05,8.73092356457e-05,-5.38902654199e-05,0.999999994652
15775000000,1223,15775000000,world,0.00599036044913,-0.00203890828103,2.91066149461,1.20605651121e-05,7.56458908658e-05,-5.33094964959e-05,0.999999995645
15785000000,1224,15785000000,world,0.00595370341513,-0.00204003397361,2.91063277758,1.1075755748e-05,6.34391773921e-05,-5.27295138056e-05,0.999999996536
15795000000,1225,15795000000,world,0.00592044533182,-0.00204134944022,2.91060366026,1.00813315672e-05,5.09313796086e-05,-5.21499874576e-05,0.999999997292
15805000000,1226,15805000000,world,0.00588105929849,-0.00204206846509,2.91057389396,8.99090064112e-06,3.72909983081e-05,-5.15710958351e-05,0.999999997934
15815000000,1227,15815000000,world,0.00580871793956,-0.0020399747516,2.91054337387,7.54307330385e-06,1.9985048739e-05,-5.09927707248e-05,0.999999998472
15825000000,1228,15825000000,world,0.00574210403816,-0.00203827771357,2.91051228882,6.09030021583e-06,3.5380925398e-06,-5.04146218469e-05,0.999999998704
15835000000,1229,15835000000,world,0.00568132137663,-0.00203699075094,2.91048086617,4.67396986959e-06,-1.22519270318e-05,-4.98363602503e-05,0.999999998672
15845000000,1230,15845000000,world,0.00562284980977,-0.00203590933966,2.91044932362,3.29105053945e-06,-2.78543228178e-05,-4.92578963608e-05,0.999999998393
15855000000,1231,15855000000,world,0.00556510960475,-0.00203494212937,2.91041786609,1.94645333852e-06,-4.33027661949e-05,-4.86791461288e-05,0.999999997876
15865000000,1232,15865000000,world,0.00551322436174,-0.00203439407865,2.91038668723,6.82190600656e-07,-5.7843963937e-05,-4.81001195413e-05,0.99999999717
15875000000,1233,15875000000,world,0.0054669049211,-0.00203424679581,2.91035597283,-4.91173322806e-07,-7.12519171904e-05,-4.75213197464e-05,0.999999996332
15885000000,1234,15885000000,world,0.005418714222,-0.00203375745316,2.91032589855,-1.68423395677e-06,-8.41084383417e-05,-4.69433392111e-05,0.99999999536
15895000000,1235,15895000000,world,0.00536539235816,-0.00203235815415,2.9102965208,-2.9579489149e-06,-9.64501313209e-05,-4.63664381108e-05,0.999999994269
15905000000,1236,15905000000,world,0.00531755572044,-0.00203140778643,2.91026770789,-4.12749752625e-06,-0.000107202131389,-4.57902766204e-05,0.999999993197
15915000000,1237,15915000000,world,0.0052748774218,-0.00203088819286,2.91023931342,-5.17095440996e-06,-0.000116537382995,-4.52150958618e-05,0.999999992174
15925000000,1238,15925000000,world,0.0052397439641,-0.00203104437578,2.91021119128,-6.0494269479e-06,-0.000124109640923,-4.46409594673e-05,0.999999991284
15935000000,1239,15935000000,world,0.00520970100344,-0.00203164969079,2.91018313255,-6.77864685245e-06,-0.000130066955987,-4.40678864907e-05,0.999999990547
15945000000,1240,15945000000,world,0.00518333572737,-0.00203257727503,2.91015489766,-7.36295679163e-06,-0.000134438247321,-4.34961834354e-05,0.99999998999
15955000000,1241,15955000000,world,0.00516019456188,-0.00203379287389,2.91012625611,-7.82924965424e-06,-0.000137209278171,-4.29263603441e-05,0.999999989635
15965000000,1242,15965000000,world,0.0051780369092,-0.00203863416676,2.91009700862,-7.84140788757e-06,-0.000134451186072,-4.23581276606e-05,0.999999990034
15975000000,1243,15975000000,world,0.0052000898199,-0.00204385759538,2.910066981,-7.73700532814e-06,-0.000130167357496,-4.17917933271e-05,0.999999990625
15985000000,1244,15985000000,world,0.00522126154372,-0.00204901540713,2.91003603265,-7.55137221632e-06,-0.00012491893592,-4.1227549859e-05,0.999999991319
15995000000,1245,15995000000,world,0.0052409939052,-0.00205405972127,2.91000402978,-7.29114812924e-06,-0.000118809432886,-4.06655223376e-05,0.999999992089
16005000000,1246,16005000000,world,0.00525634097944,-0.00205865182267,2.90997089039,-6.98812839779e-06,-0.000112218113802,-4.01057150353e-05,0.999999992875
16015000000,1247,16015000000,world,0.00526943612482,-0.00206305586013,2.9099367939,-6.62287347691e-06,-0.000105035978083,-3.95478502212e-05,0.99999999368
16025000000,1248,16025000000,world,0.00528041653261,-0.00206729386377,2.90990199682,-6.20843982488e-06,-9.7376675553e-05,-3.89920602684e-05,0.999999994479
16035000000,1249,16035000000,world,0.00528920973577,-0.00207135992132,2.90986674561,-5.77247873019e-06,-8.93996196942e-05,-3.84381480966e-05,0.999999995248
16045000000,1250,16045000000,world,0.00529691821763,-0.00207527039067,2.9098312453,-5.32049280256e-06,-8.11039462947e-05,-3.78857249584e-05,0.999999995979
16055000000,1251,16055000000,world,0.0053028668921,-0.00207901629856,2.90979535703,-4.84125490355e-06,-7.24385968243e-05,-3.73344827239e-05,0.999999996668
16065000000,1252,16065000000,world,0.00530663343169,-0.00208259552009,2.90975875208,-4.3320580235e-06,-6.34264031072e-05,-3.67842259925e-05,0.999999997303
16075000000,1253,16075000000,world,0.00530832062507,-0.00208601603634,2.90972111257,-3.78220047007e-06,-5.40786770856e-05,-3.62346271593e-05,0.999999997874
16085000000,1254,16085000000,world,0.00530991771147,-0.00208938166548,2.90968214127,-3.18672239439e-06,-4.42685921723e-05,-3.56853675175e-05,0.999999998378
16095000000,1255,16095000000,world,0.00531081014082,-0.00209266535743,2.90964167306,-2.55047793985e-06,-3.41862964624e-05,-3.51366017785e-05,0.999999998795
16105000000,1256,16105000000,world,0.00530985769266,-0.00209581440652,2.90959964135,-1.90642793114e-06,-2.40798797137e-05,-3.45882908702e-05,0.99999999911
16115000000,1257,16115000000,world,0.00530720951457,-0.00209884065547,2.90955598454,-1.2639068951e-06,-1.40829929886e-05,-3.404010777e-05,0.999999999321
16125000000,1258,16125000000,world,0.00530498826068,-0.00210186572205,2.90951064473,-6.00504409937e-07,-3.81958290354e-06,-3.3491760808e-05,0.999999999432
16135000000,1259,16135000000,world,0.00530318597947,-0.00210489226208,2.90946359381,9.00838662482e-08,6.801975126e-06,-3.29431412342e-05,0.999999999434
16145000000,1260,16145000000,world,0.00529990898711,-0.00210781737481,2.90941483232,8.06421680457e-07,1.75896077867e-05,-3.23940013293e-05,0.99999999932
16155000000,1261,16155000000,world,0.00529529385005,-0.00211065136696,2.90936436199,1.55107855632e-06,2.85050431808e-05,-3.18440128686e-05,0.999999999086
16165000000,1262,16165000000,world,0.00531660292521,-0.00211514776089,2.90931220191,2.50717588747e-06,4.23051250887e-05,-3.12933847892e-05,0.999999998612
16175000000,1263,16175000000,world,0.00534948019852,-0.00212038546423,2.90925857312,3.54810441012e-06,5.72377810832e-05,-3.07424368879e-05,0.999999997883
16185000000,1264,16185000000,world,0.00537871584783,-0.00212538789329,2.90920380798,4.55403270824e-06,7.13689245489e-05,-3.01912523703e-05,0.999999996987
16195000000,1265,16195000000,world,0.00540421135835,-0.00213014962662,2.90914822651,5.52015205541e-06,8.47334025023e-05,-2.96398715058e-05,0.999999995956
16205000000,1266,16205000000,world,0.00543173615054,-0.0021351643479,2.90909210199,6.50235599478e-06,9.8080604402e-05,-2.90885931235e-05,0.999999994746
16215000000,1267,16215000000,world,0.00545769691569,-0.00214012309322,2.90903535338,7.468795596e-06,0.00011096581406,-2.85375515645e-05,0.999999993408
16225000000,1268,16225000000,world,0.00547966180109,-0.0021448144623,2.90897770211,8.40150473698e-06,0.000123015751861,-2.79867549919e-05,0.999999992007
16235000000,1269,16235000000,world,0.00549780794714,-0.00214924917153,2.90891887786,9.29648238701e-06,0.000134049127586,-2.74364583964e-05,0.999999990596
16245000000,1270,16245000000,world,0.00552418523206,-0.00215441670764,2.9088586902,1.02375303932e-05,0.000145176639919,-2.68873611894e-05,0.999999989048
16255000000,1271,16255000000,world,0.00554942153525,-0.00215953988928,2.90879736227,1.11179161847e-05,0.000155190872284,-2.63394933367e-05,0.999999987549
16265000000,1272,16265000000,world,0.00557065564076,-0.0021643780302,2.90873523888,1.19034024607e-05,0.000163747128678,-2.57927869555e-05,0.99999998619
16275000000,1273,16275000000,world,0.005588117941,-0.00216894525283,2.90867265026,1.25989406335e-05,0.00017096260329,-2.52473853414e-05,0.999999984988
16285000000,1274,16285000000,world,0.00559935027569,-0.00217342214521,2.90860980301,1.32240575243e-05,0.000176521935376,-2.47037383384e-05,0.999999984027
16295000000,1275,16295000000,world,0.00560726321811,-0.00217767424615,2.90854644348,1.37715028302e-05,0.000180665227473,-2.41615839713e-05,0.999999983293
16305000000,1276,16305000000,world,0.00561251444894,-0.00218170355584,2.90848221905,1.42394184905e-05,0.00018337576892,-2.36209575003e-05,0.999999982806
16315000000,1277,16315000000,world,0.00561544293902,-0.00218553210354,2.90841679106,1.46221691783e-05,0.000184637381208,-2.30823831229e-05,0.999999982581
16325000000,1278,16325000000,world,0.00558071877902,-0.00218628377863,2.90834994264,1.45878390549e-05,0.000180772420572,-2.25455973649e-05,0.9999999833
16335000000,1279,16335000000,world,0.00554646686972,-0.00218705615396,2.90828180289,1.44683731718e-05,0.000176031810439,-2.20106721655e-05,0.999999984159
16345000000,1280,16345000000,world,0.00551326198804,-0.00218789370738,2.90821260378,1.42853875114e-05,0.000170429682691,-2.14772960996e-05,0.999999985144
16355000000,1281,16355000000,world,0.00548163685157,-0.00218884331371,2.9081425679,1.40542622228e-05,0.000163982002258,-2.09453161248e-05,0.999999986237
16365000000,1282,16365000000,world,0.00545366513562,-0.00219015522565,2.90807188524,1.38134784497e-05,0.000156962378112,-2.04144987408e-05,0.999999987378
16375000000,1283,16375000000,world,0.00542756668816,-0.00219159311758,2.90800064324,1.35457011107e-05,0.00014927346866,-1.98843863129e-05,0.999999988569
16385000000,1284,16385000000,world,0.00540344675134,-0.00219316585391,2.90792890234,1.32613477308e-05,0.000141052078972,-1.93551108421e-05,0.999999989777
16395000000,1285,16395000000,world,0.00538101245809,-0.00219487615208,2.90785672081,1.29287158825e-05,0.000132397105293,-1.88266965938e-05,0.999999990975
16405000000,1286,16405000000,world,0.00535930173246,-0.00219671746458,2.90778421167,1.25432896399e-05,0.000123430015482,-1.82989278712e-05,0.999999992136
16415000000,1287,16415000000,world,0.00533965039144,-0.00219869815354,2.90771161808,1.21282067182e-05,0.000114226772399,-1.77714668667e-05,0.999999993245
16425000000,1288,16425000000,world,0.0053219927213,-0.00220081363142,2.90763919368,1.16924178629e-05,0.000104601224438,-1.72442145403e-05,0.999999994312
16435000000,1289,16435000000,world,0.00530622938767,-0.00220305760715,2.90756718213,1.12428026927e-05,9.4555168964e-05,-1.67169411005e-05,0.999999995327
16445000000,1290,16445000000,world,0.00528928414279,-0.002205329456,2.90749578296,1.07743275979e-05,8.38167674948e-05,-1.61893502334e-05,0.999999996298
16455000000,1291,16455000000,world,0.00527383434479,-0.00220770924476,2.90742499501,1.03092097316e-05,7.28028965655e-05,-1.56614190414e-05,0.999999997174
16465000000,1292,16465000000,world,0.00526010001332,-0.00221020043113,2.90735475455,9.81657450036e-06,6.16549645382e-05,-1.51333178707e-05,0.999999997937
16475000000,1293,16475000000,world,0.00524720055551,-0.00221276425558,2.90728500087,9.27667642085e-06,5.04831164649e-05,-1.46048363567e-05,0.999999998576
16485000000,1294,16485000000,world,0.00523287957508,-0.00221530427836,2.90721577502,8.69920575533e-06,3.90801445615e-05,-1.40757090633e-05,0.999999999099
16495000000,1295,16495000000,world,0.00522008529278,-0.0022179383233,2.9071473364,8.10905109761e-06,2.74575292866e-05,-1.35459627015e-05,0.999999999498
16505000000,1296,16505000000,world,0.00520869827185,-0.00222065852656,2.90707996369,7.51111820407e-06,1.55752526466e-05,-1.3015614192e-05,0.999999999766
16515000000,1297,16515000000,world,0.00518921921675,-0.00222301961423,2.9070139248,6.8642476158e-06,2.44908429767e-06,-1.24846140299e-05,0.999999999896
16525000000,1298,16525000000,world,0.00513493137593,-0.00222377301057,2.90694946754,6.05394371298e-06,-1.45835234917e-05,-1.19532814446e-05,0.999999999804
16535000000,1299,16535000000,world,0.00508451231062,-0.00222472286343,2.90688680962,5.25253420373e-06,-3.11450621721e-05,-1.1421647891e-05,0.999999999436
16545000000,1300,16545000000,world,0.00503815741254,-0.00222587800608,2.90682616082,4.43739546028e-06,-4.68917157369e-05,-1.08897557455e-05,0.999999998831
16555000000,1301,16555000000,world,0.00499457077168,-0.00222718560897,2.90676772164,3.62193105735e-06,-6.17284218934e-05,-1.03574248141e-05,0.999999998035
16565000000,1302,16565000000,world,0.00494770347362,-0.00222822748413,2.90671169701,2.78652895222e-06,-7.6578547391e-05,-9.82475204173e-06,0.999999997016
16575000000,1303,16575000000,world,0.00490530483573,-0.00222949610683,2.90665831168,1.99247373017e-06,-9.06534941459e-05,-9.29167763106e-06,0.999999995846
16585000000,1304,16585000000,world,0.00486723168353,-0.00223098504055,2.90660778952,1.24830892482e-06,-0.000103853515258,-8.75808945539e-06,0.999999994568
16595000000,1305,16595000000,world,0.00483060140773,-0.00223251002486,2.90656034262,5.45673224462e-07,-0.000116294333834,-8.22394251959e-06,0.999999993204
16605000000,1306,16605000000,world,0.0047832744884,-0.00223328318317,2.90651607258,-1.83866976182e-07,-0.00012905065165,-7.68974150244e-06,0.999999991643
16615000000,1307,16615000000,world,0.00474054417535,-0.00223430922105,2.90647479048,-8.6006191162e-07,-0.000140287866784,-7.15523288395e-06,0.999999990134
16625000000,1308,16625000000,world,0.00470220857657,-0.00223558079764,2.90643626824,-1.47767301477e-06,-0.000149808930588,-6.62027309219e-06,0.999999988756
16635000000,1309,16635000000,world,0.0046687362764,-0.00223711104422,2.90640028537,-2.00700666133e-06,-0.000157721354588,-6.08478234222e-06,0.999999987541
16645000000,1310,16645000000,world,0.00464189254842,-0.0022389576473,2.90636670487,-2.43192369821e-06,-0.000163882144464,-5.54890125661e-06,0.999999986553
16655000000,1311,16655000000,world,0.00461830934075,-0.00224099777805,2.90633561325,-2.75636008614e-06,-0.000168567080044,-5.01271445198e-06,0.999999985776
16665000000,1312,16665000000,world,0.00459760732274,-0.0022432126604,2.90630713444,-2.97847635745e-06,-0.000171726181891,-4.47625992235e-06,0.999999985241
16675000000,1313,16675000000,world,0.00457941692584,-0.00224558340153,2.90628138738,-3.09436907005e-06,-0.000173331079466,-3.94003875713e-06,0.999999984966
16685000000,1314,16685000000,world,0.0046030015162,-0.00225031220344,2.90625850824,-2.90468827059e-06,-0.000169264261183,-3.40396791449e-06,0.999999985665
16695000000,1315,16695000000,world,0.00462600875354,-0.00225502707763,2.90623861057,-2.67579242399e-06,-0.000164200860259,-2.8686728824e-06,0.999999986511
16705000000,1316,16705000000,world,0.00464781190275,-0.00225969308347,2.9062218266,-2.39935987843e-06,-0.000158242695486,-2.33416940835e-06,0.999999987474
16715000000,1317,16715000000,world,0.00466748468729,-0.00226425508185,2.9062082829,-2.07423059942e-06,-0.000151478150061,-1.80069502086e-06,0.999999988523
16725000000,1318,16725000000,world,0.00468339339726,-0.00226861207663,2.90619805768,-1.70729428969e-06,-0.000144118318211,-1.2683855439e-06,0.999999989613
16735000000,1319,16735000000,world,0.00469721640597,-0.00227287146759,2.90619113152,-1.2851331136e-06,-0.000136055811313,-7.37186170851e-07,0.999999990743
16745000000,1320,16745000000,world,0.00470884484087,-0.00227702691415,2.90618747237,-8.10935633959e-07,-0.000127435878839,-2.07393586449e-07,0.99999999188
16755000000,1321,16755000000,world,0.00471934246813,-0.00228113075707,2.90618704747,-3.0391030996e-07,-0.000118276506002,3.20511394373e-07,0.999999993005
16765000000,1322,16765000000,world,0.00472827792117,-0.00228516174274,2.90618978805,2.14807461842e-07,-0.00010880990165,8.46439642773e-07,0.99999999408
16775000000,1323,16775000000,world,0.00473494339016,-0.00228908482456,2.90619560012,7.42062491388e-07,-9.91292012542e-05,1.37044676399e-06,0.999999995085
16785000000,1324,16785000000,world,0.00473942139506,-0.00229290395051,2.90620439301,1.28960298774e-06,-8.90804342451e-05,1.89239183253e-06,0.99999999603
16795000000,1325,16795000000,world,0.00474460904354,-0.00229677096808,2.90621607151,1.877921464e-06,-7.83454863663e-05,2.41223662886e-06,0.999999996926
16805000000,1326,16805000000,world,0.00474769674175,-0.00230054547096,2.90623049602,2.50195210903e-06,-6.7254352485e-05,2.93027322695e-06,0.999999997731
16815000000,1327,16815000000,world,0.00474881765755,-0.00230422639506,2.90624751765,3.15615589512e-06,-5.59150479727e-05,3.44673330665e-06,0.999999998426
16825000000,1328,16825000000,world,0.00474812273227,-0.00230782180125,2.90626699337,3.82916428904e-06,-4.44353658779e-05,3.9614445605e-06,0.999999998998
16835000000,1329,16835000000,world,0.00478260846549,-0.00231335612935,2.90628888835,4.71243196747e-06,-2.91360806306e-05,4.47497688914e-06,0.999999999554
16845000000,1330,16845000000,world,0.00481737754132,-0.00231891943197,2.90631370157,5.59016642486e-06,-1.39392355371e-05,4.98734982088e-06,0.999999999875
16855000000,1331,16855000000,world,0.0048480494669,-0.00232427166691,2.90634209679,6.4452727059e-06,9.20973364098e-07,5.49876402816e-06,0.999999999964
16865000000,1332,16865000000,world,0.00487458686128,-0.00232941049129,2.90637471223,7.27807098703e-06,1.54358164122e-05,6.00937711395e-06,0.999999999836
16875000000,1333,16875000000,world,0.00490514678898,-0.00233493690559,2.90641210829,8.16098744974e-06,3.03800761543e-05,6.51956387143e-06,0.999999999484
16885000000,1334,16885000000,world,0.00493328081585,-0.00234037113538,2.9064544332,9.0325139725e-06,4.48644278413e-05,7.02955678316e-06,0.999999998928
16895000000,1335,16895000000,world,0.00495704181051,-0.00234556495479,2.90650165735,9.87009810561e-06,5.84512141245e-05,7.53913003314e-06,0.999999998215
16905000000,1336,16905000000,world,0.00497663605911,-0.00235052906547,2.90655375162,1.06457617259e-05,7.09602032201e-05,8.04831308062e-06,0.999999997393
16915000000,1337,16915000000,world,0.00500735863683,-0.00235610173941,2.90661064253,1.14335375092e-05,8.3772326421e-05,8.55760170777e-06,0.999999996389
16925000000,1338,16925000000,world,0.00503615548147,-0.00236156701529,2.90667203408,1.21606856323e-05,9.56793997352e-05,9.06710651081e-06,0.999999995308
16935000000,1339,16935000000,world,0.0050604751075,-0.00236678515948,2.90673756469,1.28137672089e-05,0.000106419956593,9.57688356495e-06,0.999999994209
16945000000,1340,16945000000,world,0.00508056420795,-0.00237176992097,2.90680688656,1.340171673e-05,0.000115935869236,1.00871580818e-05,0.999999993139
16955000000,1341,16955000000,world,0.00509585640595,-0.00237673196092,2.90687972432,1.39420131536e-05,0.000124036955586,1.05979881596e-05,0.999999992154
16965000000,1342,16965000000,world,0.00510759619078,-0.00238148461682,2.90695604773,1.44156713696e-05,0.000130712052708,1.11091409407e-05,0.999999991292
16975000000,1343,16975000000,world,0.00511613700414,-0.00238604701728,2.90703588523,1.47933069239e-05,0.000135909752166,1.16201627861e-05,0.999999990587
16985000000,1344,16985000000,world,0.00512183552845,-0.00239043900379,2.90711926401,1.50620525441e-05,0.000139617851826,1.21309717823e-05,0.999999990066
16995000000,1345,16995000000,world,0.00508403437565,-0.00239214486133,2.90720621477,1.49675134507e-05,0.000137790393168,1.26411858678e-05,0.999999990315
17005000000,1346,17005000000,world,0.00504656729199,-0.0023938731412,2.90729670427,1.48074000646e-05,0.000134922135859,1.31509820285e-05,0.999999990702
17015000000,1347,17015000000,world,0.00501008225652,-0.0023956629357,2.90739070965,1.45979153348e-05,0.000131157116291,1.36602338225e-05,0.999999991199
17025000000,1348,17025000000,world,0.0049760103902,-0.00239760020965,2.90748820828,1.43575486874e-05,0.000126727969279,1.41689664845e-05,0.999999991767
17035000000,1349,17035000000,world,0.00494585197642,-0.00239981163611,2.90758915399,1.41135950153e-05,0.00012190406742,1.46768797977e-05,0.999999992362
17045000000,1350,17045000000,world,0.0049175635451,-0.00240213780459,2.90769345634,1.38270913346e-05,0.000116574460942,1.5183466149e-05,0.999999992994
17055000000,1351,17055000000,world,0.00489126875523,-0.00240458719229,2.90780102243,1.34824676587e-05,0.00011090881579,1.56886273807e-05,0.999999993636
17065000000,1352,17065000000,world,0.00486660208499,-0.00240714971852,2.90791176616,1.30946941209e-05,0.000104975676839,1.61924131664e-05,0.999999994273
17075000000,1353,17075000000,world,0.00484374098617,-0.00240982915326,2.90802565053,1.26805094363e-05,9.86424301134e-05,1.66946643362e-05,0.999999994915
17085000000,1354,17085000000,world,0.00482293677147,-0.00241263503725,2.9081426747,1.22487495838e-05,9.19389761434e-05,1.7195254308e-05,0.999999995551
17095000000,1355,17095000000,world,0.00480411517849,-0.00241556331699,2.90826283879,1.18075107193e-05,8.48999648575e-05,1.76942128206e-05,0.99999999617
17105000000,1356,17105000000,world,0.00478593095491,-0.00241854611538,2.90838613791,1.13568232609e-05,7.7475276379e-05,1.81914309409e-05,0.999999996769
17115000000,1357,17115000000,world,0.00476877160405,-0.00242160264966,2.90851248735,1.08857607253e-05,6.98018888109e-05,1.86865908789e-05,0.99999999733
17125000000,1358,17125000000,world,0.0047533693983,-0.0024247697178,2.90864174504,1.03706171809e-05,6.20846674291e-05,1.91798785487e-05,0.999999997835
17135000000,1359,17135000000,world,0.00473959077859,-0.00242803980734,2.90877377324,9.81836712942e-06,5.44475642224e-05,1.96717029461e-05,0.999999998276
17145000000,1360,17145000000,world,0.00472545804853,-0.00243129231372,2.90890844128,9.23726354353e-06,4.64853752832e-05,2.01622836807e-05,0.999999998674
17155000000,1361,17155000000,world,0.00471201197667,-0.00243459083207,2.90904563756,8.64114158659e-06,3.82381525911e-05,2.0651781687e-05,0.999999999018
17165000000,1362,17165000000,world,0.00469994053646,-0.00243797762324,2.90918526332,8.04239779658e-06,2.97951555644e-05,2.11405148157e-05,0.9999999993
17175000000,1363,17175000000,world,0.0046891144911,-0.0024414453525,2.90932722387,7.44353227744e-06,2.12139963745e-05,2.16287935656e-05,0.999999999513
17185000000,1364,17185000000,world,0.00467702308067,-0.00244483795668,2.90947143196,6.8272329383e-06,1.23212618158e-05,2.21163843509e-05,0.999999999656
17195000000,1365,17195000000,world,0.00466506213861,-0.00244824427971,2.90961783026,6.16832956065e-06,3.37210720936e-06,2.26033173187e-05,0.99999999972
17205000000,1366,17205000000,world,0.00465417623634,-0.0024517242865,2.9097663757,5.47099035831e-06,-5.36186182258e-06,2.30899290709e-05,0.999999999704
17215000000,1367,17215000000,world,0.00464426390827,-0.00245527123432,2.90991702701,4.75932107445e-06,-1.40484998677e-05,2.35764956506e-05,0.999999999612
17225000000,1368,17225000000,world,0.00463271419282,-0.00245870544824,2.91006973197,4.02304413276e-06,-2.31173891714e-05,2.40630604426e-05,0.999999999435
17235000000,1369,17235000000,world,0.00462102802561,-0.00246213141784,2.91022431006,3.28073879554e-06,-3.24029669954e-05,2.45498672248e-05,0.999999999168
17245000000,1370,17245000000,world,0.00461023132526,-0.00246562092549,2.91038051204,2.54261791961e-06,-4.17439806494e-05,2.50372469792e-05,0.999999998812
17255000000,1371,17255000000,world,0.00460023900629,-0.00246916886879,2.91053809761,1.81532204067e-06,-5.10463457124e-05,2.55250712595e-05,0.99999999837
17265000000,1372,17265000000,world,0.00458838666715,-0.00247259563735,2.9106968235,1.04429394034e-06,-6.05024574863e-05,2.60131470679e-05,0.999999997831
17275000000,1373,17275000000,world,0.00457595471963,-0.0024759675868,2.91085632956,2.24655006752e-07,-6.980064128e-05,2.65016188251e-05,0.999999997213
17285000000,1374,17285000000,world,0.00456430840512,-0.00247940049131,2.91101619622,-6.06644335254e-07,-7.88448065518e-05,2.69906538613e-05,0.999999996527
17295000000,1375,17295000000,world,0.0045529561985,-0.0024828565273,2.91117601939,-1.4397517115e-06,-8.79123933338e-05,2.74801560668e-05,0.999999995757
17305000000,1376,17305000000,world,0.00453853642382,-0.00248607590229,2.91133542196,-2.29474854382e-06,-9.73613924937e-05,2.79700897425e-05,0.999999994867
17315000000,1377,17315000000,world,0.00452493321827,-0.00248936058587,2.91149407742,-3.1351090924e-06,-0.000106745568149,2.8460654539e-05,0.999999993893
17325000000,1378,17325000000,world,0.00451209297384,-0.00249270715812,2.91165167781,-3.95340385471e-06,-0.000115962483325,2.89517270202e-05,0.999999992849
17335000000,1379,17335000000,world,0.0044976920395,-0.00249592273689,2.9118079198,-4.79615869639e-06,-0.00012516984786,2.94428750161e-05,0.999999991721
17345000000,1380,17345000000,world,0.00448309900746,-0.00249912389662,2.91196244065,-5.67281129997e-06,-0.00013407627125,2.99341148806e-05,0.999999990548
17355000000,1381,17355000000,world,0.00446924902187,-0.00250238967722,2.91211484987,-6.55732338953e-06,-0.000142517570155,3.04256435445e-05,0.99999998936
17365000000,1382,17365000000,world,0.00445607870094,-0.00250571452801,2.91226477166,-7.42858723238e-06,-0.000150741982366,3.09174335519e-05,0.999999988133
17375000000,1383,17375000000,world,0.00444103969021,-0.00250887516441,2.91241183854,-8.30304811076e-06,-0.000159052897381,3.14094196262e-05,0.999999986823
17385000000,1384,17385000000,world,0.00442505918268,-0.0025119539722,2.91255561254,-9.16424335132e-06,-0.00016732545534,3.19017424906e-05,0.99999998545
17395000000,1385,17395000000,world,0.00440977497336,-0.00251509588109,2.91269560786,-9.99385170045e-06,-0.000175298344254,3.23944618135e-05,0.999999984061
17405000000,1386,17405000000,world,0.00439512178158,-0.00251829628037,2.91283135578,-1.08033366667e-05,-0.000182896293333,3.28871558915e-05,0.999999982675
17415000000,1387,17415000000,world,0.00437910743033,-0.00252138608122,2.9129624093,-1.16399191197e-05,-0.000190235056681,3.33797152199e-05,0.99999998128
17425000000,1388,17425000000,world,0.00436139362917,-0.00252429215764,2.91308852451,-1.24907392299e-05,-0.000197227047946,3.38724900154e-05,0.999999979899
17435000000,1389,17435000000,world,0.00434433828307,-0.00252726239636,2.91320972231,-1.32974816162e-05,-0.000203794764486,3.4365633437e-05,0.999999978555
17445000000,1390,17445000000,world,0.00432788297607,-0.00253029188182,2.91332604034,-1.40524117579e-05,-0.00021001227688,3.48590664425e-05,0.999999977241
17455000000,1391,17455000000,world,0.00431072922879,-0.00253324960865,2.91343751654,-1.47611956994e-05,-0.000215995680433,3.53528518278e-05,0.999999975939
17465000000,1392,17465000000,world,0.00429130747342,-0.00253597713847,2.91354439268,-1.54403699523e-05,-0.00022185401152,3.58470955114e-05,0.999999974629
17475000000,1393,17475000000,world,0.0042725034069,-0.00253876985514,2.91364724933,-1.6057384453e-05,-0.000227205273754,3.63414913783e-05,0.9999999734
17485000000,1394,17485000000,world,0.00425425895344,-0.00254162396765,2.91374667567,-1.6646006476e-05,-0.000231995786322,3.68358088269e-05,0.999999972272
17495000000,1395,17495000000,world,0.00423565807621,-0.00254443674219,2.91384323696,-1.72236860903e-05,-0.000236230069187,3.73301442835e-05,0.999999971253
17505000000,1396,17505000000,world,0.00421504957265,-0.00254701970566,2.91393733866,-1.77844827647e-05,-0.000240129155937,3.7824600531e-05,0.999999970295
17515000000,1397,17515000000,world,0.00419498371668,-0.00254966697326,2.91402906678,-1.8284699478e-05,-0.000243511812557,3.83191559955e-05,0.99999996945
17525000000,1398,17525000000,world,0.00417540149284,-0.00255237337641,2.91411846273,-1.87167955162e-05,-0.000246357501803,3.88138590605e-05,0.999999968726
17535000000,1399,17535000000,world,0.00415595415343,-0.00255510129277,2.91420556616,-1.90815171932e-05,-0.00024866842934,3.93088698652e-05,0.999999968127
17545000000,1400,17545000000,world,0.00413441753307,-0.00255760291826,2.91429050539,-1.93984478171e-05,-0.000250637454561,3.98039386051e-05,0.99999996761
17555000000,1401,17555000000,world,0.00411331162454,-0.00256016221551,2.91437367785,-1.96662891768e-05,-0.000251971665235,4.02987797355e-05,0.99999996725
17565000000,1402,17565000000,world,0.00409258036643,-0.00256277436257,2.91445551295,-1.99001357201e-05,-0.000252648778442,4.07934436371e-05,0.999999967054
17575000000,1403,17575000000,world,0.00407115878472,-0.00256530141493,2.91453640666,-2.00985441229e-05,-0.000252759938762,4.12880835257e-05,0.999999967002
17585000000,1404,17585000000,world,0.00404906539506,-0.00256774709567,2.91461635735,-2.02443266561e-05,-0.000252334524401,4.17826593536e-05,0.999999967086
17595000000,1405,17595000000,world,0.00402727648532,-0.00257024099836,2.91469498508,-2.03165996289e-05,-0.000251244132397,4.22772073795e-05,0.999999967338
17605000000,1406,17605000000,world,0.00400573666765,-0.0025727773166,2.91477190871,-2.03074289892e-05,-0.000249467578611,4.27718782614e-05,0.999999967762
17615000000,1407,17615000000,world,0.0039837216044,-0.00257524984814,2.91484676396,-2.02260318633e-05,-0.000247078049405,4.32666121702e-05,0.999999968336
