%time,field.header.seq,field.header.stamp,field.header.frame_id,field.point.x,field.point.y,field.point.z
14075000000,0,14075000000,world,0.00507018431037,-0.00169073593659,2.90769895865
14085000000,1,14085000000,world,0.00507996562547,-0.001692357175,2.90742597883
14095000000,2,14095000000,world,0.00509047821792,-0.0016938870043,2.90715536943
14105000000,3,14105000000,world,0.00510168446345,-0.00169532852855,2.90688775471
14115000000,4,14115000000,world,0.00511249687543,-0.00169674007765,2.90662373491
14125000000,5,14125000000,world,0.00512244511506,-0.00169814658827,2.9063638882
14135000000,6,14135000000,world,0.00513310181994,-0.00169946511518,2.90610877181
14145000000,7,14145000000,world,0.00514442707658,-0.0017006988693,2.90585892182
14155000000,8,14155000000,world,0.00512634988087,-0.00170543060284,2.90561482864
14165000000,9,14165000000,world,0.0050981002539,-0.00171136586647,2.90537664148
14175000000,10,14175000000,world,0.00507320422369,-0.00171688990148,2.90514432565
14185000000,11,14185000000,world,0.00505183708983,-0.00172197911745,2.90491784818
14195000000,12,14195000000,world,0.00502954317184,-0.00172778708513,2.90469717998
14205000000,13,14205000000,world,0.0050044629237,-0.00173446941812,2.90448239615
14215000000,14,14215000000,world,0.00498351170784,-0.00174055742985,2.90427370292
14225000000,15,14225000000,world,0.00495710428023,-0.0017476604665,2.90407130772
14235000000,16,14235000000,world,0.00492124992971,-0.00175644232419,2.90387547263
14245000000,17,14245000000,world,0.00489050823066,-0.00176442293948,2.90368653467
14255000000,18,14255000000,world,0.00486325748721,-0.00177346539608,2.90350475087
14265000000,19,14265000000,world,0.00484050372942,-0.00178207916848,2.90332984305
14275000000,20,14275000000,world,0.00482236089018,-0.00178980485768,2.90316131202
14285000000,21,14285000000,world,0.00480545884505,-0.00179821106836,2.90299869233
14295000000,22,14295000000,world,0.00479266564311,-0.00180579857922,2.90284160373
14305000000,23,14305000000,world,0.00478362727648,-0.00181252841485,2.90268969561
14315000000,24,14315000000,world,0.00478534954113,-0.00181886226762,2.90254268968
14325000000,25,14325000000,world,0.00479043510826,-0.00182447564902,2.9024006165
14335000000,26,14335000000,world,0.00479760309205,-0.00182938484504,2.90226360782
14345000000,27,14345000000,world,0.00481841346183,-0.00183059433922,2.90213179617
14355000000,28,14355000000,world,0.0048670351126,-0.0018244534547,2.90200536167
14365000000,29,14365000000,world,0.00491418605861,-0.00181844645104,2.90188454655
14375000000,30,14375000000,world,0.00495932030953,-0.00181270811783,2.90176960435
14385000000,31,14385000000,world,0.0050006112318,-0.00180811254289,2.9016607155
14395000000,32,14395000000,world,0.00503917230789,-0.00180399379283,2.90155771351
14405000000,33,14405000000,world,0.0050750385051,-0.00180030312855,2.90146032539
14415000000,34,14415000000,world,0.00510826231467,-0.00179707230252,2.90136828878
14425000000,35,14425000000,world,0.00514052474948,-0.00179445819295,2.90128141386
14435000000,36,14435000000,world,0.00517004512671,-0.00179229960348,2.90119984919
14445000000,37,14445000000,world,0.0051969323812,-0.00179057432227,2.90112384865
14455000000,38,14455000000,world,0.0052222444867,-0.00178925610342,2.90105365668
14465000000,39,14465000000,world,0.00524726469347,-0.00178831337093,2.90098954086
14475000000,40,14475000000,world,0.00526995441861,-0.00178773312395,2.90093181308
14485000000,41,14485000000,world,0.00529310263089,-0.00178742839997,2.90088077322
14495000000,42,14495000000,world,0.00531522056013,-0.00178740744073,2.90083664938
14505000000,43,14505000000,world,0.00533532204633,-0.0017876679694,2.90079962629
14515000000,44,14515000000,world,0.00535780197039,-0.00178805125663,2.90076988125
14525000000,45,14525000000,world,0.00541522846579,-0.0017875248052,2.90074757559
14535000000,46,14535000000,world,0.00546865589742,-0.00178727508267,2.90073283433
14545000000,47,14545000000,world,0.0055179431474,-0.00178728716363,2.90072577586
14555000000,48,14555000000,world,0.0055646487293,-0.00178743879944,2.90072651172
14565000000,49,14565000000,world,0.00561004189997,-0.00178758371906,2.90073498697
14575000000,50,14575000000,world,0.00565128762801,-0.00178795796086,2.90075087681
14585000000,51,14585000000,world,0.00568858848266,-0.0017885448792,2.90077384337
14595000000,52,14595000000,world,0.00573212716022,-0.00178904145327,2.90080355782
14605000000,53,14605000000,world,0.00577811788623,-0.00178954556389,2.90083967877
14615000000,54,14615000000,world,0.00581992812824,-0.00179023800593,2.90088185824
14625000000,55,14625000000,world,0.00585778149959,-0.00179110417317,2.90092976009
14635000000,56,14635000000,world,0.00586093521685,-0.0017932091553,2.90098309071
14645000000,57,14645000000,world,0.00584960525427,-0.0017958450381,2.90104175572
14655000000,58,14655000000,world,0.00583813924595,-0.00179850904867,2.90110578425
14665000000,59,14665000000,world,0.00582710482244,-0.00180117812819,2.90117520952
14675000000,60,14675000000,world,0.00582100762427,-0.00180366096253,2.90125000735
14685000000,61,14685000000,world,0.00581587317993,-0.00180611866052,2.90132985717
14695000000,62,14695000000,world,0.005811906818,-0.0018085523213,2.90141435085
14705000000,63,14705000000,world,0.00580924713736,-0.0018109562874,2.90150309639
14715000000,64,14715000000,world,0.0058081917881,-0.00181327463636,2.90159573147
14725000000,65,14725000000,world,0.00580863866024,-0.00181554025477,2.90169205739
14735000000,66,14735000000,world,0.00581048737002,-0.00181777663685,2.90179197016
14745000000,67,14745000000,world,0.0058137082353,-0.00181998440565,2.9018953709
14755000000,68,14755000000,world,0.0058174661959,-0.00182210675862,2.90200218025
14765000000,69,14765000000,world,0.00582232878257,-0.00182419343338,2.90211243687
14775000000,70,14775000000,world,0.00582842155027,-0.00182626248842,2.90222622889
14785000000,71,14785000000,world,0.00583548579331,-0.00182831292384,2.90234364121
14795000000,72,14795000000,world,0.00584210267993,-0.0018302793084,2.90246466455
14805000000,73,14805000000,world,0.00584977326695,-0.00183224239226,2.90258901888
14815000000,74,14815000000,world,0.00585841445524,-0.00183420463701,2.90271638691
14825000000,75,14825000000,world,0.00586793981243,-0.00183616833365,2.90284646381
14835000000,76,14835000000,world,0.00587602106285,-0.00183804122728,2.90297896859
14845000000,77,14845000000,world,0.00588469508597,-0.00183991446952,2.90311367783
14855000000,78,14855000000,world,0.00589414686091,-0.00184180067188,2.90325038854
14865000000,79,14865000000,world,0.00590345715298,-0.00184366617707,2.90338890645
14875000000,80,14875000000,world,0.00591152014612,-0.00184546861943,2.90352910144
14885000000,81,14885000000,world,0.00592030152996,-0.00184729468897,2.90367094386
14895000000,82,14895000000,world,0.00592974774354,-0.00184914474306,2.90381441428
14905000000,83,14905000000,world,0.0059372451846,-0.00185091780645,2.90395950704
14915000000,84,14915000000,world,0.00594480432729,-0.00185269546943,2.90410631477
14925000000,85,14925000000,world,0.00595303358401,-0.00185450339519,2.90425496978
14935000000,86,14935000000,world,0.0059608706913,-0.00185630016335,2.90440559798
14945000000,87,14945000000,world,0.00596702739362,-0.00185803496466,2.90455821317
14955000000,88,14955000000,world,0.00597386934388,-0.00185980567276,2.90471264875
14965000000,89,14965000000,world,0.00598135320246,-0.00186161063981,2.90486872761
14975000000,90,14975000000,world,0.00598751596481,-0.00186338290508,2.90502627732
14985000000,91,14985000000,world,0.00599245003558,-0.0018651115003,2.90518505465
14995000000,92,14995000000,world,0.00599806818372,-0.00186687630055,2.9053447261
15005000000,93,15005000000,world,0.00600431696615,-0.00186867555169,2.90550496455
15015000000,94,15015000000,world,0.00600976956653,-0.00187045551525,2.90566545592
15025000000,95,15025000000,world,0.00601269661906,-0.00187215001918,2.90582594213
15035000000,96,15035000000,world,0.00601631999499,-0.00187388149786,2.90598625048
15045000000,97,15045000000,world,0.00602059242018,-0.00187564771641,2.90614622121
15055000000,98,15055000000,world,0.0060229646255,-0.00187736135476,2.90630570111
15065000000,99,15065000000,world,0.00602401125209,-0.0018790413931,2.90646456127
15075000000,100,15075000000,world,0.00602577632818,-0.0018807567497,2.90662269169
15085000000,101,15085000000,world,0.00602820098955,-0.00188250582814,2.90677998638
15095000000,102,15095000000,world,0.00602820373368,-0.00188418122884,2.90693633127
15105000000,103,15105000000,world,0.00602763437808,-0.00188584633199,2.90709150463
15115000000,104,15115000000,world,0.00602776854,-0.00188754482391,2.90724522691
15125000000,105,15125000000,world,0.00602809309838,-0.00188926086451,2.90739722812
15135000000,106,15135000000,world,0.00602510548553,-0.00189089131154,2.90754723576
15145000000,107,15145000000,world,0.00602284995685,-0.0018925533616,2.90769495787
15155000000,108,15155000000,world,0.00602048240931,-0.00189422236589,2.90784010558
15165000000,109,15165000000,world,0.00601569770085,-0.00189583069946,2.9079824415
15175000000,110,15175000000,world,0.0060116610757,-0.0018974700954,2.90812183149
15185000000,111,15185000000,world,0.00600831157277,-0.00189913778527,2.90825815692
15195000000,112,15195000000,world,0.00600459275342,-0.00190081263645,2.90839130517
15205000000,113,15205000000,world,0.00599968018785,-0.00190246943167,2.90852133061
15215000000,114,15215000000,world,0.00599536159533,-0.00190414879806,2.90864856064
15225000000,115,15225000000,world,0.00599155639052,-0.0019058484005,2.90877333453
15235000000,116,15235000000,world,0.00598671107685,-0.00190753674387,2.90889596903
15245000000,117,15245000000,world,0.00598085616348,-0.00190921339275,2.90901657182
15255000000,118,15255000000,world,0.00597542872864,-0.00191090574962,2.90913505162
15265000000,119,15265000000,world,0.0059703551328,-0.00191261142303,2.90925131173
15275000000,120,15275000000,world,0.00596366954364,-0.00191431695152,2.90936523749
15285000000,121,15285000000,world,0.00595683067356,-0.00191602907917,2.90947656756
15295000000,122,15295000000,world,0.00595026233221,-0.00191774875107,2.90958498257
15305000000,123,15305000000,world,0.0059438990603,-0.00191947491342,2.90969017518
15315000000,124,15315000000,world,0.00593632275916,-0.00192122699015,2.90979185767
15325000000,125,15325000000,world,0.00592889681544,-0.00192298094793,2.90988978923
15335000000,126,15335000000,world,0.00592156525895,-0.00192473517233,2.90998374584
15345000000,127,15345000000,world,0.00591419425822,-0.00192650530454,2.91007351232
15355000000,128,15355000000,world,0.00590651057863,-0.00192833867594,2.91015889169
15365000000,129,15365000000,world,0.00589877894023,-0.00193016406977,2.910239717
15375000000,130,15375000000,world,0.00589095296996,-0.00193198118918,2.91031583054
15385000000,131,15385000000,world,0.00588335502088,-0.00193385565017,2.91038709667
15395000000,132,15395000000,world,0.00587579526104,-0.00193576025299,2.91045362456
15405000000,133,15405000000,world,0.00586798182419,-0.00193764909564,2.91051570146
15415000000,134,15415000000,world,0.00585988066542,-0.00193952200135,2.9105736079
15425000000,135,15425000000,world,0.00585339032058,-0.00194156333809,2.91062756569
15435000000,136,15435000000,world,0.00584645130168,-0.00194357900601,2.91067759005
15445000000,137,15445000000,world,0.0058390362829,-0.00194556942157,2.91072364891
15455000000,138,15455000000,world,0.00583223258157,-0.0019476177614,2.91076571465
15465000000,139,15465000000,world,0.00582647948046,-0.00194975868348,2.91080387192
15475000000,140,15475000000,world,0.00582005937289,-0.00195186633673,2.91083834497
15485000000,141,15485000000,world,0.00581296558949,-0.00195394190555,2.91086935917
15495000000,142,15495000000,world,0.00583374289478,-0.00195754151474,2.91089714214
15505000000,143,15505000000,world,0.00587072134837,-0.00196226065735,2.91092193735
15515000000,144,15515000000,world,0.00590399273537,-0.00196677338649,2.91094401941
15525000000,145,15525000000,world,0.00593620861026,-0.00197117969539,2.91096366069
15535000000,146,15535000000,world,0.00597546356181,-0.00197579445097,2.91098096378
15545000000,147,15545000000,world,0.00600981957221,-0.00198015361261,2.91099567018
15555000000,148,15555000000,world,0.00603928061624,-0.00198426041236,2.91100748748
15565000000,149,15565000000,world,0.00606396968039,-0.00198812367464,2.91101613482
15575000000,150,15575000000,world,0.00610571575454,-0.00199292552528,2.91102137812
15585000000,151,15585000000,world,0.00614714337416,-0.00199772854258,2.91102327058
15595000000,152,15595000000,world,0.00618279270969,-0.00200223959902,2.91102198737
15605000000,153,15605000000,world,0.00621532469099,-0.00200642112323,2.91101769817
15615000000,154,15615000000,world,0.00624482023244,-0.00201029401389,2.91101058945
15625000000,155,15625000000,world,0.0062690741176,-0.00201393044771,2.91100085895
15635000000,156,15635000000,world,0.00628845615879,-0.0020173528039,2.91098869665
15645000000,157,15645000000,world,0.00630455434192,-0.00202056241846,2.91097428415
15655000000,158,15655000000,world,0.00631731462337,-0.00202359185448,2.91095778835
15665000000,159,15665000000,world,0.0063263480825,-0.00202648014274,2.91093936361
15675000000,160,15675000000,world,0.00633207381367,-0.00202925006816,2.91091915773
15685000000,161,15685000000,world,0.00632087447224,-0.00203080471456,2.91089734109
15695000000,162,15695000000,world,0.00630649751867,-0.00203222711149,2.91087419193
15705000000,163,15705000000,world,0.00629104467141,-0.00203367248566,2.9108500234
15715000000,164,15715000000,world,0.00626736368652,-0.00203490743886,2.91082513755
15725000000,165,15725000000,world,0.00621431433454,-0.00203522483734,2.9107996708
15735000000,166,15735000000,world,0.00616356435063,-0.00203569447523,2.91077346348
15745000000,167,15745000000,world,0.00611569019309,-0.00203628142574,2.91074636066
15755000000,168,15755000000,world,0.00607100811987,-0.00203700003046,2.91071845193
15765000000,169,15765000000,world,0.00602962773201,-0.00203790931434,2.91069006031
15775000000,170,15775000000,world,0.00599036044913,-0.00203890828103,2.91066149461
15785000000,171,15785000000,world,0.00595370341513,-0.00204003397361,2.91063277758
15795000000,172,15795000000,world,0.00592044533182,-0.00204134944022,2.91060366026
15805000000,173,15805000000,world,0.00588105929849,-0.00204206846509,2.91057389396
15815000000,174,15815000000,world,0.00580871793956,-0.0020399747516,2.91054337387
15825000000,175,15825000000,world,0.00574210403816,-0.00203827771357,2.91051228882
15835000000,176,15835000000,world,0.00568132137663,-0.00203699075094,2.91048086617
15845000000,177,15845000000,world,0.00562284980977,-0.00203590933966,2.91044932362
15855000000,178,15855000000,world,0.00556510960475,-0.00203494212937,2.91041786609
15865000000,179,15865000000,world,0.00551322436174,-0.00203439407865,2.91038668723
15875000000,180,15875000000,world,0.0054669049211,-0.00203424679581,2.91035597283
15885000000,181,15885000000,world,0.005418714222,-0.00203375745316,2.91032589855
15895000000,182,15895000000,world,0.00536539235816,-0.00203235815415,2.9102965208
15905000000,183,15905000000,world,0.00531755572044,-0.00203140778643,2.91026770789
15915000000,184,15915000000,world,0.0052748774218,-0.00203088819286,2.91023931342
15925000000,185,15925000000,world,0.0052397439641,-0.00203104437578,2.91021119128
15935000000,186,15935000000,world,0.00520970100344,-0.00203164969079,2.91018313255
15945000000,187,15945000000,world,0.00518333572737,-0.00203257727503,2.91015489766
15955000000,188,15955000000,world,0.00516019456188,-0.00203379287389,2.91012625611
15965000000,189,15965000000,world,0.0051780369092,-0.00203863416676,2.91009700862
15975000000,190,15975000000,world,0.0052000898199,-0.00204385759538,2.910066981
15985000000,191,15985000000,world,0.00522126154372,-0.00204901540713,2.91003603265
15995000000,192,15995000000,world,0.0052409939052,-0.00205405972127,2.91000402978
16005000000,193,16005000000,world,0.00525634097944,-0.00205865182267,2.90997089039
16015000000,194,16015000000,world,0.00526943612482,-0.00206305586013,2.9099367939
16025000000,195,16025000000,world,0.00528041653261,-0.00206729386377,2.90990199682
16035000000,196,16035000000,world,0.00528920973577,-0.00207135992132,2.90986674561
16045000000,197,16045000000,world,0.00529691821763,-0.00207527039067,2.9098312453
16055000000,198,16055000000,world,0.0053028668921,-0.00207901629856,2.90979535703
16065000000,199,16065000000,world,0.00530663343169,-0.00208259552009,2.90975875208
16075000000,200,16075000000,world,0.00530832062507,-0.00208601603634,2.90972111257
16085000000,201,16085000000,world,0.00530991771147,-0.00208938166548,2.90968214127
16095000000,202,16095000000,world,0.00531081014082,-0.00209266535743,2.90964167306
16105000000,203,16105000000,world,0.00530985769266,-0.00209581440652,2.90959964135
16115000000,204,16115000000,world,0.00530720951457,-0.00209884065547,2.90955598454
16125000000,205,16125000000,world,0.00530498826068,-0.00210186572205,2.90951064473
16135000000,206,16135000000,world,0.00530318597947,-0.00210489226208,2.90946359381
16145000000,207,16145000000,world,0.00529990898711,-0.00210781737481,2.90941483232
16155000000,208,16155000000,world,0.00529529385005,-0.00211065136696,2.90936436199
16165000000,209,16165000000,world,0.00531660292521,-0.00211514776089,2.90931220191
16175000000,210,16175000000,world,0.00534948019852,-0.00212038546423,2.90925857312
16185000000,211,16185000000,world,0.00537871584783,-0.00212538789329,2.90920380798
16195000000,212,16195000000,world,0.00540421135835,-0.00213014962662,2.90914822651
16205000000,213,16205000000,world,0.00543173615054,-0.0021351643479,2.90909210199
16215000000,214,16215000000,world,0.00545769691569,-0.00214012309322,2.90903535338
16225000000,215,16225000000,world,0.00547966180109,-0.0021448144623,2.90897770211
16235000000,216,16235000000,world,0.00549780794714,-0.00214924917153,2.90891887786
16245000000,217,16245000000,world,0.00552418523206,-0.00215441670764,2.9088586902
16255000000,218,16255000000,world,0.00554942153525,-0.00215953988928,2.90879736227
16265000000,219,16265000000,world,0.00557065564076,-0.0021643780302,2.90873523888
16275000000,220,16275000000,world,0.005588117941,-0.00216894525283,2.90867265026
16285000000,221,16285000000,world,0.00559935027569,-0.00217342214521,2.90860980301
16295000000,222,16295000000,world,0.00560726321811,-0.00217767424615,2.90854644348
16305000000,223,16305000000,world,0.00561251444894,-0.00218170355584,2.90848221905
16315000000,224,16315000000,world,0.00561544293902,-0.00218553210354,2.90841679106
16325000000,225,16325000000,world,0.00558071877902,-0.00218628377863,2.90834994264
16335000000,226,16335000000,world,0.00554646686972,-0.00218705615396,2.90828180289
16345000000,227,16345000000,world,0.00551326198804,-0.00218789370738,2.90821260378
16355000000,228,16355000000,world,0.00548163685157,-0.00218884331371,2.9081425679
16365000000,229,16365000000,world,0.00545366513562,-0.00219015522565,2.90807188524
16375000000,230,16375000000,world,0.00542756668816,-0.00219159311758,2.90800064324
16385000000,231,16385000000,world,0.00540344675134,-0.00219316585391,2.90792890234
16395000000,232,16395000000,world,0.00538101245809,-0.00219487615208,2.90785672081
16405000000,233,16405000000,world,0.00535930173246,-0.00219671746458,2.90778421167
16415000000,234,16415000000,world,0.00533965039144,-0.00219869815354,2.90771161808
16425000000,235,16425000000,world,0.0053219927213,-0.00220081363142,2.90763919368
16435000000,236,16435000000,world,0.00530622938767,-0.00220305760715,2.90756718213
16445000000,237,16445000000,world,0.00528928414279,-0.002205329456,2.90749578296
16455000000,238,16455000000,world,0.00527383434479,-0.00220770924476,2.90742499501
16465000000,239,16465000000,world,0.00526010001332,-0.00221020043113,2.90735475455
16475000000,240,16475000000,world,0.00524720055551,-0.00221276425558,2.90728500087
16485000000,241,16485000000,world,0.00523287957508,-0.00221530427836,2.90721577502
16495000000,242,16495000000,world,0.00522008529278,-0.0022179383233,2.9071473364
16505000000,243,16505000000,world,0.00520869827185,-0.00222065852656,2.90707996369
16515000000,244,16515000000,world,0.00518921921675,-0.00222301961423,2.9070139248
16525000000,245,16525000000,world,0.00513493137593,-0.00222377301057,2.90694946754
16535000000,246,16535000000,world,0.00508451231062,-0.00222472286343,2.90688680962
16545000000,247,16545000000,world,0.00503815741254,-0.00222587800608,2.90682616082
16555000000,248,16555000000,world,0.00499457077168,-0.00222718560897,2.90676772164
16565000000,249,16565000000,world,0.00494770347362,-0.00222822748413,2.90671169701
16575000000,250,16575000000,world,0.00490530483573,-0.00222949610683,2.90665831168
16585000000,251,16585000000,world,0.00486723168353,-0.00223098504055,2.90660778952
16595000000,252,16595000000,world,0.00483060140773,-0.00223251002486,2.90656034262
16605000000,253,16605000000,world,0.0047832744884,-0.00223328318317,2.90651607258
16615000000,254,16615000000,world,0.00474054417535,-0.00223430922105,2.90647479048
16625000000,255,16625000000,world,0.00470220857657,-0.00223558079764,2.90643626824
16635000000,256,16635000000,world,0.0046687362764,-0.00223711104422,2.90640028537
16645000000,257,16645000000,world,0.00464189254842,-0.0022389576473,2.90636670487
16655000000,258,16655000000,world,0.00461830934075,-0.00224099777805,2.90633561325
16665000000,259,16665000000,world,0.00459760732274,-0.0022432126604,2.90630713444
16675000000,260,16675000000,world,0.00457941692584,-0.00224558340153,2.90628138738
16685000000,261,16685000000,world,0.0046030015162,-0.00225031220344,2.90625850824
16695000000,262,16695000000,world,0.00462600875354,-0.00225502707763,2.90623861057
16705000000,263,16705000000,world,0.00464781190275,-0.00225969308347,2.9062218266
16715000000,264,16715000000,world,0.00466748468729,-0.00226425508185,2.9062082829
16725000000,265,16725000000,world,0.00468339339726,-0.00226861207663,2.90619805768
16735000000,266,16735000000,world,0.00469721640597,-0.00227287146759,2.90619113152
16745000000,267,16745000000,world,0.00470884484087,-0.00227702691415,2.90618747237
16755000000,268,16755000000,world,0.00471934246813,-0.00228113075707,2.90618704747
16765000000,269,16765000000,world,0.00472827792117,-0.00228516174274,2.90618978805
16775000000,270,16775000000,world,0.00473494339016,-0.00228908482456,2.90619560012
16785000000,271,16785000000,world,0.00473942139506,-0.00229290395051,2.90620439301
16795000000,272,16795000000,world,0.00474460904354,-0.00229677096808,2.90621607151
16805000000,273,16805000000,world,0.00474769674175,-0.00230054547096,2.90623049602
16815000000,274,16815000000,world,0.00474881765755,-0.00230422639506,2.90624751765
16825000000,275,16825000000,world,0.00474812273227,-0.00230782180125,2.90626699337
16835000000,276,16835000000,world,0.00478260846549,-0.00231335612935,2.90628888835
16845000000,277,16845000000,world,0.00481737754132,-0.00231891943197,2.90631370157
16855000000,278,16855000000,world,0.0048480494669,-0.00232427166691,2.90634209679
16865000000,279,16865000000,world,0.00487458686128,-0.00232941049129,2.90637471223
16875000000,280,16875000000,world,0.00490514678898,-0.00233493690559,2.90641210829
16885000000,281,16885000000,world,0.00493328081585,-0.00234037113538,2.9064544332
16895000000,282,16895000000,world,0.00495704181051,-0.00234556495479,2.90650165735
16905000000,283,16905000000,world,0.00497663605911,-0.00235052906547,2.90655375162
16915000000,284,16915000000,world,0.00500735863683,-0.00235610173941,2.90661064253
16925000000,285,16925000000,world,0.00503615548147,-0.00236156701529,2.90667203408
16935000000,286,16935000000,world,0.0050604751075,-0.00236678515948,2.90673756469
16945000000,287,16945000000,world,0.00508056420795,-0.00237176992097,2.90680688656
16955000000,288,16955000000,world,0.00509585640595,-0.00237673196092,2.90687972432
16965000000,289,16965000000,world,0.00510759619078,-0.00238148461682,2.90695604773
16975000000,290,16975000000,world,0.00511613700414,-0.00238604701728,2.90703588523
16985000000,291,16985000000,world,0.00512183552845,-0.00239043900379,2.90711926401
16995000000,292,16995000000,world,0.00508403437565,-0.00239214486133,2.90720621477
17005000000,293,17005000000,world,0.00504656729199,-0.0023938731412,2.90729670427
17015000000,294,17015000000,world,0.00501008225652,-0.0023956629357,2.90739070965
17025000000,295,17025000000,world,0.0049760103902,-0.00239760020965,2.90748820828
17035000000,296,17035000000,world,0.00494585197642,-0.00239981163611,2.90758915399
17045000000,297,17045000000,world,0.0049175635451,-0.00240213780459,2.90769345634
17055000000,298,17055000000,world,0.00489126875523,-0.00240458719229,2.90780102243
17065000000,299,17065000000,world,0.00486660208499,-0.00240714971852,2.90791176616
17075000000,300,17075000000,world,0.00484374098617,-0.00240982915326,2.90802565053
17085000000,301,17085000000,world,0.00482293677147,-0.00241263503725,2.9081426747
17095000000,302,17095000000,world,0.00480411517849,-0.00241556331699,2.90826283879
17105000000,303,17105000000,world,0.00478593095491,-0.00241854611538,2.90838613791
17115000000,304,17115000000,world,0.00476877160405,-0.00242160264966,2.90851248735
17125000000,305,17125000000,world,0.0047533693983,-0.0024247697178,2.90864174504
17135000000,306,17135000000,world,0.00473959077859,-0.00242803980734,2.90877377324
17145000000,307,17145000000,world,0.00472545804853,-0.00243129231372,2.90890844128
17155000000,308,17155000000,world,0.00471201197667,-0.00243459083207,2.90904563756
17165000000,309,17165000000,world,0.00469994053646,-0.00243797762324,2.90918526332
17175000000,310,17175000000,world,0.0046891144911,-0.0024414453525,2.90932722387
17185000000,311,17185000000,world,0.00467702308067,-0.00244483795668,2.90947143196
17195000000,312,17195000000,world,0.00466506213861,-0.00244824427971,2.90961783026
17205000000,313,17205000000,world,0.00465417623634,-0.0024517242865,2.9097663757
17215000000,314,17215000000,world,0.00464426390827,-0.00245527123432,2.90991702701
17225000000,315,17225000000,world,0.00463271419282,-0.00245870544824,2.91006973197
17235000000,316,17235000000,world,0.00462102802561,-0.00246213141784,2.91022431006
17245000000,317,17245000000,world,0.00461023132526,-0.00246562092549,2.91038051204
17255000000,318,17255000000,world,0.00460023900629,-0.00246916886879,2.91053809761
17265000000,319,17265000000,world,0.00458838666715,-0.00247259563735,2.9106968235
17275000000,320,17275000000,world,0.00457595471963,-0.0024759675868,2.91085632956
17285000000,321,17285000000,world,0.00456430840512,-0.00247940049131,2.91101619622
17295000000,322,17295000000,world,0.0045529561985,-0.0024828565273,2.91117601939
17305000000,323,17305000000,world,0.00453853642382,-0.00248607590229,2.91133542196
17315000000,324,17315000000,world,0.00452493321827,-0.00248936058587,2.91149407742
17325000000,325,17325000000,world,0.00451209297384,-0.00249270715812,2.91165167781
17335000000,326,17335000000,world,0.0044976920395,-0.00249592273689,2.9118079198
17345000000,327,17345000000,world,0.00448309900746,-0.00249912389662,2.91196244065
17355000000,328,17355000000,world,0.00446924902187,-0.00250238967722,2.91211484987
17365000000,329,17365000000,world,0.00445607870094,-0.00250571452801,2.91226477166
17375000000,330,17375000000,world,0.00444103969021,-0.00250887516441,2.91241183854
17385000000,331,17385000000,world,0.00442505918268,-0.0025119539722,2.91255561254
17395000000,332,17395000000,world,0.00440977497336,-0.00251509588109,2.91269560786
17405000000,333,17405000000,world,0.00439512178158,-0.00251829628037,2.91283135578
17415000000,334,17415000000,world,0.00437910743033,-0.00252138608122,2.9129624093
17425000000,335,17425000000,world,0.00436139362917,-0.00252429215764,2.91308852451
17435000000,336,17435000000,world,0.00434433828307,-0.00252726239636,2.91320972231
17445000000,337,17445000000,world,0.00432788297607,-0.00253029188182,2.91332604034
17455000000,338,17455000000,world,0.00431072922879,-0.00253324960865,2.91343751654
17465000000,339,17465000000,world,0.00429130747342,-0.00253597713847,2.91354439268
17475000000,340,17475000000,world,0.0042725034069,-0.00253876985514,2.91364724933
17485000000,341,17485000000,world,0.00425425895344,-0.00254162396765,2.91374667567
17495000000,342,17495000000,world,0.00423565807621,-0.00254443674219,2.91384323696
17505000000,343,17505000000,world,0.00421504957265,-0.00254701970566,2.91393733866
17515000000,344,17515000000,world,0.00419498371668,-0.00254966697326,2.91402906678
17525000000,345,17525000000,world,0.00417540149284,-0.00255237337641,2.91411846273
17535000000,346,17535000000,world,0.00415595415343,-0.00255510129277,2.91420556616
17545000000,347,17545000000,world,0.00413441753307,-0.00255760291826,2.91429050539
17555000000,348,17555000000,world,0.00411331162454,-0.00256016221551,2.91437367785
17565000000,349,17565000000,world,0.00409258036643,-0.00256277436257,2.91445551295
17575000000,350,17575000000,world,0.00407115878472,-0.00256530141493,2.91453640666
17585000000,351,17585000000,world,0.00404906539506,-0.00256774709567,2.91461635735
17595000000,352,17595000000,world,0.00402727648532,-0.00257024099836,2.91469498508
17605000000,353,17605000000,world,0.00400573666765,-0.0025727773166,2.91477190871
17615000000,354,17615000000,world,0.0039837216044,-0.00257524984814,2.91484676396
17625000000,355,17625000000,world,0.00396144461975,-0.00257769331753,2.9149192548
17635000000,356,17635000000,world,0.00393931395334,-0.00258017162248,2.91498914981
17645000000,357,17645000000,world,0.0039172805832,-0.00258267922165,2.91505622862
17655000000,358,17655000000,world,0.00389527593204,-0.00258517536951,2.91512028277
17665000000,359,17665000000,world,0.00387324964024,-0.00258764964328,2.91518124446
17675000000,360,17675000000,world,0.00385118034533,-0.00259014022976,2.91523921924
17685000000,361,17685000000,world,0.0038290285236,-0.00259264242115,2.91529431942
17695000000,362,17695000000,world,0.00380739353349,-0.00259517475003,2.91534665057
17705000000,363,17705000000,world,0.00378598600167,-0.0025977241572,2.91539627298
17715000000,364,17715000000,world,0.00376433974045,-0.00260027089702,2.91544321357
17725000000,365,17725000000,world,0.00374242504549,-0.00260281099048,2.9154874978
17735000000,366,17735000000,world,0.0037216127116,-0.00260543299884,2.91552914939
17745000000,367,17745000000,world,0.0037013214876,-0.00260809661096,2.91556817151
17755000000,368,17755000000,world,0.00368057584319,-0.00261073577893,2.91560455271
17765000000,369,17765000000,world,0.00365936572766,-0.0026133481982,2.91563828205
17775000000,370,17775000000,world,0.00364048321264,-0.00261614485821,2.91566941866
17785000000,371,17785000000,world,0.00362128780853,-0.00261893782478,2.91569839271
17795000000,372,17795000000,world,0.00360145308313,-0.00262168704358,2.9157257424
17805000000,373,17805000000,world,0.00358620459221,-0.00262485428989,2.91575198549
17815000000,374,17815000000,world,0.00361565574323,-0.00263198972216,2.91577745685
17825000000,375,17825000000,world,0.00364141661267,-0.00263880760987,2.91580195286
17835000000,376,17835000000,world,0.00366313502276,-0.0026452753802,2.91582520123
17845000000,377,17845000000,world,0.00368374573481,-0.00265170522648,2.91584693982
17855000000,378,17855000000,world,0.00370900621976,-0.00265870503224,2.91586689359
17865000000,379,17865000000,world,0.00372934359297,-0.00266526133659,2.91588475146
17875000000,380,17875000000,world,0.00374482511653,-0.00267137872728,2.91590020773
17885000000,381,17885000000,world,0.0037702861311,-0.0026785085922,2.91591297725
17895000000,382,17895000000,world,0.00380473930344,-0.00268655056904,2.91592305286
17905000000,383,17905000000,world,0.00383319439497,-0.00269403175687,2.91593069555
17915000000,384,17915000000,world,0.00385581749482,-0.00270096542025,2.91593616484
17925000000,385,17925000000,world,0.00387306686959,-0.00270760174675,2.9159397056
17935000000,386,17935000000,world,0.00388527747104,-0.00271395348637,2.9159414493
17945000000,387,17945000000,world,0.00389265261013,-0.00271982185202,2.91594141914
17955000000,388,17955000000,world,0.00389562317724,-0.00272524444502,2.91593963315
17965000000,389,17965000000,world,0.00389433470489,-0.00273038784117,2.9159361076
17975000000,390,17975000000,world,0.00388911682435,-0.00273538893617,2.9159308134
17985000000,391,17985000000,world,0.00388088630475,-0.00274004651937,2.91592366467
17995000000,392,17995000000,world,0.00387007359085,-0.00274440055191,2.91591457534
18005000000,393,18005000000,world,0.00384926642773,-0.00274793222796,2.91590346056
18015000000,394,18015000000,world,0.00378400320949,-0.00274639161474,2.91589032346
18025000000,395,18025000000,world,0.00372043541549,-0.00274499237713,2.91587523146
18035000000,396,18035000000,world,0.00365925804366,-0.00274381017359,2.91585832193
18045000000,397,18045000000,world,0.00360198114164,-0.00274306291897,2.91583971851
18055000000,398,18055000000,world,0.00354906185386,-0.00274280904678,2.9158194689
18065000000,399,18065000000,world,0.00349938138179,-0.00274286297984,2.91579752733
18075000000,400,18075000000,world,0.00345299335605,-0.00274323372598,2.91577384337
18085000000,401,18085000000,world,0.00340855126566,-0.00274383874946,2.9157483763
18095000000,402,18095000000,world,0.00336608013939,-0.00274467773477,2.91572125561
18105000000,403,18105000000,world,0.00332681301785,-0.00274582396552,2.91569277256
18115000000,404,18115000000,world,0.00329058307417,-0.0027472624038,2.9156632144
18125000000,405,18125000000,world,0.00323389685535,-0.00274691572473,2.91563285229
18135000000,406,18135000000,world,0.00315850489204,-0.00274493865091,2.91560172629
18145000000,407,18145000000,world,0.00308847984098,-0.00274345952715,2.91556966221
18155000000,408,18155000000,world,0.00302148387698,-0.00274227757225,2.91553648875
18165000000,409,18165000000,world,0.00295068835031,-0.00274080635775,2.91550193814
18175000000,410,18175000000,world,0.00288575061206,-0.00273986875331,2.91546552453
18185000000,411,18185000000,world,0.00282647992649,-0.00273944643089,2.91542675203
18195000000,412,18195000000,world,0.00277075881948,-0.00273940004897,2.91538514405
18205000000,413,18205000000,world,0.00270415863031,-0.00273772789053,2.91534034672
18215000000,414,18215000000,world,0.00264329180051,-0.00273661224604,2.91529245131
18225000000,415,18225000000,world,0.00258787570423,-0.00273603242977,2.91524164825
18235000000,416,18235000000,world,0.00253756265989,-0.00273595823652,2.91518812012
18245000000,417,18245000000,world,0.0024923945208,-0.00273644568316,2.9151320304
18255000000,418,18255000000,world,0.00245152885696,-0.00273736930338,2.91507347054
18265000000,419,18265000000,world,0.00241447462485,-0.00273867741167,2.91501250681
18275000000,420,18275000000,world,0.00238079448427,-0.00274032837538,2.91494920281
18285000000,421,18285000000,world,0.00239134286591,-0.00274628145939,2.91488367819
18295000000,422,18295000000,world,0.00240641570423,-0.00275268980517,2.9148162653
18305000000,423,18305000000,world,0.00242054271855,-0.00275902229159,2.91474737601
18315000000,424,18315000000,world,0.00243047852694,-0.00276487189769,2.91467736591
18325000000,425,18325000000,world,0.00243834075191,-0.00277052974613,2.91460635614
18335000000,426,18335000000,world,0.00244416918729,-0.00277600962748,2.91453438918
18345000000,427,18345000000,world,0.00244795307611,-0.00278129020828,2.91446150573
18355000000,428,18355000000,world,0.0024500452482,-0.00278635002816,2.91438771906
18365000000,429,18365000000,world,0.0024498052741,-0.0027912061168,2.91431298404
18375000000,430,18375000000,world,0.00244727036957,-0.00279586105695,2.91423725
18385000000,431,18385000000,world,0.00244278538266,-0.0028003315859,2.9141604683
18395000000,432,18395000000,world,0.00243850989743,-0.00280470832343,2.91408259025
18405000000,433,18405000000,world,0.00243211445642,-0.00280890446682,2.91400356166
18415000000,434,18415000000,world,0.00242373627136,-0.00281293233489,2.91392332975
18425000000,435,18425000000,world,0.00241353142749,-0.00281680570023,2.91384184379
18435000000,436,18435000000,world,0.00240490613094,-0.00282070487171,2.91375915502
18445000000,437,18445000000,world,0.00239460070681,-0.00282446883053,2.91367571406
18455000000,438,18455000000,world,0.00238275828731,-0.00282811016287,2.91359205225
18465000000,439,18465000000,world,0.00237018295903,-0.00283167741933,2.91350868049
18475000000,440,18475000000,world,0.00235992994973,-0.00283534165556,2.91342596213
18485000000,441,18485000000,world,0.00234835050735,-0.00283890742703,2.91334374243
18495000000,442,18495000000,world,0.00233556815163,-0.00284238511438,2.9132617477
18505000000,443,18505000000,world,0.00232608107896,-0.00284604298108,2.91317971468
18515000000,444,18515000000,world,0.00235356232041,-0.00285186651009,2.91309741213
18525000000,445,18525000000,world,0.00237763182275,-0.00285747971654,2.91301470756
18535000000,446,18535000000,world,0.0023980829476,-0.00286287220271,2.91293148438
18545000000,447,18545000000,world,0.00241556536089,-0.0028681072887,2.9128476303
18555000000,448,18555000000,world,0.00243555538405,-0.00287369152494,2.91276309431
18565000000,449,18565000000,world,0.0024516250971,-0.00287902636214,2.91267800588
18575000000,450,18575000000,world,0.00246391078831,-0.00288411943748,2.91259251902
18585000000,451,18585000000,world,0.00247738780074,-0.00288929858932,2.91250677902
18595000000,452,18595000000,world,0.00249809746605,-0.00289496223065,2.9124208571
18605000000,453,18605000000,world,0.00251476847098,-0.00290036266747,2.91233471601
18615000000,454,18615000000,world,0.00252759475093,-0.00290551125217,2.91224830507
18625000000,455,18625000000,world,0.00253555325861,-0.00291042340343,2.91216157617
18635000000,456,18635000000,world,0.00253531802675,-0.00291511769917,2.91207448046
18645000000,457,18645000000,world,0.00253247653492,-0.00291961344811,2.91198695705
18655000000,458,18655000000,world,0.00252739482806,-0.00292393177476,2.91189894886
18665000000,459,18665000000,world,0.00250351958972,-0.00292682427715,2.91181041193
18675000000,460,18675000000,world,0.00246260837695,-0.00292841868638,2.91172134647
18685000000,461,18685000000,world,0.00242259870624,-0.00293005927341,2.91163179615
18695000000,462,18695000000,world,0.00238396751648,-0.00293178003447,2.91154181395
18705000000,463,18705000000,world,0.00234776440165,-0.00293368785013,2.91145144923
18715000000,464,18715000000,world,0.00231451280364,-0.00293583387824,2.91136069999
18725000000,465,18725000000,world,0.00228326820372,-0.00293810345076,2.9112695008
18735000000,466,18735000000,world,0.00225409056492,-0.00294050177769,2.91117778423
18745000000,467,18745000000,world,0.00222636988346,-0.00294301518072,2.9110854867
18755000000,468,18755000000,world,0.0021993160056,-0.00294562425726,2.91099260751
18765000000,469,18765000000,world,0.00217436206629,-0.00294836075021,2.91089924701
18775000000,470,18775000000,world,0.00215142097058,-0.00295121938892,2.9108055117
18785000000,471,18785000000,world,0.00212926245794,-0.00295414984821,2.91071150336
18795000000,472,18795000000,world,0.0021063976882,-0.00295709242191,2.91061724568
18805000000,473,18805000000,world,0.00208538666986,-0.00296014465946,2.91052263566
18815000000,474,18815000000,world,0.00206610841038,-0.00296329818876,2.91042756359
18825000000,475,18825000000,world,0.0020388342668,-0.00296612414416,2.91033192561
18835000000,476,18835000000,world,0.00197619086272,-0.00296742126966,2.91023567962
18845000000,477,18845000000,world,0.00191778770208,-0.00296892242126,2.91013890075
18855000000,478,18855000000,world,0.00186381460783,-0.00297063373862,2.9100416858
18865000000,479,18865000000,world,0.0018119908905,-0.0029723557716,2.90994412882
18875000000,480,18875000000,world,0.00175790906119,-0.00297371046705,2.90984643648
18885000000,481,18885000000,world,0.00170863425181,-0.00297531216507,2.90974900273
18895000000,482,18895000000,world,0.00166401149553,-0.00297715460833,2.90965222512
18905000000,483,18905000000,world,0.00161915531629,-0.00297902871866,2.90955648448
18915000000,484,18915000000,world,0.00156058829351,-0.00298035734316,2.90946208081
18925000000,485,18925000000,world,0.00150722750613,-0.00298194738131,2.90936916887
18935000000,486,18935000000,world,0.00145888591583,-0.00298378923793,2.90927787602
18945000000,487,18945000000,world,0.00141617398241,-0.00298580438752,2.9091883249
18955000000,488,18955000000,world,0.00138126585707,-0.00298779083976,2.90910058985
18965000000,489,18965000000,world,0.00135015184877,-0.0029899995996,2.90901460874
18975000000,490,18975000000,world,0.00132241788157,-0.00299241342132,2.90893029945
18985000000,491,18985000000,world,0.00129819721362,-0.00299503168392,2.90884758306
18995000000,492,18995000000,world,0.00128126025572,-0.00299797337726,2.90876640563
19005000000,493,19005000000,world,0.00126620295136,-0.0030010529825,2.90868676994
19015000000,494,19015000000,world,0.00125263614667,-0.00300425130827,2.90860869164
19025000000,495,19025000000,world,0.0012475006558,-0.00300799301976,2.90853218544
19035000000,496,19035000000,world,0.00127115869474,-0.0030135174843,2.90845705304
19045000000,497,19045000000,world,0.00129317771703,-0.00301897320501,2.90838271688
19055000000,498,19055000000,world,0.00131307948504,-0.00302433020834,2.90830860024
19065000000,499,19065000000,world,0.00133049099745,-0.00302954723504,2.90823414932
19075000000,500,19075000000,world,0.00134507602874,-0.0030345528469,2.9081589817
19085000000,501,19085000000,world,0.00135693390238,-0.00303942360293,2.9080830623
19095000000,502,19095000000,world,0.0013660550098,-0.0030441574511,2.90800640109
19105000000,503,19105000000,world,0.00137691154693,-0.0030489166524,2.90792900827
19115000000,504,19115000000,world,0.00142357150165,-0.00305494408788,2.90785098774
19125000000,505,19125000000,world,0.00146514340997,-0.00306074874967,2.9077726231
19135000000,506,19135000000,world,0.00150146030207,-0.00306632588355,2.90769422299
19145000000,507,19145000000,world,0.00153439801134,-0.00307174169426,2.90761608324
19155000000,508,19155000000,world,0.00156939242788,-0.00307728943426,2.9075384892
19165000000,509,19165000000,world,0.0015989147818,-0.0030826043428,2.90746171935
19175000000,510,19175000000,world,0.00162318741697,-0.00308769644378,2.9073860422
19185000000,511,19185000000,world,0.00164250571834,-0.00309257855303,2.90731171552
19195000000,512,19195000000,world,0.00168081765451,-0.00309836111696,2.90723900947
19205000000,513,19205000000,world,0.00171348966429,-0.00310389887816,2.90716830378
19215000000,514,19215000000,world,0.00174074386165,-0.00310920065995,2.90709998704
19225000000,515,19225000000,world,0.00176251982138,-0.0031142722757,2.9070344327
19235000000,516,19235000000,world,0.00177636659898,-0.00311907553058,2.90697183252
19245000000,517,19245000000,world,0.00178608533258,-0.00312369275192,2.9069118686
19255000000,518,19255000000,world,0.00179212120343,-0.00312814204989,2.90685414663
19265000000,519,19265000000,world,0.00179440337103,-0.00313248469139,2.90679828859
19275000000,520,19275000000,world,0.00179190512571,-0.00313686013136,2.90674409729
19285000000,521,19285000000,world,0.00178715647748,-0.00314110876437,2.90669174961
19295000000,522,19295000000,world,0.0017805549386,-0.00314524580663,2.90664146473
19305000000,523,19305000000,world,0.0017571713499,-0.00314852100715,2.90659345713
19315000000,524,19315000000,world,0.00171116716091,-0.00315064018765,2.90654784346
19325000000,525,19325000000,world,0.0016666917204,-0.00315281136952,2.90650461525
19335000000,526,19335000000,world,0.00162424168089,-0.00315505882438,2.90646376678
19345000000,527,19345000000,world,0.00158434820424,-0.00315741971108,2.90642529258
19355000000,528,19355000000,world,0.0015475791769,-0.00315996181948,2.90638925357
19365000000,529,19365000000,world,0.00151346445463,-0.00316261019886,2.90635585573
19375000000,530,19375000000,world,0.00148202807138,-0.00316536814039,2.90632531615
19385000000,531,19385000000,world,0.00145242170156,-0.00316821308608,2.90629784345
19395000000,532,19395000000,world,0.00142305608764,-0.00317109993135,2.90627360965
19405000000,533,19405000000,world,0.00139630588345,-0.00317409354697,2.90625271492
19415000000,534,19415000000,world,0.00137203447008,-0.00317718855556,2.90623524775
19425000000,535,19425000000,world,0.00133635351857,-0.00317991828516,2.90622129339
19435000000,536,19435000000,world,0.00127240879249,-0.0031817162823,2.90621085876
19445000000,537,19445000000,world,0.00121323903951,-0.00318369013762,2.90620382489
19455000000,538,19455000000,world,0.00115894645536,-0.00318584285673,2.90620006996
19465000000,539,19465000000,world,0.00110670853174,-0.00318807094827,2.90619947722
19475000000,540,19475000000,world,0.00105300723269,-0.00319024578035,2.90620198268
19485000000,541,19485000000,world,0.00100437282214,-0.00319260253272,2.90620760817
19495000000,542,19495000000,world,0.000960584330661,-0.00319513275646,2.90621638201
19505000000,543,19505000000,world,0.000911286693876,-0.00319737598936,2.90622832936
19515000000,544,19515000000,world,0.000860267147758,-0.00319950460638,2.90624348113
19525000000,545,19525000000,world,0.000814190893344,-0.00320182036233,2.90626187181
19535000000,546,19535000000,world,0.000774119101294,-0.0032044033611,2.90628352868
19545000000,547,19545000000,world,0.000738855025366,-0.00320718390104,2.90630842481
19555000000,548,19555000000,world,0.000707421471626,-0.00321010823987,2.90633650395
19565000000,549,19565000000,world,0.000683418203414,-0.00321313836097,2.90636768911
19575000000,550,19575000000,world,0.000662899483312,-0.00321628020845,2.9064017718
19585000000,551,19585000000,world,0.000644716161878,-0.00321952402045,2.90643850899
19595000000,552,19595000000,world,0.00064610659747,-0.00322351816242,2.90647767325
19605000000,553,19605000000,world,0.000665222020742,-0.00322833841484,2.90651900412
19615000000,554,19615000000,world,0.000683337871815,-0.00323312912295,2.90656220148
19625000000,555,19625000000,world,0.000699951934435,-0.00323786982359,2.906606981
19635000000,556,19635000000,world,0.000714088477927,-0.00324251321206,2.90665307635
19645000000,557,19645000000,world,0.000725663496553,-0.00324705743994,2.90670039936
19655000000,558,19655000000,world,0.000735055888236,-0.00325152366533,2.90674903109
19665000000,559,19665000000,world,0.000742207484923,-0.00325590965041,2.90679905621
19675000000,560,19675000000,world,0.000748505361343,-0.00326024823823,2.90685053399
19685000000,561,19685000000,world,0.000753115341942,-0.00326451951071,2.90690328684
19695000000,562,19695000000,world,0.000755501487021,-0.00326871115567,2.90695700802
19705000000,563,19705000000,world,0.000756452265049,-0.00327284289495,2.90701140173
19715000000,564,19715000000,world,0.000758030952399,-0.0032769912837,2.90706625671
19725000000,565,19725000000,world,0.000757578961768,-0.00328106729304,2.9071215309
19735000000,566,19735000000,world,0.000755238000941,-0.00328507644807,2.90717720566
19745000000,567,19745000000,world,0.000768637022937,-0.00328955821451,2.90723326364
19755000000,568,19755000000,world,0.000804978621084,-0.00329473334361,2.90728968699
19765000000,569,19765000000,world,0.000837160610834,-0.00329977494592,2.90734646121
19775000000,570,19775000000,world,0.000865071727684,-0.00330468033607,2.90740357419
19785000000,571,19785000000,world,0.000893487942458,-0.00330966197428,2.90746101173
19795000000,572,19795000000,world,0.000921280876284,-0.00331470666654,2.90751871464
19805000000,573,19805000000,world,0.000944570643158,-0.00331960026748,2.90757658163
19815000000,574,19815000000,world,0.000963554544655,-0.00332434902075,2.90763451305
19825000000,575,19825000000,world,0.000989815054833,-0.00332928863174,2.90769241268
19835000000,576,19835000000,world,0.00101900959594,-0.0033342940993,2.90775022999
19845000000,577,19845000000,world,0.00104355471614,-0.00333914712563,2.90780794778
19855000000,578,19855000000,world,0.00106368641645,-0.0033438556255,2.90786554842
19865000000,579,19865000000,world,0.00107729485609,-0.00334844056216,2.90792301746
19875000000,580,19875000000,world,0.00108534113179,-0.00335291026852,2.90798040576
19885000000,581,19885000000,world,0.00109023683787,-0.00335726807163,2.90803784612
19895000000,582,19895000000,world,0.00109237145662,-0.00336152628236,2.90809547227
19905000000,583,19905000000,world,0.00108026654237,-0.00336527487538,2.90815341714
19915000000,584,19915000000,world,0.00103988237087,-0.00336801316441,2.90821176866
19925000000,585,19925000000,world,0.00100026312246,-0.00337077349609,2.90827051982
19935000000,586,19935000000,world,0.000961981535249,-0.00337357582635,2.90832966837
19945000000,587,19945000000,world,0.000926666086565,-0.00337648796383,2.90838920941
19955000000,588,19955000000,world,0.000894773886146,-0.00337952835826,2.90844904879
19965000000,589,19965000000,world,0.00086495868302,-0.00338263685387,2.9085089808
19975000000,590,19975000000,world,0.000837306389594,-0.00338581628789,2.90856879991
19985000000,591,19985000000,world,0.000811159270904,-0.00338905328138,2.90862831165
19995000000,592,19995000000,world,0.000786546934783,-0.00339234829672,2.90868743656
20005000000,593,20005000000,world,0.000764114283596,-0.00339571403186,2.90874623684
20015000000,594,20015000000,world,0.000743768237077,-0.00339914742304,2.90880478138
20025000000,595,20025000000,world,0.000723736410015,-0.00340260541391,2.90886312944
20035000000,596,20035000000,world,0.000704312269468,-0.00340608769206,2.9089212263
20045000000,597,20045000000,world,0.000686758864624,-0.00340963103708,2.90897893471
20055000000,598,20055000000,world,0.000670944183285,-0.00341323058072,2.90903612121
20065000000,599,20065000000,world,0.000655279404374,-0.00341684002281,2.90909266296
20075000000,600,20075000000,world,0.000639029162442,-0.00342043763639,2.90914865913
20085000000,601,20085000000,world,0.000624287540786,-0.00342408303453,2.90920448486
20095000000,602,20095000000,world,0.000610923192843,-0.00342777217627,2.90926051896
20105000000,603,20105000000,world,0.00059635605063,-0.00343142431039,2.90931708683
20115000000,604,20115000000,world,0.000581442936297,-0.00343506671962,2.90937409644
20125000000,605,20125000000,world,0.000567756309179,-0.00343874848734,2.90943122412
20135000000,606,20135000000,world,0.000555188389812,-0.00344246596607,2.90948815631
20145000000,607,20145000000,world,0.000512719798239,-0.00344524872465,2.90954457775
20155000000,608,20155000000,world,0.000460070865719,-0.00344771359576,2.90960006347
20165000000,609,20165000000,world,0.000411097407425,-0.00345029383284,2.90965413558
20175000000,610,20175000000,world,0.000365922828661,-0.00345299427209,2.90970633369
20185000000,611,20185000000,world,0.000320180919369,-0.00345548870042,2.90975625443
20195000000,612,20195000000,world,0.000277349636895,-0.00345804030984,2.90980380861
20205000000,613,20205000000,world,0.000238440114113,-0.00346073102995,2.90984904126
20215000000,614,20215000000,world,0.00020326498604,-0.00346355602993,2.90989199589
20225000000,615,20225000000,world,0.000157167316937,-0.00346603050133,2.90993273546
20235000000,616,20235000000,world,0.000112674502394,-0.00346856981035,2.90997152418
20245000000,617,20245000000,world,7.22448424266e-05,-0.00347125625333,2.91000869961
20255000000,618,20255000000,world,3.56545408669e-05,-0.00347408278252,2.91004458561
20265000000,619,20265000000,world,8.87489738203e-06,-0.00347704699625,2.91007946584
20275000000,620,20275000000,world,-1.43326475484e-05,-0.00348013080239,2.91011344399
20285000000,621,20285000000,world,-3.50552124903e-05,-0.003483321819,2.91014656769
20295000000,622,20295000000,world,-5.36509031855e-05,-0.00348660819662,2.91017888293
20305000000,623,20305000000,world,-4.3407638383e-05,-0.00349110822415,2.91021045297
20315000000,624,20315000000,world,-2.67181345885e-05,-0.00349588847069,2.91024136807
20325000000,625,20325000000,world,-1.10945284903e-05,-0.00350063679932,2.910271745
20335000000,626,20335000000,world,3.03417434065e-06,-0.00350533590499,2.91030169896
20345000000,627,20345000000,world,1.43821883392e-05,-0.00350990356361,2.91033134465
20355000000,628,20355000000,world,2.33676918564e-05,-0.00351437508669,2.9103608357
20365000000,629,20365000000,world,3.03122298001e-05,-0.00351877594209,2.91039034459
20375000000,630,20375000000,world,3.54145477064e-05,-0.00352310967517,2.91042003722
20385000000,631,20385000000,world,4.0515492065e-05,-0.00352741875929,2.91045011537
20395000000,632,20395000000,world,4.3468026684e-05,-0.00353165398321,2.91048089572
20405000000,633,20405000000,world,4.43474582098e-05,-0.00353581793502,2.91051270581
20415000000,634,20415000000,world,4.32544859602e-05,-0.00353991358284,2.9105458605
20425000000,635,20425000000,world,8.10607295084e-05,-0.00354512365544,2.91058058654
20435000000,636,20435000000,world,0.000114690080585,-0.00355020226161,2.91061675593
20445000000,637,20445000000,world,0.00014397225052,-0.00355514509291,2.91065417484
20455000000,638,20455000000,world,0.000168878995208,-0.00355995205138,2.91069265697
20465000000,639,20465000000,world,0.000199430352485,-0.0035649123384,2.91073211729
20475000000,640,20475000000,world,0.000225251743176,-0.00356972892426,2.91077285127
20485000000,641,20485000000,world,0.000246487884503,-0.00357440662928,2.91081523569
20495000000,642,20495000000,world,0.000263359688177,-0.00357895231199,2.91085963251
20505000000,643,20505000000,world,0.000296057102782,-0.00358415217341,2.91090636108
20515000000,644,20515000000,world,0.000325946506248,-0.00358927555828,2.91095559553
20525000000,645,20525000000,world,0.00035091737428,-0.00359423718842,2.91100745681
20535000000,646,20535000000,world,0.000371214724398,-0.00359904403516,2.91106206085
20545000000,647,20545000000,world,0.000385478305944,-0.00360363213715,2.91111947859
20555000000,648,20555000000,world,0.000395639131018,-0.00360807700152,2.91117953858
20565000000,649,20565000000,world,0.000402268269221,-0.00361240374563,2.91124199093
20575000000,650,20575000000,world,0.000405753834377,-0.00361662469749,2.91130659554
20585000000,651,20585000000,world,0.00040488448808,-0.00362099865012,2.91137316377
20595000000,652,20595000000,world,0.000401720472492,-0.00362527607801,2.91144173926
20605000000,653,20605000000,world,0.00039662421469,-0.00362946674504,2.91151243903
20615000000,654,20615000000,world,0.000386072859289,-0.00363343121339,2.91158537577
20625000000,655,20625000000,world,0.00034074563643,-0.00363602842175,2.91166066621
20635000000,656,20635000000,world,0.000296699677016,-0.00363865712083,2.91173837971
20645000000,657,20645000000,world,0.000254474249338,-0.00364133740488,2.91181859764
20655000000,658,20655000000,world,0.000215019708703,-0.00364412652482,2.91190139323
20665000000,659,20665000000,world,0.000178430505259,-0.00364703073854,2.91198675278
20675000000,660,20675000000,world,0.000144352318401,-0.00365001128944,2.91207457974
20685000000,661,20685000000,world,0.000112831065565,-0.00365307165638,2.91216477783
20695000000,662,20695000000,world,8.3013885976e-05,-0.00365619647488,2.91225725604
20705000000,663,20705000000,world,5.42076629948e-05,-0.00365937180288,2.91235204287
20715000000,664,20715000000,world,2.79028279763e-05,-0.00366262516601,2.91244936035
20725000000,665,20725000000,world,3.97147974524e-06,-0.00366595276179,2.91254944042
20735000000,666,20735000000,world,-1.96036229939e-05,-0.00366931170651,2.91265250388
20745000000,667,20745000000,world,-4.2840523211e-05,-0.00367269981312,2.91275871004
20755000000,668,20755000000,world,-6.39839942875e-05,-0.00367615228719,2.91286815989
20765000000,669,20765000000,world,-8.32063379039e-05,-0.00367966428107,2.91298094853
20775000000,670,20775000000,world,-0.000115727966764,-0.0036829075584,2.91309716454
20785000000,671,20785000000,world,-0.000173025853958,-0.00368548264141,2.9132166721
20795000000,672,20795000000,world,-0.000226246005609,-0.0036881667479,2.91333897094
20805000000,673,20805000000,world,-0.000275287405926,-0.00369096165476,2.91346354752
20815000000,674,20815000000,world,-0.000321195925856,-0.00369381530445,2.91358990819
20825000000,675,20825000000,world,-0.00036699141989,-0.00369658138003,2.91371761398
20835000000,676,20835000000,world,-0.000408626633015,-0.00369946461808,2.91384632369
20845000000,677,20845000000,world,-0.000446309304538,-0.003702459916,2.91397571941
20855000000,678,20855000000,world,-0.000485703378341,-0.0037054417464,2.91410549414
20865000000,679,20865000000,world,-0.000533675068573,-0.00370825827597,2.91423537957
20875000000,680,20875000000,world,-0.000577430599957,-0.00371118835226,2.91436518498
20885000000,681,20885000000,world,-0.000617173182412,-0.00371422574052,2.91449473206
20895000000,682,20895000000,world,-0.000639581960158,-0.00371771634812,2.91462385469
20905000000,683,20905000000,world,-0.000628456825837,-0.00372208160906,2.91475241491
20915000000,684,20915000000,world,-0.000617004755653,-0.0037264576066,2.91488029562
20925000000,685,20925000000,world,-0.000605857836159,-0.00373082687599,2.91500739906
20935000000,686,20935000000,world,-0.000597262255217,-0.00373512379324,2.9151336275
20945000000,687,20945000000,world,-0.000592299396484,-0.00373931701387,2.91525876021
20955000000,688,20955000000,world,-0.000588507712277,-0.00374348067141,2.91538242232
20965000000,689,20965000000,world,-0.000586045508373,-0.00374761051279,2.9155042423
20975000000,690,20975000000,world,-0.000585293563976,-0.00375167933939,2.91562388902
20985000000,691,20985000000,world,-0.000586031203211,-0.00375571012337,2.91574119472
20995000000,692,20995000000,world,-0.000588233657373,-0.00375970517093,2.91585605188
21005000000,693,21005000000,world,-0.000591876840379,-0.00376366476442,2.91596835723
21015000000,694,21015000000,world,-0.000596024669,-0.00376759540642,2.91607802608
21025000000,695,21025000000,world,-0.000601332533869,-0.00377149407806,2.91618508299
21035000000,696,21035000000,world,-0.000607955176476,-0.00377536120665,2.91628959865
21045000000,697,21045000000,world,-0.000615806988637,-0.00377919951318,2.91639164123
21055000000,698,21055000000,world,-0.000623145568501,-0.00378302800087,2.916491225
21065000000,699,21065000000,world,-0.000631440388679,-0.00378683329017,2.91658808278
21075000000,700,21075000000,world,-0.000640796184522,-0.00379061523025,2.9166818657
21085000000,701,21085000000,world,-0.000651121724831,-0.00379437583358,2.9167722386
21095000000,702,21095000000,world,-0.000660364548275,-0.00379814609631,2.91685892016
21105000000,703,21105000000,world,-0.000669866940713,-0.00380190961487,2.91694206177
21115000000,704,21115000000,world,-0.000680226463391,-0.00380565556304,2.91702205491
21125000000,705,21125000000,world,-0.000691363435516,-0.00380938624578,2.91709927868
21135000000,706,21135000000,world,-0.000700546663192,-0.00381314222711,2.91717403818
21145000000,707,21145000000,world,-0.000709859315593,-0.00381689297508,2.91724618406
21155000000,708,21155000000,world,-0.000719927916573,-0.00382062955331,2.9173153779
21165000000,709,21165000000,world,-0.000730688372332,-0.00382435296185,2.91738129392
21175000000,710,21175000000,world,-0.000739360975222,-0.00382811643159,2.91744361723
21185000000,711,21185000000,world,-0.000747609624261,-0.00383188823341,2.91750202599
21195000000,712,21195000000,world,-0.000756581635328,-0.0038356470422,2.91755619985
21205000000,713,21205000000,world,-0.000766218596672,-0.00383939411079,2.91760583094
21215000000,714,21215000000,world,-0.000739249027608,-0.00384388143665,2.9176506787
21225000000,715,21225000000,world,-0.000711031271237,-0.00384839465045,2.91769084757
21235000000,716,21235000000,world,-0.000686077402577,-0.00385284210229,2.91772654473
21245000000,717,21245000000,world,-0.000663599419592,-0.00385723123745,2.91775796914
21255000000,718,21255000000,world,-0.000639543886715,-0.00386164044614,2.91778519929
21265000000,719,21265000000,world,-0.000619181678899,-0.00386597659575,2.91780799186
21275000000,720,21275000000,world,-0.000602411738149,-0.00387024203869,2.91782605117
21285000000,721,21285000000,world,-0.000587242933322,-0.003874490065,2.91783909323
21295000000,722,21295000000,world,-0.00055944054686,-0.00387911025885,2.91784692821
