%time,field.header.seq,field.header.stamp,field.header.frame_id,field.twist.linear.x,field.twist.linear.y,field.twist.linear.z,field.twist.angular.x,field.twist.angular.y,field.twist.angular.z
13965000000,1380,13965000000,,0.0056372955188,-0.00633504108698,-0.0217049605041,0.0,0.0,0.0
13975000000,1381,13975000000,,-0.00194130513599,-0.00795112340543,-0.013299113673,0.0,0.0,0.0
13984000000,1382,13984000000,,0.0129229681238,-0.0112632318001,-0.0138418618178,0.0,0.0,0.0
13995000000,1383,13995000000,,0.016889683905,-0.053438520165,-0.0481273146875,0.0,0.0,0.0
14004000000,1384,14004000000,,-0.00657206426376,0.00897511735442,-0.0304686807724,0.0,0.0,0.0
14015000000,1385,14015000000,,0.00123059460745,0.0266361548114,-0.0678559400078,0.0,0.0,0.0
14025000000,1386,14025000000,,-0.00328598240467,0.00288212496487,-0.0554523663316,0.0,0.0,0.0
14035000000,1387,14035000000,,-0.0222428604324,0.020529550886,-0.0284819315279,0.0,0.0,0.0
14046000000,1388,14046000000,,-0.0105231992229,0.0105850101291,-0.0195499991127,0.0,0.0,0.0
14055000000,1389,14055000000,,0.023820252104,-0.0248229305076,-0.0547029916507,0.0,0.0,0.0
14065000000,1390,14065000000,,0.00422537334409,0.0184376399015,-0.0175721431824,0.0,0.0,0.0
14076000000,1391,14076000000,,-0.0112166646863,0.0029988649147,-0.0434232170765,0.0,0.0,0.0
14085000000,1392,14085000000,,-0.0277826423943,0.0279609647405,-0.00214594169838,0.0,0.0,0.0
14095000000,1393,14095000000,,0.0173258124368,0.00280897423664,-0.0141547697974,0.0,0.0,0.0
14106000000,1394,14106000000,,-0.00902407866591,0.0119829619166,-0.0507985096895,0.0,0.0,0.0
14115000000,1395,14115000000,,0.0217222692015,-0.0171712674716,-0.0377637666705,0.0,0.0,0.0
14125000000,1396,14125000000,,0.000732235470691,-0.00677336250437,0.000888111713837,0.0,0.0,0.0
14135000000,1397,14135000000,,0.0232364337938,-0.0142252869278,-0.0314138701141,0.0,0.0,0.0
14146000000,1398,14146000000,,0.0199070716292,0.0336017147956,-0.0559617803649,0.0,0.0,0.0
14155000000,1399,14155000000,,-0.015962049152,-0.0138116827621,-0.00132829162181,0.0,0.0,0.0
14166000000,1400,14166000000,,-0.0108634737401,-0.00951727333047,0.0034432509778,0.0,0.0,0.0
14176000000,1401,14176000000,,-0.0169915477512,-0.00476225406113,-0.0415694320993,0.0,0.0,0.0
14186000000,1402,14186000000,,-0.0312864072529,0.025240106448,-0.053685009606,0.0,0.0,0.0
14196000000,1403,14196000000,,0.00408744438429,0.0246536736545,-0.0375119900603,0.0,0.0,0.0
14206000000,1404,14206000000,,-0.0167589451121,0.0085737280812,-0.0470848946794,0.0,0.0,0.0
14215000000,1405,14215000000,,0.0401592368302,-0.0304693420731,0.0214273188441,0.0,0.0,0.0
14229000000,1406,14229000000,,0.00522304401575,0.0036813821472,-0.0178200853076,0.0,0.0,0.0
14235000000,1407,14235000000,,-0.0137825422508,-0.023155951123,-0.0395038449354,0.0,0.0,0.0
14245000000,1408,14245000000,,0.0341099395354,-0.000583926439456,0.0149452623171,0.0,0.0,0.0
14256000000,1409,14256000000,,0.0255651416009,-0.038923944868,-0.0457116902885,0.0,0.0,0.0
14265000000,1410,14265000000,,-0.0222864821228,-0.0219654032627,-0.0189147721486,0.0,0.0,0.0
14275000000,1411,14275000000,,-0.0165183222775,0.00906545252259,-0.0204976491245,0.0,0.0,0.0
14285000000,1412,14285000000,,0.0105713442641,-0.0168805370567,-0.038239546584,0.0,0.0,0.0
14295000000,1413,14295000000,,0.0209303142516,0.0176827149894,-0.0293766617777,0.0,0.0,0.0
14306000000,1414,14306000000,,-0.0153157851821,0.025228996444,-0.000310590627937,0.0,0.0,0.0
14316000000,1415,14316000000,,-0.0105224908721,0.0188319518718,-0.0270285189039,0.0,0.0,0.0
14326000000,1416,14326000000,,0.0357320432012,0.0176835845607,0.00473916135203,0.0,0.0,0.0
14335000000,1417,14335000000,,-0.000903352130897,0.00291659129541,0.0099499892629,0.0,0.0,0.0
14345000000,1418,14345000000,,0.0370266280789,-0.0149694497226,-0.00785961286379,0.0,0.0,0.0
14355000000,1419,14355000000,,0.0126639373282,-0.0119623071053,-0.0205329616495,0.0,0.0,0.0
14366000000,1420,14366000000,,0.0023750271416,0.0170526985612,-0.0271909433867,0.0,0.0,0.0
14375000000,1421,14375000000,,-0.024892320143,-0.0339730986937,0.00380005112374,0.0,0.0,0.0
14386000000,1422,14386000000,,0.0626005501399,-0.0130920399279,0.0257674736572,0.0,0.0,0.0
14396000000,1423,14396000000,,0.0169708870173,0.0137176199832,0.0287389999004,0.0,0.0,0.0
14406000000,1424,14406000000,,0.0272376422759,-0.0166032107497,-0.0335982097557,0.0,0.0,0.0
14415000000,1425,14415000000,,-0.0131243245875,0.0316396654085,-0.0217211458501,0.0,0.0,0.0
14425000000,1426,14425000000,,-0.0328064799102,0.0297087957636,0.022112681344,0.0,0.0,0.0
14439000000,1427,14439000000,,-0.00592162701007,0.020397000516,-0.0458581862373,0.0,0.0,0.0
14445000000,1428,14445000000,,-0.00762506509553,-0.00748265393522,-0.0256298220733,0.0,0.0,0.0
14456000000,1429,14456000000,,-0.0287675135816,-0.00586030490372,0.00233578195365,0.0,0.0,0.0
14465000000,1430,14465000000,,0.00946895591587,0.00229610638957,-0.0223106995892,0.0,0.0,0.0
14476000000,1431,14476000000,,-0.0157110649279,0.0166800989678,-0.00298765956305,0.0,0.0,0.0
14485000000,1432,14485000000,,0.0250860977753,-0.00768216988823,-0.00614776501628,0.0,0.0,0.0
14495000000,1433,14495000000,,0.0374668556872,0.0117887356559,-0.0134864216763,0.0,0.0,0.0
14505000000,1434,14505000000,,0.0214217809735,-0.00939351427282,0.0125032266805,0.0,0.0,0.0
14515000000,1435,14515000000,,-0.00439413747027,0.00543099221605,0.00850655194575,0.0,0.0,0.0
14526000000,1436,14526000000,,-0.0073391881312,-0.00662405283799,0.0210781738913,0.0,0.0,0.0
14535000000,1437,14535000000,,-0.0115848178829,-0.0194774744418,-0.00493708535694,0.0,0.0,0.0
14545000000,1438,14545000000,,-0.0313291923661,-0.0141478501506,0.0165326633239,0.0,0.0,0.0
14556000000,1439,14556000000,,0.0334123441741,0.0173316912181,0.0171907522421,0.0,0.0,0.0
14566000000,1440,14566000000,,0.0181008515623,0.00547916261055,0.00988976175626,0.0,0.0,0.0
14576000000,1441,14576000000,,0.00438832888888,0.0172735230415,0.0480288781441,0.0,0.0,0.0
14585000000,1442,14585000000,,0.0277855466416,-0.0258736828272,-0.0090538491337,0.0,0.0,0.0
14596000000,1443,14596000000,,-0.00879203277104,0.026610692909,0.0211571764887,0.0,0.0,0.0
14605000000,1444,14605000000,,0.0271626786851,0.0232123278969,-0.00917363738015,0.0,0.0,0.0
14615000000,1445,14615000000,,-0.00783235645098,0.00603269076853,0.0248227157916,0.0,0.0,0.0
14625000000,1446,14625000000,,0.0197194197535,0.00268336266373,-0.0388143751612,0.0,0.0,0.0
14635000000,1447,14635000000,,0.0185408825578,-0.00640560945881,-0.0199929002587,0.0,0.0,0.0
14646000000,1448,14646000000,,-0.020834390794,-0.0137893571837,-0.0271711598288,0.0,0.0,0.0
14655000000,1449,14655000000,,0.0146248448221,-0.00203931307255,0.00583672918459,0.0,0.0,0.0
14666000000,1450,14666000000,,0.0275330980994,-0.0348632172532,-0.0201781191977,0.0,0.0,0.0
14676000000,1451,14676000000,,0.00960863650317,-0.0384412239389,-0.00911593504435,0.0,0.0,0.0
14685000000,1452,14685000000,,-0.0271565328236,-0.0233421961287,0.0203147097346,0.0,0.0,0.0
14697000000,1453,14697000000,,-0.0107500042209,0.0354973483979,-0.00803261728555,0.0,0.0,0.0
14706000000,1454,14706000000,,-0.0364740302065,-0.0413262332969,0.00226542834183,0.0,0.0,0.0
14716000000,1455,14716000000,,0.00935412398585,0.0247045932206,0.0214212556969,0.0,0.0,0.0
14725000000,1456,14725000000,,-0.00941060900611,0.00542466313767,0.0239823517018,0.0,0.0,0.0
14736000000,1457,14736000000,,-0.0200060899846,0.00497642920391,0.0223047331547,0.0,0.0,0.0
14746000000,1458,14746000000,,-0.0112164353189,0.0162341304936,-0.00620338747915,0.0,0.0,0.0
14755000000,1459,14755000000,,-0.0108830345492,0.0120129503976,0.0370889386826,0.0,0.0,0.0
14766000000,1460,14766000000,,0.0215543897998,-0.00432443891174,0.0117685161786,0.0,0.0,0.0
14776000000,1461,14776000000,,-0.0395818327952,-0.0314014011246,0.0166248874034,0.0,0.0,0.0
14785000000,1462,14785000000,,0.00496436631535,0.0296845217423,0.0184104770361,0.0,0.0,0.0
14795000000,1463,14795000000,,-0.00461684704671,-0.0127449916407,0.0367040227517,0.0,0.0,0.0
14806000000,1464,14806000000,,0.0166030449535,-5.0006807817e-06,0.0112598589575,0.0,0.0,0.0
14815000000,1465,14815000000,,0.0281014515225,0.00591153123765,0.00403086071287,0.0,0.0,0.0
14825000000,1466,14825000000,,0.00186223561761,0.00292819853101,0.0223521264956,0.0,0.0,0.0
14837000000,1467,14837000000,,0.0202597917813,0.00353881379186,0.0168017477684,0.0,0.0,0.0
14845000000,1468,14845000000,,-0.00204737200089,-0.00914480095008,0.0142646522792,0.0,0.0,0.0
14854000000,1469,14854000000,,0.00733842663535,0.0425190339364,-0.00808615974379,0.0,0.0,0.0
14865000000,1470,14865000000,,-0.00288165501553,-0.00650175937842,-0.0166619512765,0.0,0.0,0.0
14875000000,1471,14875000000,,-0.0256030784061,0.00982187519948,0.00798519656124,0.0,0.0,0.0
14884000000,1472,14884000000,,0.023262047464,-0.0210004599337,0.0143663280603,0.0,0.0,0.0
14895000000,1473,14895000000,,-0.0145773285084,0.00378904499247,0.0269021057126,0.0,0.0,0.0
14905000000,1474,14905000000,,0.0456750848332,0.028973896805,0.00677718512045,0.0,0.0,0.0
14915000000,1475,14915000000,,-0.0341700391399,0.0026412646723,0.0119232344541,0.0,0.0,0.0
14925000000,1476,14925000000,,0.0176725184698,0.0318963183514,0.0277144163716,0.0,0.0,0.0
14935000000,1477,14935000000,,-0.0280442270234,0.0342669414142,0.0213186076513,0.0,0.0,0.0
14945000000,1478,14945000000,,0.00463585841095,0.00959852348004,-0.0102314261594,0.0,0.0,0.0
14955000000,1479,14955000000,,-0.00465203337027,-0.00761538226493,0.00997651561943,0.0,0.0,0.0
14965000000,1480,14965000000,,-0.0380054231465,-0.0318985035868,0.0176832540233,0.0,0.0,0.0
14975000000,1481,14975000000,,0.0393516070184,-0.00665800299725,-0.032153536241,0.0,0.0,0.0
14986000000,1482,14986000000,,0.00444188071771,0.00925317523644,0.0303915965763,0.0,0.0,0.0
14996000000,1483,14996000000,,-0.0177027300689,0.00880832159614,0.0287500167274,0.0,0.0,0.0
15005000000,1484,15005000000,,-0.00925166908917,-0.00618384095948,0.0146033576687,0.0,0.0,0.0
15015000000,1485,15015000000,,-0.0193462847555,-0.0252695119585,0.0233000223535,0.0,0.0,0.0
15025000000,1486,15025000000,,-0.0108052855493,-0.016885876308,0.0388888403567,0.0,0.0,0.0
15035000000,1487,15035000000,,-0.0145170674404,0.0168976185458,0.0283222558127,0.0,0.0,0.0
15046000000,1488,15046000000,,0.0319008804875,0.0243762689581,-0.0191268834371,0.0,0.0,0.0
15056000000,1489,15056000000,,-0.000132762896387,0.00729872174509,0.0206843145446,0.0,0.0,0.0
15065000000,1490,15065000000,,-0.0196737060061,0.0241228026535,0.0138733097508,0.0,0.0,0.0
15075000000,1491,15075000000,,0.012485532072,0.0193545630252,0.0316865857069,0.0,0.0,0.0
15085000000,1492,15085000000,,-0.0131050929875,0.012591657636,0.0285181855804,0.0,0.0,0.0
15095000000,1493,15095000000,,-0.0227282560709,-0.0122225619879,0.00290433029876,0.0,0.0,0.0
15105000000,1494,15105000000,,-0.0130685682819,0.0069333127587,0.0300146403281,0.0,0.0,0.0
15115000000,1495,15115000000,,-0.00884487022191,0.024308198499,0.0201990974579,0.0,0.0,0.0
15125000000,1496,15125000000,,0.0186610119217,0.0316987258373,0.0249187953829,0.0,0.0,0.0
15135000000,1497,15135000000,,0.0137572089822,-0.0252044184354,0.00569299972295,0.0,0.0,0.0
15145000000,1498,15145000000,,-0.034204791002,-0.00769053780693,-0.0150740776667,0.0,0.0,0.0
15155000000,1499,15155000000,,-0.0127026474317,0.0243750395005,-0.0129141988246,0.0,0.0,0.0
15165000000,1500,15165000000,,-0.0178004499468,-0.00438067108559,0.00645502131152,0.0,0.0,0.0
15175000000,1501,15175000000,,-0.0230845942091,-0.0135072664528,-0.0127107926822,0.0,0.0,0.0
15185000000,1502,15185000000,,-0.0123651538404,-0.0135829610666,0.0150539072904,0.0,0.0,0.0
15196000000,1503,15196000000,,-0.0394937043514,-0.00546798271966,0.0304238400648,0.0,0.0,0.0
15205000000,1504,15205000000,,-0.00805610962326,0.00337300054187,0.0579254648823,0.0,0.0,0.0
15215000000,1505,15215000000,,-0.0183197200275,0.0164706381377,0.0327854430828,0.0,0.0,0.0
15226000000,1506,15226000000,,-0.00997415920007,-0.0102879182049,-0.00189422609915,0.0,0.0,0.0
15235000000,1507,15235000000,,0.00721499317666,-0.0293617750425,0.0153483252008,0.0,0.0,0.0
15245000000,1508,15245000000,,0.0174055475662,-0.0168238858887,0.0199821824743,0.0,0.0,0.0
15256000000,1509,15256000000,,-0.026444568168,-0.0151275372717,0.0284685803073,0.0,0.0,0.0
15265000000,1510,15265000000,,0.0181573283453,0.00283885913998,-0.0445323586308,0.0,0.0,0.0
15276000000,1511,15276000000,,0.0279629343685,-0.0127853116498,0.019961727546,0.0,0.0,0.0
15285000000,1512,15285000000,,0.0156570626601,-0.0093716179663,-0.00651565726585,0.0,0.0,0.0
15295000000,1513,15295000000,,0.000955892331249,0.0313773269784,0.0253692754166,0.0,0.0,0.0
15305000000,1514,15305000000,,0.0322173368667,0.0175237477155,0.0388680956498,0.0,0.0,0.0
15316000000,1515,15316000000,,0.0123114316434,0.0135577415262,0.0168918848982,0.0,0.0,0.0
15325000000,1516,15325000000,,-0.0325739985399,-0.0134299385391,0.0566654461466,0.0,0.0,0.0
15336000000,1517,15336000000,,-0.000967175217565,0.00942520590771,-0.0082737804681,0.0,0.0,0.0
15345000000,1518,15345000000,,-0.0248028082212,0.00731590782046,-0.000120350046493,0.0,0.0,0.0
15358000000,1519,15358000000,,-0.00161201806579,-0.021029423771,0.0246611577328,0.0,0.0,0.0
15366000000,1520,15366000000,,-0.00915276709683,-0.0262809234896,0.0133251114622,0.0,0.0,0.0
15372000000,1521,15372000000,,-0.0503804443328,-0.0291892387668,0.0152578613863,0.0,0.0,0.0
15385000000,1522,15385000000,,0.00187724325626,0.0256184430324,0.0117143107966,0.0,0.0,0.0
15397000000,1523,15397000000,,-0.00561656717591,0.0169982508017,0.00461768727574,0.0,0.0,0.0
15405000000,1524,15405000000,,-0.00376412011562,-0.0104908216729,-0.00692382250078,0.0,0.0,0.0
15415000000,1525,15415000000,,0.0155832240224,0.0105794893899,0.00484491324403,0.0,0.0,0.0
15426000000,1526,15426000000,,0.00595686674169,0.00630943823712,0.0110771486393,0.0,0.0,0.0
15436000000,1527,15436000000,,-0.0036402718701,0.00355813700062,0.0133195417457,0.0,0.0,0.0
15445000000,1528,15445000000,,0.00881793488635,-0.000835520851286,-0.0134908569296,0.0,0.0,0.0
15455000000,1529,15455000000,,0.00685295374907,-0.0228444932713,0.00691170802451,0.0,0.0,0.0
15466000000,1530,15466000000,,-0.0203578173398,0.0156140031728,0.00854128270936,0.0,0.0,0.0
15475000000,1531,15475000000,,0.00122990216993,0.00976859290701,0.0284883083164,0.0,0.0,0.0
15485000000,1532,15485000000,,0.0397837538364,-0.0546923908439,0.0178105922964,0.0,0.0,0.0
15496000000,1533,15496000000,,-0.00525554817438,-0.0130173871138,-0.005371851541,0.0,0.0,0.0
15505000000,1534,15505000000,,0.0151697794519,0.0149252101505,0.0190652835646,0.0,0.0,0.0
15515000000,1535,15515000000,,-0.00319312108699,0.0185462889188,-0.0044563884956,0.0,0.0,0.0
15525000000,1536,15525000000,,0.0291164227079,-0.00805255050929,0.00320739572644,0.0,0.0,0.0
15535000000,1537,15535000000,,0.00254082151689,0.00503364994542,0.0159700972545,0.0,0.0,0.0
15548000000,1538,15548000000,,-0.0058627951803,-0.0033623337375,0.00259658975184,0.0,0.0,0.0
15555000000,1539,15555000000,,0.0196986556659,0.00310202040175,-0.00774363282938,0.0,0.0,0.0
15566000000,1540,15566000000,,-0.00332651814864,-0.00426831635437,0.0227322218534,0.0,0.0,0.0
15576000000,1541,15576000000,,-0.019535460968,0.00877553664251,-0.00874616731865,0.0,0.0,0.0
15585000000,1542,15585000000,,0.0122799951019,-0.0150586131884,0.0290976434498,0.0,0.0,0.0
15596000000,1543,15596000000,,-0.0302594859271,0.0124047708845,-0.00661025737935,0.0,0.0,0.0
15605000000,1544,15605000000,,0.0031960927307,0.0234803637238,-0.0166380435346,0.0,0.0,0.0
15616000000,1545,15616000000,,0.00320584103676,0.00899807714512,-0.0185794916843,0.0,0.0,0.0
15625000000,1546,15625000000,,0.0460577832833,0.00423221104144,-0.0207467120013,0.0,0.0,0.0
15635000000,1547,15635000000,,-0.00217167222315,-0.0224125464745,0.011204993477,0.0,0.0,0.0
15646000000,1548,15646000000,,0.0411975267472,0.000332350061736,-0.00313124330713,0.0,0.0,0.0
15655000000,1549,15655000000,,0.0137129190595,0.0133738209176,0.0219770610066,0.0,0.0,0.0
15665000000,1550,15665000000,,0.00346758930733,0.0237557888802,0.013519273627,0.0,0.0,0.0
15675000000,1551,15675000000,,0.000924164388973,-0.0257532743157,-0.0260871104141,0.0,0.0,0.0
15686000000,1552,15686000000,,-0.0283992292638,-0.0140653352839,0.0127002367327,0.0,0.0,0.0
15695000000,1553,15695000000,,-0.00495595607129,0.00371871580544,-0.0150491470911,0.0,0.0,0.0
15706000000,1554,15706000000,,0.0310348726538,-0.00149383844932,-0.0234460502641,0.0,0.0,0.0
15715000000,1555,15715000000,,-0.0186669060712,0.0499877501165,-0.038521156858,0.0,0.0,0.0
15725000000,1556,15725000000,,-0.0127634706595,0.00212802417002,0.0191706088113,0.0,0.0,0.0
15736000000,1557,15736000000,,-0.0215734448834,-0.014561368674,0.0118616341757,0.0,0.0,0.0
15747000000,1558,15747000000,,0.0196404258861,0.00246948716645,-0.00339223513858,0.0,0.0,0.0
15755000000,1559,15755000000,,0.0327882419308,0.0269307455412,-0.0134162431682,0.0,0.0,0.0
15766000000,1560,15766000000,,0.00578317654972,-0.00340374025443,-0.0158950557365,0.0,0.0,0.0
15775000000,1561,15775000000,,-0.00700387736905,0.0222745057666,-0.025009169017,0.0,0.0,0.0
15785000000,1562,15785000000,,-0.00772746746385,-0.0169201398089,0.0127043519076,0.0,0.0,0.0
15795000000,1563,15795000000,,0.0275682844876,-0.000619285219071,-0.0151105079441,0.0,0.0,0.0
15806000000,1564,15806000000,,-0.018795356364,-0.000498291389382,-0.027918725223,0.0,0.0,0.0
15817000000,1565,15817000000,,0.004123540809,0.00911356460951,-0.0161325045618,0.0,0.0,0.0
15826000000,1566,15826000000,,-0.00198165744447,-0.00539882705257,-0.00180678649125,0.0,0.0,0.0
15835000000,1567,15835000000,,-0.0179167550808,0.00574494854645,0.00912058357486,0.0,0.0,0.0
15845000000,1568,15845000000,,-0.0102246886304,0.0159527274026,-0.029622528588,0.0,0.0,0.0
15855000000,1569,15855000000,,-0.0311847036985,-0.00987286396708,-0.0263989396161,0.0,0.0,0.0
15866000000,1570,15866000000,,0.00210716095464,-0.034630396865,-0.015934707779,0.0,0.0,0.0
15875000000,1571,15875000000,,-0.0277255871321,0.00420661187798,0.0177735938526,0.0,0.0,0.0
15888000000,1572,15888000000,,-0.00770103632399,0.0144360686411,0.0238437631723,0.0,0.0,0.0
15895000000,1573,15895000000,,-0.014905117105,0.0103569123647,-0.00491710530054,0.0,0.0,0.0
15905000000,1574,15905000000,,-0.00820579856265,0.0119479748735,0.0128208824207,0.0,0.0,0.0
15916000000,1575,15916000000,,-0.00319340355352,0.0328182982405,-0.0264149277977,0.0,0.0,0.0
15925000000,1576,15925000000,,-0.0017184644515,0.0118149407589,-0.00385116286564,0.0,0.0,0.0
15935000000,1577,15935000000,,0.00477032425813,-0.00239492350818,0.0178663866292,0.0,0.0,0.0
15946000000,1578,15946000000,,-0.01603928562,0.0173323853054,-0.0161248162043,0.0,0.0,0.0
15955000000,1579,15955000000,,-0.00543369941298,-0.0296877325941,-0.0130275213867,0.0,0.0,0.0
15965000000,1580,15965000000,,-0.0292570946957,-0.0199663913074,-0.0513593702637,0.0,0.0,0.0
15976000000,1581,15976000000,,0.00612194468139,-0.0165979940996,0.00260826575257,0.0,0.0,0.0
15986000000,1582,15986000000,,-0.0044648442183,-0.00223499837635,0.0264318180358,0.0,0.0,0.0
15995000000,1583,15995000000,,0.0259673830917,0.00371973270468,0.000714492979529,0.0,0.0,0.0
16005000000,1584,16005000000,,-0.00956662223924,-0.0143482371538,0.00895896834179,0.0,0.0,0.0
16016000000,1585,16016000000,,-0.0126617467957,-0.000298220011344,-0.00114741270921,0.0,0.0,0.0
16025000000,1586,16025000000,,-0.0103285398184,0.0113274771372,0.00990409357982,0.0,0.0,0.0
16035000000,1587,16035000000,,-0.0357264490776,0.00243496688261,0.0180759204459,0.0,0.0,0.0
16046000000,1588,16046000000,,-0.00638090113281,0.0130728794463,0.00312627036349,0.0,0.0,0.0
16056000000,1589,16056000000,,0.0228041923286,0.0151270771176,-0.00599610691548,0.0,0.0,0.0
16065000000,1590,16065000000,,-0.0193707311858,-0.0431101691021,0.00579942830337,0.0,0.0,0.0
16076000000,1591,16076000000,,0.0115784069173,0.0180233886862,0.0277150069653,0.0,0.0,0.0
16085000000,1592,16085000000,,0.0276362291935,0.0160983533631,0.00676770795038,0.0,0.0,0.0
16095000000,1593,16095000000,,0.0270441937475,-0.00172585958513,-0.00999946615697,0.0,0.0,0.0
16105000000,1594,16105000000,,0.0418090906031,-0.0103636299527,-0.0194967608535,0.0,0.0,0.0
16116000000,1595,16116000000,,0.00395802707652,0.0130399977139,0.0087066452407,0.0,0.0,0.0
16126000000,1596,16126000000,,-0.00761084012991,0.00478156956878,0.000131105464367,0.0,0.0,0.0
16135000000,1597,16135000000,,0.00487552169664,-0.0106357494928,-0.00369016082643,0.0,0.0,0.0
16146000000,1598,16146000000,,-0.0151637940958,-0.0108051251042,0.0243504180612,0.0,0.0,0.0
16156000000,1599,16156000000,,-0.0025275071022,-0.0342572836114,-0.0241040744076,0.0,0.0,0.0
16166000000,1600,16166000000,,0.0144050570728,-0.0109858703077,-0.0324395717661,0.0,0.0,0.0
16176000000,1601,16176000000,,0.0181469132418,-0.0138343604522,-0.0363944185832,0.0,0.0,0.0
16186000000,1602,16186000000,,0.0130436075506,-0.0136963008006,-0.0207128528731,0.0,0.0,0.0
16195000000,1603,16195000000,,-0.00774264715301,0.00717781427363,-0.0030884454316,0.0,0.0,0.0
16206000000,1604,16206000000,,-0.00355368046359,0.0218382044056,0.00783225913378,0.0,0.0,0.0
16215000000,1605,16215000000,,0.0407780755372,-0.0294887383228,-0.0201054434109,0.0,0.0,0.0
16226000000,1606,16226000000,,0.000220550280385,-0.00494718850219,0.0299386749591,0.0,0.0,0.0
16236000000,1607,16236000000,,0.0137889635774,-0.00397712415879,-0.00205485142476,0.0,0.0,0.0
16245000000,1608,16245000000,,0.0101030549635,-0.0264845905956,0.0135414688604,0.0,0.0,0.0
16257000000,1609,16257000000,,0.0216156023088,-0.0409676167143,-0.00520300743671,0.0,0.0,0.0
16266000000,1610,16266000000,,0.0228504398875,0.0211818274396,-0.0112955904347,0.0,0.0,0.0
16276000000,1611,16276000000,,-0.0231492640432,0.0157163195337,-0.0180673811945,0.0,0.0,0.0
16286000000,1612,16286000000,,0.015048715505,0.0353914506494,0.000453017214163,0.0,0.0,0.0
16295000000,1613,16295000000,,0.00693850890821,-0.00798371128095,-0.020644923742,0.0,0.0,0.0
16305000000,1614,16305000000,,-0.0195603159524,-0.0406349861462,-0.000225637650712,0.0,0.0,0.0
16315000000,1615,16315000000,,-0.0136767603702,0.0106383542499,-0.0255797247696,0.0,0.0,0.0
16325000000,1616,16325000000,,0.00788630050624,0.0329959369723,-0.0145529627781,0.0,0.0,0.0
16335000000,1617,16335000000,,-0.026736703075,-0.00235348987296,-0.0232082044535,0.0,0.0,0.0
16345000000,1618,16345000000,,-0.0261844634039,0.0297571063011,-0.0157242141399,0.0,0.0,0.0
16356000000,1619,16356000000,,0.0037773512516,-0.0223270154222,-0.0220185305576,0.0,0.0,0.0
16365000000,1620,16365000000,,0.00943998599575,-0.0216573820801,-0.000483310406933,0.0,0.0,0.0
16376000000,1621,16376000000,,-0.0241801145259,0.0154882812753,-0.00511527610889,0.0,0.0,0.0
16386000000,1622,16386000000,,0.00109542410441,-0.011595699804,0.00638539991199,0.0,0.0,0.0
16396000000,1623,16396000000,,-0.0646125117956,-0.0350683661469,0.00153254846142,0.0,0.0,0.0
16405000000,1624,16405000000,,-0.00436247738387,0.0082915936193,0.00161574246275,0.0,0.0,0.0
16416000000,1625,16416000000,,0.00627927927277,-0.00178562221236,-0.00365961768124,0.0,0.0,0.0
16425000000,1626,16425000000,,-0.0225433226747,-0.0148341993259,-0.019380710112,0.0,0.0,0.0
16435000000,1627,16435000000,,-0.0533509352534,-0.00726791457608,0.0139185839333,0.0,0.0,0.0
16446000000,1628,16446000000,,0.00236515182873,-0.00242439642975,-0.00713326977498,0.0,0.0,0.0
16456000000,1629,16456000000,,-0.022852761762,-0.0128187037699,-0.0433925586229,0.0,0.0,0.0
16466000000,1630,16466000000,,-0.0349520887253,-0.0138193455421,-0.0167484862228,0.0,0.0,0.0
16476000000,1631,16476000000,,-0.0267443164946,0.00341234294301,-0.0277875403269,0.0,0.0,0.0
16486000000,1632,16486000000,,0.00304408695434,-0.0321580649002,-0.0171424143683,0.0,0.0,0.0
16496000000,1633,16496000000,,-0.0468598077014,-0.0191844615463,-0.0366796472222,0.0,0.0,0.0
16506000000,1634,16506000000,,-0.00367126950513,-0.00886303462596,-0.0198240642436,0.0,0.0,0.0
16515000000,1635,16515000000,,0.0175592023068,0.0265207259871,0.0117560695884,0.0,0.0,0.0
16525000000,1636,16525000000,,-0.00702802157804,-0.00392949627033,-0.00159192147225,0.0,0.0,0.0
16536000000,1637,16536000000,,-0.0191277873919,0.0166012178804,0.0240638045261,0.0,0.0,0.0
16545000000,1638,16545000000,,-0.0263352693162,0.0274191447705,0.013390430589,0.0,0.0,0.0
16555000000,1639,16555000000,,-0.0228012291686,-0.01157154807,-0.000783617859627,0.0,0.0,0.0
16565000000,1640,16565000000,,-0.0127187511165,0.0280960897782,0.0148730782007,0.0,0.0,0.0
16576000000,1641,16576000000,,0.0278950819241,-0.0215500833088,-0.0261693167466,0.0,0.0,0.0
16586000000,1642,16586000000,,0.0111285894799,-0.0220811562641,-0.0113041675987,0.0,0.0,0.0
16595000000,1643,16595000000,,-0.00374799005262,-0.00454262884929,-0.0197857713801,0.0,0.0,0.0
16605000000,1644,16605000000,,0.0124260347718,0.00673146790522,-0.00676047186625,0.0,0.0,0.0
16615000000,1645,16615000000,,-0.00935086223565,0.0395651639849,0.0168920865278,0.0,0.0,0.0
16625000000,1646,16625000000,,0.0186950321362,0.0167685737368,-0.0131286583519,0.0,0.0,0.0
16635000000,1647,16635000000,,-0.038896281345,-0.0153600572205,0.0124218853215,0.0,0.0,0.0
16646000000,1648,16646000000,,0.0228470155966,0.00867687307508,-0.0295151479464,0.0,0.0,0.0
16655000000,1649,16655000000,,-0.0457703066007,-0.0358192558732,-0.00539655104479,0.0,0.0,0.0
16665000000,1650,16665000000,,-0.0302572570417,0.000654580762239,-0.00154691841867,0.0,0.0,0.0
16675000000,1651,16675000000,,-0.00149193278234,-0.0260113614643,0.00291930461477,0.0,0.0,0.0
16685000000,1652,16685000000,,0.00675884410312,0.021263907465,-0.0137452309357,0.0,0.0,0.0
16695000000,1653,16695000000,,-0.0106472583744,-0.0344725257165,-0.00652753593693,0.0,0.0,0.0
16706000000,1654,16706000000,,0.0220976231937,-0.0031174841046,0.00370041724717,0.0,0.0,0.0
16719000000,1655,16719000000,,-0.0330372243173,-0.0545279553738,0.0226332285605,0.0,0.0,0.0
16726000000,1656,16726000000,,0.025787521226,0.00523280645409,-0.00383827570201,0.0,0.0,0.0
16735000000,1657,16735000000,,-0.0172947539216,-0.00600828838133,0.00911750630657,0.0,0.0,0.0
16745000000,1658,16745000000,,0.000863817469761,0.0226725848224,-0.0297684152007,0.0,0.0,0.0
16757000000,1659,16757000000,,0.0020396291541,-0.0143203908397,0.00139022948764,0.0,0.0,0.0
16766000000,1660,16766000000,,0.0138788139463,0.0125510697123,-0.0155971047364,0.0,0.0,0.0
16775000000,1661,16775000000,,0.0299470884849,-0.00796908247528,-0.0521268899756,0.0,0.0,0.0
16785000000,1662,16785000000,,-0.0167082230104,-0.012742173474,0.0031416882841,0.0,0.0,0.0
16795000000,1663,16795000000,,0.00470321421024,0.0150251939973,-0.0109512706733,0.0,0.0,0.0
16805000000,1664,16805000000,,-0.0109306802829,-0.0112480821269,0.00380414525703,0.0,0.0,0.0
16815000000,1665,16815000000,,0.0238256163355,-0.03131368516,-0.00603471254807,0.0,0.0,0.0
16826000000,1666,16826000000,,-0.0397909041039,0.0185160940868,-0.00667388855519,0.0,0.0,0.0
16835000000,1667,16835000000,,0.043089789065,-0.00366624545596,-0.0155151484857,0.0,0.0,0.0
16846000000,1668,16846000000,,-0.00819334873253,0.0379858139508,0.0168221555598,0.0,0.0,0.0
16855000000,1669,16855000000,,-0.00661790052609,0.0084541257398,0.0199866137395,0.0,0.0,0.0
16866000000,1670,16866000000,,0.0280103537145,0.00195101819939,0.00993708309555,0.0,0.0,0.0
16875000000,1671,16875000000,,0.0189949081837,-0.0299403244942,0.00824666956055,0.0,0.0,0.0
16886000000,1672,16886000000,,0.00237302062371,-0.00800890130022,0.0189276141256,0.0,0.0,0.0
16895000000,1673,16895000000,,0.0293942553765,-0.0289917539016,-0.00635738301604,0.0,0.0,0.0
16906000000,1674,16906000000,,-0.0208025466551,0.000383649950665,-0.00586590734927,0.0,0.0,0.0
16916000000,1675,16916000000,,0.00149325185978,-0.0135426764153,0.00233779607277,0.0,0.0,0.0
16925000000,1676,16925000000,,-0.0219721454074,0.0247079462435,0.0172687493261,0.0,0.0,0.0
16936000000,1677,16936000000,,0.0420801549665,0.00374974691348,-0.0029087335333,0.0,0.0,0.0
16947000000,1678,16947000000,,-0.01093111623,-0.000886975057767,-0.00823786674875,0.0,0.0,0.0
16955000000,1679,16955000000,,0.00271185007528,0.0167261719165,-0.0163418938239,0.0,0.0,0.0
16965000000,1680,16965000000,,0.0014116273274,0.0010467714221,-0.00981095826338,0.0,0.0,0.0
16976000000,1681,16976000000,,0.00576092230115,0.00124723949878,0.00260189973082,0.0,0.0,0.0
16985000000,1682,16985000000,,0.0133471872266,-0.0301332659902,0.00900018607796,0.0,0.0,0.0
16995000000,1683,16995000000,,-0.0219549368064,0.0098529781493,0.0398257569838,0.0,0.0,0.0
17006000000,1684,17006000000,,0.014906255391,-0.0248369610521,0.0103122643666,0.0,0.0,0.0
17015000000,1685,17015000000,,-0.000526635618485,0.0121168896259,-0.00404454213682,0.0,0.0,0.0
17026000000,1686,17026000000,,0.0157496115035,0.0458631700686,0.00509443729629,0.0,0.0,0.0
17035000000,1687,17035000000,,-0.015924030429,0.004554221872,0.0262124272124,0.0,0.0,0.0
17045000000,1688,17045000000,,-0.0395207643748,0.00805547536069,0.0286890211904,0.0,0.0,0.0
17055000000,1689,17055000000,,-0.00606650503944,-0.0361937878488,0.00655262775113,0.0,0.0,0.0
17065000000,1690,17065000000,,0.0206977770574,0.00619530728983,0.0251006338308,0.0,0.0,0.0
17076000000,1691,17076000000,,-0.0362850543956,0.00636455241568,0.0042718561669,0.0,0.0,0.0
17085000000,1692,17085000000,,0.00899477340417,0.00399006481383,0.00440879803912,0.0,0.0,0.0
17095000000,1693,17095000000,,-0.00490426869824,-0.00996758236827,0.0111859500756,0.0,0.0,0.0
17105000000,1694,17105000000,,0.00685844424366,-0.0144146313862,0.0141776839104,0.0,0.0,0.0
17116000000,1695,17116000000,,-0.0299370456274,0.00826554649796,-0.000790973451155,0.0,0.0,0.0
17126000000,1696,17126000000,,0.0292810790122,-0.0153983042954,0.000735931549972,0.0,0.0,0.0
17135000000,1697,17135000000,,0.00926634822035,0.0120202629254,0.0381466864317,0.0,0.0,0.0
17145000000,1698,17145000000,,-0.0144309267928,-0.0037255790122,0.0477822031013,0.0,0.0,0.0
17155000000,1699,17155000000,,-0.0137584815137,0.000447217427161,0.014823006641,0.0,0.0,0.0
17165000000,1700,17165000000,,-0.00375586103071,0.0416047225719,0.0166152080768,0.0,0.0,0.0
17175000000,1701,17175000000,,0.00120657162462,-0.0299485958072,0.0112725930657,0.0,0.0,0.0
17185000000,1702,17185000000,,0.00520074585583,0.0208272513405,0.0087521514756,0.0,0.0,0.0
17195000000,1703,17195000000,,-0.0587376928379,0.0427826147368,0.00899098538036,0.0,0.0,0.0
17205000000,1704,17205000000,,0.016770981578,-0.0027187224525,0.0319929870036,0.0,0.0,0.0
17215000000,1705,17215000000,,-0.018970896649,0.00663609498897,0.0238277820502,0.0,0.0,0.0
17226000000,1706,17226000000,,0.000492636874203,0.00381044805865,0.0294604563509,0.0,0.0,0.0
17236000000,1707,17236000000,,-0.00515418355233,-0.00459448252337,0.00418799299212,0.0,0.0,0.0
17245000000,1708,17245000000,,0.0210329006477,-0.0468884574546,0.027407526835,0.0,0.0,0.0
17255000000,1709,17255000000,,-0.00562029982711,-0.00103333775772,0.0289750157644,0.0,0.0,0.0
17265000000,1710,17265000000,,0.0669054095949,0.0187228856167,-0.0255187973907,0.0,0.0,0.0
17275000000,1711,17275000000,,0.0234869034551,-0.0183136125705,0.0360222087535,0.0,0.0,0.0
17287000000,1712,17287000000,,0.019669169636,-0.00202322957136,-0.0331272137331,0.0,0.0,0.0
17295000000,1713,17295000000,,-0.0438752000814,0.0049151870382,0.0249236714308,0.0,0.0,0.0
17305000000,1714,17305000000,,0.0196318249335,0.0117880076532,0.042145700825,0.0,0.0,0.0
17315000000,1715,17315000000,,0.030333860062,-0.00545089419061,0.0472315062397,0.0,0.0,0.0
17325000000,1716,17325000000,,0.0236479147172,-0.0125226376537,0.031966269132,0.0,0.0,0.0
17335000000,1717,17335000000,,-0.00313271927319,0.0178516293701,0.0270411452396,0.0,0.0,0.0
17345000000,1718,17345000000,,-0.00645964111425,0.0112420206095,0.00871696652441,0.0,0.0,0.0
17355000000,1719,17355000000,,-0.00561579425498,0.0158550127621,0.0118764192508,0.0,0.0,0.0
17365000000,1720,17365000000,,-0.0240602595906,0.0156827922885,0.00852159335104,0.0,0.0,0.0
17375000000,1721,17375000000,,-0.033250487572,0.00702843123016,0.0202453953668,0.0,0.0,0.0
17385000000,1722,17385000000,,-0.0255838887431,-0.0144415966277,0.0307560810154,0.0,0.0,0.0
17395000000,1723,17395000000,,-0.0206944742367,0.0211942773894,-0.0329672455807,0.0,0.0,0.0
17405000000,1724,17405000000,,0.0360569209456,0.0132546891058,0.00413656369774,0.0,0.0,0.0
17416000000,1725,17416000000,,-0.0153442164391,0.0179150002653,-0.0249295715396,0.0,0.0,0.0
17426000000,1726,17426000000,,-0.0301910695993,0.0247942458679,0.045997403999,0.0,0.0,0.0
17436000000,1727,17436000000,,-0.0233496573892,0.0110595492621,0.00279075787198,0.0,0.0,0.0
17445000000,1728,17445000000,,0.00814549960984,-0.0117000199638,0.045439815321,0.0,0.0,0.0
17455000000,1729,17455000000,,-0.0345074490318,0.0133651581251,0.00508937904201,0.0,0.0,0.0
17465000000,1730,17465000000,,-0.0588151907219,-0.0261911931547,-0.000717464406594,0.0,0.0,0.0
17475000000,1731,17475000000,,0.0199707087684,-0.00308947781141,-0.0284241675273,0.0,0.0,0.0
17486000000,1732,17486000000,,0.00272422301838,0.0287197580923,0.023856294609,0.0,0.0,0.0
17498000000,1733,17498000000,,0.00512598649231,0.0225470126321,0.0282517993368,0.0,0.0,0.0
17506000000,1734,17506000000,,0.0165642278446,-0.0250011594622,-0.00168005796183,0.0,0.0,0.0
17517000000,1735,17517000000,,0.00117243773487,0.00741797596711,0.0306679433706,0.0,0.0,0.0
17526000000,1736,17526000000,,-0.0565799459423,0.00155630339871,-0.0333548142368,0.0,0.0,0.0
17535000000,1737,17535000000,,0.0110334540765,0.0073855373791,0.0160333599505,0.0,0.0,0.0
17546000000,1738,17546000000,,0.0101810551035,-0.0407316977399,0.0060948998049,0.0,0.0,0.0
17555000000,1739,17555000000,,-0.017049566412,0.0136159222104,0.0111890161551,0.0,0.0,0.0
17565000000,1740,17565000000,,-0.00881762070409,0.00462213046789,0.0218990133339,0.0,0.0,0.0
17579000000,1741,17579000000,,0.0168668934955,0.0140286591841,0.0178018854307,0.0,0.0,0.0
17586000000,1742,17586000000,,-0.0256035181616,0.00168567278794,-0.0439759802759,0.0,0.0,0.0
17595000000,1743,17595000000,,0.0165417819607,0.00872521121415,-0.00215368666517,0.0,0.0,0.0
17606000000,1744,17606000000,,-0.0235228687036,-0.010570373205,0.0111128264466,0.0,0.0,0.0
17615000000,1745,17615000000,,-0.0228848448674,-0.00230102571396,-0.00532548494051,0.0,0.0,0.0
17625000000,1746,17625000000,,0.0444623166591,0.00208535228856,0.011200614207,0.0,0.0,0.0
17637000000,1747,17637000000,,-0.0180397972443,0.0171045657417,0.00317942970885,0.0,0.0,0.0
17645000000,1748,17645000000,,-0.0506323540183,0.0089912213082,0.01765623652,0.0,0.0,0.0
17655000000,1749,17655000000,,0.0256173260789,-0.000474137473898,0.0163632215625,0.0,0.0,0.0
17666000000,1750,17666000000,,0.0141630977222,0.0228154181244,0.00424457607266,0.0,0.0,0.0
17675000000,1751,17675000000,,0.0188009138731,0.0234925201212,0.00553232317495,0.0,0.0,0.0
17685000000,1752,17685000000,,-0.0139989712541,0.0488685487585,0.000392019678595,0.0,0.0,0.0
17695000000,1753,17695000000,,-0.0050887012214,-0.00816144500848,0.0171100131749,0.0,0.0,0.0
17705000000,1754,17705000000,,0.0338509892638,-0.0558392811331,-0.000574452618524,0.0,0.0,0.0
17715000000,1755,17715000000,,-0.0218418965957,0.0105574751105,-0.0372587348472,0.0,0.0,0.0
17726000000,1756,17726000000,,-0.00757778282313,-0.0208120157676,0.00111443983296,0.0,0.0,0.0
17735000000,1757,17735000000,,-0.00153003114371,-0.0077887831594,0.0193506698316,0.0,0.0,0.0
17746000000,1758,17746000000,,-0.0232084886884,-0.00380241513991,0.0018591945652,0.0,0.0,0.0
17755000000,1759,17755000000,,-0.0171095044741,0.0310602252476,0.0199789411809,0.0,0.0,0.0
17766000000,1760,17766000000,,-0.0202114792146,-0.0184927568531,-0.026535054365,0.0,0.0,0.0
17776000000,1761,17776000000,,0.0339090558481,-0.00161247197075,0.0087366001918,0.0,0.0,0.0
17786000000,1762,17786000000,,0.0202459209178,0.00902027717443,0.00756094003106,0.0,0.0,0.0
17795000000,1763,17795000000,,-0.00853332256749,0.0151566409114,0.0256412714233,0.0,0.0,0.0
17805000000,1764,17805000000,,-0.00980118493731,-0.00548109406138,-0.00234093859789,0.0,0.0,0.0
17815000000,1765,17815000000,,0.0241618108575,0.0153912127438,0.0207656214647,0.0,0.0,0.0
17825000000,1766,17825000000,,0.0244977175208,-0.00237088673391,0.00404841622171,0.0,0.0,0.0
17835000000,1767,17835000000,,0.0188912222374,0.0043295863218,-0.0157926204997,0.0,0.0,0.0
17846000000,1768,17846000000,,-0.0272778915566,0.00434687488576,0.00253402036903,0.0,0.0,0.0
17855000000,1769,17855000000,,0.00355063589608,0.00271763978181,-0.022143376742,0.0,0.0,0.0
17865000000,1770,17865000000,,0.000159867942499,-0.00907645207488,0.00263917442655,0.0,0.0,0.0
17876000000,1771,17876000000,,-0.00880558675471,-0.0138426337733,0.000303298887002,0.0,0.0,0.0
17886000000,1772,17886000000,,0.00270694343818,0.0240493802965,0.00261007918584,0.0,0.0,0.0
17896000000,1773,17896000000,,0.0510958186558,-0.030331672217,0.0189154197473,0.0,0.0,0.0
17906000000,1774,17906000000,,0.0219153906398,0.0569728968641,-0.0166003952886,0.0,0.0,0.0
17915000000,1775,17915000000,,0.02456439209,-0.0303617850009,0.00831901354146,0.0,0.0,0.0
17925000000,1776,17925000000,,0.00143104321049,0.00472867424956,-0.0218356417975,0.0,0.0,0.0
17935000000,1777,17935000000,,0.0156359219934,-0.0237312799547,-0.0148229709519,0.0,0.0,0.0
17946000000,1778,17946000000,,0.0102778245077,-0.0108121932745,0.0345988536382,0.0,0.0,0.0
17956000000,1779,17956000000,,-0.0495481225501,-0.0129185532268,-0.007704511168,0.0,0.0,0.0
17965000000,1780,17965000000,,0.00493189539355,-0.0305844308622,0.00921751462849,0.0,0.0,0.0
17975000000,1781,17975000000,,0.0537883159684,-0.00223431679774,0.021985679706,0.0,0.0,0.0
17985000000,1782,17985000000,,0.00410162086029,-0.00145477509482,0.0297743867172,0.0,0.0,0.0
17996000000,1783,17996000000,,-0.00139330695595,0.0126710627021,0.00525103848023,0.0,0.0,0.0
18006000000,1784,18006000000,,0.0100185700973,0.0159198293317,-0.0212366487218,0.0,0.0,0.0
18016000000,1785,18016000000,,-0.0242476905136,0.0124979349626,-0.0257461378987,0.0,0.0,0.0
18025000000,1786,18025000000,,-0.0086654308589,0.00841635115862,-0.0209260375401,0.0,0.0,0.0
18036000000,1787,18036000000,,0.0134254850655,0.0353362016273,0.026463246971,0.0,0.0,0.0
18045000000,1788,18045000000,,0.0270106600348,-0.0129769901761,-0.0222347451729,0.0,0.0,0.0
18055000000,1789,18055000000,,-0.0155311080307,0.00791897136498,0.000148979275326,0.0,0.0,0.0
18063000000,1790,18063000000,,-0.043004831815,-0.00579027114084,0.0123644046461,0.0,0.0,0.0
18076000000,1791,18076000000,,0.00583652946622,0.0186922833561,-0.0156198774885,0.0,0.0,0.0
18085000000,1792,18085000000,,0.030036059228,0.0254955855396,-0.0470132262526,0.0,0.0,0.0
18096000000,1793,18096000000,,-0.0138145960957,0.0123541639384,-0.00353594930447,0.0,0.0,0.0
18106000000,1794,18106000000,,-0.0130853169317,-0.0309980107491,0.039623102409,0.0,0.0,0.0
18116000000,1795,18116000000,,-0.00168749495744,0.0163770106917,0.0368447233509,0.0,0.0,0.0
18125000000,1796,18125000000,,0.0249263983776,0.0263542673214,0.0323496959296,0.0,0.0,0.0
18136000000,1797,18136000000,,-0.00289452465756,0.0406246886568,-0.0284911522865,0.0,0.0,0.0
18145000000,1798,18145000000,,0.013353041894,-0.00528425803262,-0.0080415780462,0.0,0.0,0.0
18155000000,1799,18155000000,,0.0135673896189,0.023751813764,-0.0102593624981,0.0,0.0,0.0
18166000000,1800,18166000000,,0.0178131686557,0.00832465385126,0.00931983572152,0.0,0.0,0.0
18175000000,1801,18175000000,,-0.0110143092754,-0.00751276530232,0.00402199223542,0.0,0.0,0.0
18185000000,1802,18185000000,,-0.0344268066794,-0.0466064850473,-0.000400875128926,0.0,0.0,0.0
18195000000,1803,18195000000,,0.0177352424926,0.0104937529325,0.0201844868815,0.0,0.0,0.0
18205000000,1804,18205000000,,-0.0423308788456,0.0316436034733,-0.0194500339773,0.0,0.0,0.0
18215000000,1805,18215000000,,0.0323897181201,-0.00373811552946,-0.0393225567832,0.0,0.0,0.0
18225000000,1806,18225000000,,0.00439326839979,-0.0243672782604,-0.0279317473564,0.0,0.0,0.0
18235000000,1807,18235000000,,-0.0389641222174,0.00771388350197,-0.0470873524119,0.0,0.0,0.0
18245000000,1808,18245000000,,0.00767599198672,-0.020416448104,-0.0125918540877,0.0,0.0,0.0
18256000000,1809,18256000000,,-0.00388383894445,0.0277743407094,0.00251483759505,0.0,0.0,0.0
18265000000,1810,18265000000,,0.0250851949595,0.0202540590554,-0.00240550934823,0.0,0.0,0.0
18275000000,1811,18275000000,,0.0226259251584,0.0100115715454,0.00356714027466,0.0,0.0,0.0
18285000000,1812,18285000000,,0.0129805714666,-0.00143669667555,-0.029767345892,0.0,0.0,0.0
18296000000,1813,18296000000,,-0.0163460136649,0.0287314652317,0.00471096688417,0.0,0.0,0.0
18305000000,1814,18305000000,,0.0228469472237,0.00140781303293,-0.0202659530879,0.0,0.0,0.0
18316000000,1815,18316000000,,-0.0036528696499,0.00621103217093,0.0252347769239,0.0,0.0,0.0
18326000000,1816,18326000000,,-0.0219082670077,-0.0361915580862,-0.0270972718503,0.0,0.0,0.0
18336000000,1817,18336000000,,0.0313924036352,0.000542233377544,0.00583441177256,0.0,0.0,0.0
18346000000,1818,18346000000,,-0.00828865654498,-0.00323345795863,0.0222608981219,0.0,0.0,0.0
18357000000,1819,18357000000,,0.00185409637365,-0.021763257973,-0.0210739252946,0.0,0.0,0.0
18365000000,1820,18365000000,,0.0497481004726,0.0326657185733,-0.000216646591485,0.0,0.0,0.0
18376000000,1821,18376000000,,0.000547915537679,-0.00918423199942,-0.0387247372532,0.0,0.0,0.0
18385000000,1822,18385000000,,0.00219913700608,-0.012621672576,-0.0256829092441,0.0,0.0,0.0
18395000000,1823,18395000000,,-0.00744333292218,0.00131788695574,-0.0241944576111,0.0,0.0,0.0
18406000000,1824,18406000000,,0.026521164854,-0.0070987581032,-0.0350247485057,0.0,0.0,0.0
18415000000,1825,18415000000,,0.0121055611875,-0.013071298063,0.0183183490982,0.0,0.0,0.0
18426000000,1826,18426000000,,-0.0268158297657,0.0154669930944,0.0151151188964,0.0,0.0,0.0
18435000000,1827,18435000000,,0.00847304275088,-0.0103666311862,0.0216496608531,0.0,0.0,0.0
18445000000,1828,18445000000,,0.0160865208251,-0.00191292497155,0.0231571752187,0.0,0.0,0.0
18456000000,1829,18456000000,,-0.0185122484901,-0.0225432520653,0.00968710583613,0.0,0.0,0.0
18466000000,1830,18466000000,,0.0356740773289,-0.00507336429444,0.0198624977431,0.0,0.0,0.0
18475000000,1831,18475000000,,0.00355488703457,-0.0176032702003,0.0141341424868,0.0,0.0,0.0
18485000000,1832,18485000000,,0.0344274996263,0.0148380729722,-0.0155262893792,0.0,0.0,0.0
18496000000,1833,18496000000,,-0.00712395058335,-0.0341352750753,-0.00972830631676,0.0,0.0,0.0
18505000000,1834,18505000000,,-0.0343367436089,0.0117188262627,-0.0100871003074,0.0,0.0,0.0
18515000000,1835,18515000000,,0.0388422604388,0.00477630923376,-0.0243736928033,0.0,0.0,0.0
18526000000,1836,18526000000,,0.0184582405926,-0.0076162026056,-0.0161141978302,0.0,0.0,0.0
18535000000,1837,18535000000,,-0.0220377839473,-0.0516809406479,0.00506748177798,0.0,0.0,0.0
18547000000,1838,18547000000,,0.0255578413499,-0.0222189389454,-0.0171877482642,0.0,0.0,0.0
18556000000,1839,18556000000,,0.00181100413328,-0.0290639482252,-0.013409452198,0.0,0.0,0.0
18565000000,1840,18565000000,,-0.0114671119531,0.0180564024939,0.00536124953464,0.0,0.0,0.0
18575000000,1841,18575000000,,-0.0179676599849,0.0429165538709,0.00657548202374,0.0,0.0,0.0
18586000000,1842,18586000000,,0.0177035396102,-0.00813854403647,0.0269310042165,0.0,0.0,0.0
18596000000,1843,18596000000,,0.0250843620084,-0.00574500575978,0.00169553257208,0.0,0.0,0.0
18605000000,1844,18605000000,,-0.0192127000585,0.00251729805052,-0.00483960702655,0.0,0.0,0.0
18616000000,1845,18616000000,,-0.0282785960298,0.0316868106869,-0.00109912941503,0.0,0.0,0.0
18625000000,1846,18625000000,,-0.00584799687941,-0.0538457316952,-0.0401469528524,0.0,0.0,0.0
18635000000,1847,18635000000,,-0.0102163584391,-0.010533296259,0.00768159661842,0.0,0.0,0.0
18645000000,1848,18645000000,,0.0141047327677,0.0203943932764,0.0081919800436,0.0,0.0,0.0
18656000000,1849,18656000000,,0.0106857467029,-0.00361314481285,0.00300221943928,0.0,0.0,0.0
18665000000,1850,18665000000,,-0.0154333474906,-0.0121826865282,-0.00369531552844,0.0,0.0,0.0
18675000000,1851,18675000000,,-0.0256125271835,-0.00392329427019,-0.0219570521952,0.0,0.0,0.0
18685000000,1852,18685000000,,-0.000981089965791,-0.0040221864183,-0.0246309727433,0.0,0.0,0.0
18695000000,1853,18695000000,,-0.0068345876967,0.0140659384507,-0.00417888250689,0.0,0.0,0.0
18706000000,1854,18706000000,,-0.00798163631327,-0.00272927785274,-0.0311391809777,0.0,0.0,0.0
18715000000,1855,18715000000,,-0.0172182928776,0.0370071432017,-0.00984625198713,0.0,0.0,0.0
18725000000,1856,18725000000,,-0.0261591236491,0.00624111342366,0.0240643480819,0.0,0.0,0.0
18736000000,1857,18736000000,,0.00587670189648,0.0146573440997,0.0121305334649,0.0,0.0,0.0
18745000000,1858,18745000000,,-0.0240495272703,0.00327145062695,0.0205423130479,0.0,0.0,0.0
18755000000,1859,18755000000,,0.00416976313351,0.00226754575581,-0.0170662026624,0.0,0.0,0.0
18766000000,1860,18766000000,,-0.018180639811,-0.0172133564238,-0.0102560129652,0.0,0.0,0.0
18775000000,1861,18775000000,,-0.0103766188129,0.019458127912,-0.00231243883073,0.0,0.0,0.0
18786000000,1862,18786000000,,0.0262026949574,-0.029127670669,-0.0312886074296,0.0,0.0,0.0
18795000000,1863,18795000000,,0.00150056914949,0.00060859246061,-0.0325335184366,0.0,0.0,0.0
18805000000,1864,18805000000,,-0.0155828214038,0.0285497739452,-0.0201527738005,0.0,0.0,0.0
18815000000,1865,18815000000,,0.0357838347312,-0.00830914759643,-0.0266651773811,0.0,0.0,0.0
18826000000,1866,18826000000,,-0.0200220310753,0.0171065633507,-0.0520895098028,0.0,0.0,0.0
18836000000,1867,18836000000,,0.0161200793111,-0.0288126893293,0.000235000268342,0.0,0.0,0.0
18845000000,1868,18845000000,,-0.0050496972491,0.00992625743832,-0.00331109621483,0.0,0.0,0.0
18855000000,1869,18855000000,,0.00893058387172,-0.00632728924889,-0.00952784194581,0.0,0.0,0.0
18866000000,1870,18866000000,,-0.00834928386681,0.00213400164582,-0.0192709836454,0.0,0.0,0.0
18875000000,1871,18875000000,,-0.0133956010773,-0.00473694693551,-0.0132248406927,0.0,0.0,0.0
18885000000,1872,18885000000,,-0.00387288015366,0.000585796824739,0.00219494962712,0.0,0.0,0.0
18895000000,1873,18895000000,,0.0111693334149,0.0210974899153,0.00585993843254,0.0,0.0,0.0
18905000000,1874,18905000000,,0.0296549129958,-0.0085470129402,-0.0204272840342,0.0,0.0,0.0
18915000000,1875,18915000000,,0.0466781717358,0.0167893060314,-0.00605084601523,0.0,0.0,0.0
18926000000,1876,18926000000,,-0.0273995880273,0.00538011334172,-0.00828222798314,0.0,0.0,0.0
18935000000,1877,18935000000,,-0.0208319331927,-0.00502685104675,-0.000363385525413,0.0,0.0,0.0
18945000000,1878,18945000000,,-0.0408174048977,-0.00229337944614,0.0149389194272,0.0,0.0,0.0
18956000000,1879,18956000000,,0.00176022860259,-0.0266197644569,-0.0127526087139,0.0,0.0,0.0
18966000000,1880,18966000000,,-0.0077658526112,0.0146974500611,-0.0323634518525,0.0,0.0,0.0
18976000000,1881,18976000000,,-0.0111005844411,0.00262635822795,0.046660514973,0.0,0.0,0.0
18985000000,1882,18985000000,,-0.0102915878408,0.0231383577197,-0.0166294086436,0.0,0.0,0.0
18995000000,1883,18995000000,,0.032609649255,0.0177627580942,-0.030487135311,0.0,0.0,0.0
19006000000,1884,19006000000,,-0.0139335370449,0.0181192028027,0.0216385861102,0.0,0.0,0.0
19015000000,1885,19015000000,,-0.00169548378287,-0.00457325654422,0.00766022711595,0.0,0.0,0.0
19025000000,1886,19025000000,,-0.0201424902523,-0.00521984454202,-0.00188292027,0.0,0.0,0.0
19036000000,1887,19036000000,,0.0154111584641,-0.0094507345212,-0.0148576166433,0.0,0.0,0.0
19045000000,1888,19045000000,,-0.00794350086026,0.0185611413388,-0.0166962707072,0.0,0.0,0.0
19056000000,1889,19056000000,,-0.0114378383537,-0.029111839864,-0.0154333124651,0.0,0.0,0.0
19066000000,1890,19066000000,,-0.0319818135315,0.00827165843315,-0.0124910268777,0.0,0.0,0.0
19075000000,1891,19075000000,,0.0125350792026,0.005276358854,-0.0173950341878,0.0,0.0,0.0
19085000000,1892,19085000000,,0.00703635167969,-0.00209220409726,0.0138180004249,0.0,0.0,0.0
19095000000,1893,19095000000,,0.0127555752046,0.00289359131795,-0.0154628404294,0.0,0.0,0.0
19106000000,1894,19106000000,,-0.0143962007824,0.0307413187039,-0.00401420829697,0.0,0.0,0.0
19116000000,1895,19116000000,,0.0252187911476,0.0107153660836,0.00896969602548,0.0,0.0,0.0
19126000000,1896,19126000000,,0.004779865831,-0.00810045133215,0.0258626525292,0.0,0.0,0.0
19135000000,1897,19135000000,,-0.00921797652114,-0.0575150153881,-0.0274651089874,0.0,0.0,0.0
19146000000,1898,19146000000,,-0.0125384752482,0.00192628867076,-0.0263320525443,0.0,0.0,0.0
19155000000,1899,19155000000,,0.0119485655976,-0.0132199944577,-0.0189789946727,0.0,0.0,0.0
19165000000,1900,19165000000,,0.0068504757168,0.0126770281436,-0.0376761578483,0.0,0.0,0.0
19176000000,1901,19176000000,,0.00896420391252,0.0279768439338,0.0296486676849,0.0,0.0,0.0
19185000000,1902,19185000000,,0.000281187887304,-0.015057468742,-0.0111017098617,0.0,0.0,0.0
19196000000,1903,19196000000,,0.0138736301634,-0.0276889352077,-0.000549089232165,0.0,0.0,0.0
19205000000,1904,19205000000,,-0.024752119351,0.017879587198,-0.0130935537677,0.0,0.0,0.0
19216000000,1905,19216000000,,0.00455112743564,-0.0376655129557,-0.0135754830673,0.0,0.0,0.0
19225000000,1906,19225000000,,-0.00898308917934,-0.0496773469695,0.00273745676305,0.0,0.0,0.0
19235000000,1907,19235000000,,0.0106639427966,-0.00766789214594,0.00455800696757,0.0,0.0,0.0
19245000000,1908,19245000000,,0.0200554384643,-0.0105809087884,0.00707828523948,0.0,0.0,0.0
19256000000,1909,19256000000,,-0.00371483014704,0.0209027655901,0.00201196257535,0.0,0.0,0.0
19265000000,1910,19265000000,,0.0287119985235,0.00134049775253,-0.0308434217098,0.0,0.0,0.0
19275000000,1911,19275000000,,0.0110077724657,-0.0259318036309,0.0154803816302,0.0,0.0,0.0
19285000000,1912,19285000000,,0.0266187438007,-0.0205341012831,-0.0300530118461,0.0,0.0,0.0
19296000000,1913,19296000000,,0.0247354743029,-0.0309729741788,-0.0150949597368,0.0,0.0,0.0
19305000000,1914,19305000000,,-0.022925441279,0.00626940461119,-0.0189344105035,0.0,0.0,0.0
19315000000,1915,19315000000,,0.0404369107572,0.00364198710158,0.0173002015552,0.0,0.0,0.0
19325000000,1916,19325000000,,0.0145650126032,-0.00324943689299,-0.00717897815963,0.0,0.0,0.0
19336000000,1917,19336000000,,-0.0161147676872,-0.000182381829242,-0.00721982539521,0.0,0.0,0.0
19345000000,1918,19345000000,,0.0125014653294,0.0124621736366,-0.00775463096629,0.0,0.0,0.0
19355000000,1919,19355000000,,0.00292086082201,-0.0118629032133,0.00808274437693,0.0,0.0,0.0
19365000000,1920,19365000000,,0.0165799680085,-0.0221201354335,-0.0221777434245,0.0,0.0,0.0
19376000000,1921,19376000000,,-0.00702192958152,0.0303848979083,0.0085948382444,0.0,0.0,0.0
19385000000,1922,19385000000,,0.025669095597,0.0156499432971,0.00857412372006,0.0,0.0,0.0
19395000000,1923,19395000000,,-0.0342832648497,-0.0054811190565,-0.00311311828663,0.0,0.0,0.0
19405000000,1924,19405000000,,-0.00292797119745,0.011598651142,-0.053086414522,0.0,0.0,0.0
19416000000,1925,19416000000,,0.00605564443352,0.0273894461086,-0.00164414244211,0.0,0.0,0.0
19425000000,1926,19425000000,,-0.0125475594276,-0.00229676757867,-0.00647881380372,0.0,0.0,0.0
19435000000,1927,19435000000,,-0.0231350577782,-0.0175567881476,-0.0207169891511,0.0,0.0,0.0
19445000000,1928,19445000000,,-0.00946872716452,-0.0215206422725,0.0235470936714,0.0,0.0,0.0
19455000000,1929,19455000000,,0.0172230163553,0.00615789955029,-0.00212966349066,0.0,0.0,0.0
19465000000,1930,19465000000,,0.0112138498834,0.0467517642113,0.0251432514485,0.0,0.0,0.0
19475000000,1931,19475000000,,-0.0111834827062,-0.0187425398627,-0.00575747347288,0.0,0.0,0.0
19486000000,1932,19486000000,,0.0395849862309,0.029168742921,0.0045040926584,0.0,0.0,0.0
19495000000,1933,19495000000,,0.0319717139839,-0.0065650682903,0.00969047194509,0.0,0.0,0.0
19505000000,1934,19505000000,,-0.0146332800901,-0.0397972644568,-0.00526165777484,0.0,0.0,0.0
19515000000,1935,19515000000,,-0.00695392961289,0.0182740908887,0.0194564010376,0.0,0.0,0.0
19526000000,1936,19526000000,,-0.0234442913722,-0.00704289092263,0.00860267888918,0.0,0.0,0.0
19535000000,1937,19535000000,,-0.0142178842675,-0.0123254148463,0.0123394375053,0.0,0.0,0.0
19545000000,1938,19545000000,,-0.00498709787749,0.0220261704435,0.0255612657012,0.0,0.0,0.0
19555000000,1939,19555000000,,-0.0297245057061,0.00310867341156,0.000807954054411,0.0,0.0,0.0
19566000000,1940,19566000000,,-0.0485519417646,-0.00530255234325,-0.0209844173498,0.0,0.0,0.0
19575000000,1941,19575000000,,-0.0085622047661,0.0167298527255,-0.000466519253312,0.0,0.0,0.0
19586000000,1942,19586000000,,-0.00576017982817,-0.0282401722095,0.0314416733205,0.0,0.0,0.0
19596000000,1943,19596000000,,0.0283978588565,0.0334821838122,0.0616987809506,0.0,0.0,0.0
19605000000,1944,19605000000,,-0.0208979572838,0.00415122613931,-0.00149162607675,0.0,0.0,0.0
19615000000,1945,19615000000,,0.0172884663474,0.00446688132939,0.0289458078952,0.0,0.0,0.0
19625000000,1946,19625000000,,0.0236346475963,0.020199459755,-0.000213883414259,0.0,0.0,0.0
19635000000,1947,19635000000,,0.00658861654655,0.0309346896625,0.000630887867457,0.0,0.0,0.0
19645000000,1948,19645000000,,-0.0186300504288,0.00979087400152,0.014785044788,0.0,0.0,0.0
19655000000,1949,19655000000,,-0.0148893411818,-0.00214983202437,0.00960966939762,0.0,0.0,0.0
19665000000,1950,19665000000,,0.0291791349692,0.0131149218477,0.00501529329407,0.0,0.0,0.0
19675000000,1951,19675000000,,0.0104660432106,0.00724797041775,0.00559436408623,0.0,0.0,0.0
19686000000,1952,19686000000,,0.00634719178119,-0.0275922739865,-0.036982264166,0.0,0.0,0.0
19696000000,1953,19696000000,,0.00186424947357,-0.01985410798,0.00916519417761,0.0,0.0,0.0
19705000000,1954,19705000000,,-0.036943208549,0.0252509725008,-0.036674860425,0.0,0.0,0.0
19715000000,1955,19715000000,,-0.0384263388758,-0.012208363934,-0.00841833968425,0.0,0.0,0.0
19725000000,1956,19725000000,,0.0105591890033,-0.0229262069108,0.0161465301523,0.0,0.0,0.0
19736000000,1957,19736000000,,-0.0134206640862,0.010173801982,0.0213940253263,0.0,0.0,0.0
19747000000,1958,19747000000,,0.0396705578504,0.00753720494323,0.00195775255509,0.0,0.0,0.0
19756000000,1959,19756000000,,0.053788292548,0.0125711425508,0.00998388166325,0.0,0.0,0.0
19765000000,1960,19765000000,,0.0280957079407,0.0093935432055,0.0105708560247,0.0,0.0,0.0
19777000000,1961,19777000000,,0.0124292088485,-0.00654895320166,0.0343064083313,0.0,0.0,0.0
19785000000,1962,19785000000,,-0.00465054944577,0.00169406816815,-0.00355574428369,0.0,0.0,0.0
19796000000,1963,19796000000,,-0.0173448611509,-0.0156292325591,0.00310547784913,0.0,0.0,0.0
19805000000,1964,19805000000,,-0.00671517807697,-0.00510848506249,-0.022138817327,0.0,0.0,0.0
19815000000,1965,19815000000,,-0.0368278675726,0.0151884417487,-0.00152048706979,0.0,0.0,0.0
19825000000,1966,19825000000,,0.025622984192,-0.00843050835774,0.0140226867582,0.0,0.0,0.0
19835000000,1967,19835000000,,0.00169853684441,0.0138454544287,-0.008121633791,0.0,0.0,0.0
19845000000,1968,19845000000,,0.0115046993091,-0.0105921324015,0.00435126060214,0.0,0.0,0.0
19855000000,1969,19855000000,,-0.0219040488987,0.0471285373847,0.00739975158527,0.0,0.0,0.0
19865000000,1970,19865000000,,0.0345465188446,0.0203375047787,0.0210326076457,0.0,0.0,0.0
19875000000,1971,19875000000,,-0.00224226963196,-0.00618801350732,0.0332202293947,0.0,0.0,0.0
19886000000,1972,19886000000,,0.00407964049309,0.00315878746939,0.0290363275285,0.0,0.0,0.0
19895000000,1973,19895000000,,-0.00198855821888,0.0221333989466,0.0233356835302,0.0,0.0,0.0
19906000000,1974,19906000000,,0.0314738093623,-0.0139702620408,0.0123962945329,0.0,0.0,0.0
19915000000,1975,19915000000,,-0.0552913607348,-0.0346111298304,0.0266146856852,0.0,0.0,0.0
19925000000,1976,19925000000,,0.0371092591871,-0.00269774129492,0.0330881870627,0.0,0.0,0.0
19935000000,1977,19935000000,,0.00667557686242,0.0133236388084,0.00378440707197,0.0,0.0,0.0
19945000000,1978,19945000000,,0.0204617504587,-0.0148102678962,0.0212300078638,0.0,0.0,0.0
19955000000,1979,19955000000,,-0.00134195527312,0.0119863559854,-0.00539053509758,0.0,0.0,0.0
19965000000,1980,19965000000,,0.00777440860569,0.0244703178626,0.0379127375622,0.0,0.0,0.0
19975000000,1981,19975000000,,-0.000171903341625,-0.0218975251989,0.0189274480426,0.0,0.0,0.0
19985000000,1982,19985000000,,-0.00882744807914,0.0158772536743,0.0430419693991,0.0,0.0,0.0
19996000000,1983,19996000000,,0.00360914378078,0.0190460498021,0.00909658699523,0.0,0.0,0.0
20005000000,1984,20005000000,,0.0147962514356,3.5864333316e-05,-0.00063810849943,0.0,0.0,0.0
20015000000,1985,20015000000,,0.0150606221301,0.00342830306383,-0.0203325538299,0.0,0.0,0.0
20025000000,1986,20025000000,,-0.0093245078928,0.0346867819912,0.0222325492296,0.0,0.0,0.0
20035000000,1987,20035000000,,-0.00189904803499,0.013080606059,0.0209427453547,0.0,0.0,0.0
20045000000,1988,20045000000,,0.0118852957417,-0.0256542520914,0.0285702743684,0.0,0.0,0.0
20056000000,1989,20056000000,,-0.0178605271972,-0.00243354755524,0.0304967210754,0.0,0.0,0.0
20066000000,1990,20066000000,,0.0140635686223,0.00474572369005,0.0280212195456,0.0,0.0,0.0
20075000000,1991,20075000000,,0.0056412350983,-0.0142040823869,-0.00387671746067,0.0,0.0,0.0
20085000000,1992,20085000000,,-0.00930407091085,-0.0204157335026,0.0459046253901,0.0,0.0,0.0
20095000000,1993,20095000000,,0.00983046959196,-0.0329107006464,-0.00328224581298,0.0,0.0,0.0
20105000000,1994,20105000000,,-0.00432451646992,0.0085903538829,-0.0180349873213,0.0,0.0,0.0
20116000000,1995,20116000000,,-0.00192067429515,-0.00704241205354,0.00730312159853,0.0,0.0,0.0
20126000000,1996,20126000000,,-0.0155858288351,0.0166922154088,0.0105528827102,0.0,0.0,0.0
20136000000,1997,20136000000,,0.0216148281193,0.016702377736,0.0125156797337,0.0,0.0,0.0
20146000000,1998,20146000000,,0.0223991061384,-0.0218608550927,-0.0679233698928,0.0,0.0,0.0
20155000000,1999,20155000000,,-0.0211790796312,0.00655138965689,-0.0108854737228,0.0,0.0,0.0
20166000000,2000,20166000000,,-0.00654098267562,0.000895243076863,-0.0127463575404,0.0,0.0,0.0
20175000000,2001,20175000000,,-0.0396192957345,-0.00705357116079,0.00518003130964,0.0,0.0,0.0
20186000000,2002,20186000000,,-0.0474791563628,0.00571607190477,0.00268442648903,0.0,0.0,0.0
20195000000,2003,20195000000,,-0.00430937334108,-0.0144908636395,-0.0265631844739,0.0,0.0,0.0
20205000000,2004,20205000000,,0.0145290583632,-0.022621896503,0.00564801407134,0.0,0.0,0.0
20215000000,2005,20215000000,,0.0258450492653,-0.0151450281391,0.0338507687699,0.0,0.0,0.0
20225000000,2006,20225000000,,-0.00574184908049,0.00327271549907,-0.0242800157551,0.0,0.0,0.0
20236000000,2007,20236000000,,0.00379544888815,-0.00799962721688,0.00493636686473,0.0,0.0,0.0
20245000000,2008,20245000000,,-0.0134914621628,0.0286719980125,-0.000645464965983,0.0,0.0,0.0
20255000000,2009,20255000000,,0.0349213010845,-0.00332809527276,-0.0111098060676,0.0,0.0,0.0
20265000000,2010,20265000000,,-0.0188426496275,-0.00145303146562,0.0139161886795,0.0,0.0,0.0
20275000000,2011,20275000000,,-0.0362126316587,0.0212831607917,0.0156751956104,0.0,0.0,0.0
20285000000,2012,20285000000,,-0.0397426234964,0.000403454896741,-0.00615597032009,0.0,0.0,0.0
20295000000,2013,20295000000,,-0.0148158773129,0.00366265672026,0.0053366998585,0.0,0.0,0.0
20307000000,2014,20307000000,,0.0135667771634,-0.000690659761022,0.010261209064,0.0,0.0,0.0
20316000000,2015,20316000000,,0.00712971495726,-0.00735654325849,-0.0137670984844,0.0,0.0,0.0
20326000000,2016,20326000000,,-0.0495020742124,-0.0104859398409,-0.0203483439095,0.0,0.0,0.0
20336000000,2017,20336000000,,-0.0146328367164,-0.0100499420401,0.00197145890305,0.0,0.0,0.0
20346000000,2018,20346000000,,0.00673721162071,0.0433250570555,0.0307871761172,0.0,0.0,0.0
20355000000,2019,20355000000,,0.0174614407192,-0.000260233839293,0.0325524054577,0.0,0.0,0.0
20365000000,2020,20365000000,,-0.0245358545066,0.00313172254059,0.0164702651934,0.0,0.0,0.0
20375000000,2021,20375000000,,0.00654991487867,0.000548276333682,-0.0226019957405,0.0,0.0,0.0
20385000000,2022,20385000000,,-0.0116561826573,0.0249893537421,0.00573324427725,0.0,0.0,0.0
20395000000,2023,20395000000,,-0.00364385746227,0.00259242834914,-0.00409614679185,0.0,0.0,0.0
20406000000,2024,20406000000,,0.00703353152487,-0.0241175837833,-0.02583092601,0.0,0.0,0.0
20415000000,2025,20415000000,,-0.0308045063525,0.00437846076324,-0.0354146881399,0.0,0.0,0.0
20426000000,2026,20426000000,,-0.000836432654659,-0.00747418581012,-0.0126583150532,0.0,0.0,0.0
