%time,field.header.seq,field.header.stamp,field.header.frame_id,field.roll,field.pitch,field.jaw,field.roll_dot,field.pitch_dot,field.jaw_dot
16161000000,366,16161000000,,-1.64615062204e-06,-0.000120700788102,-1.25136211864e-05,-1.31978206142e-10,-7.74846020679e-10,5.32855114199e-11
16205000000,367,16205000000,,-1.06444131234e-05,-0.000172076397575,-8.76946342032e-06,-1.08569854496e-10,-6.55224652313e-10,4.92129566265e-11
16237000000,368,16237000000,,-1.62286869454e-05,-0.000208082725294,-6.03426587986e-06,-8.83263670537e-11,-5.80933023908e-10,4.6441909346e-11
16279000000,369,16279000000,,-2.2787207854e-05,-0.00024950056104,-2.52223003372e-06,-6.78063161175e-11,-4.52651999217e-10,4.11215540785e-11
16299000000,370,16299000000,,-2.55773284152e-05,-0.000269243260846,-7.18859894278e-07,-5.50040499259e-11,-4.10437489551e-10,3.9178101735e-11
16318000000,371,16318000000,,-2.77617600659e-05,-0.000285245419946,8.27743122045e-07,-4.99373112306e-11,-3.52669310422e-10,3.63465403608e-11
16350000000,372,16350000000,,-3.12211450364e-05,-0.000309497321723,3.6655162603e-06,-2.7473688255e-11,-2.09208275703e-10,2.80687383059e-11
16369000000,373,16369000000,,-3.25286418956e-05,-0.000320357765304,5.21603760717e-06,-1.64565271132e-11,-1.51525958447e-10,2.39285275622e-11
16402000000,374,16402000000,,-3.40505976055e-05,-0.000335105723934,8.14612485556e-06,-4.45228836438e-12,-4.40333394747e-11,1.30975551585e-11
16438000000,375,16438000000,,-3.42106541211e-05,-0.00034091953421,1.1250348507e-05,9.80606871745e-13,-9.48677985127e-13,3.85814860962e-12
16471000000,376,16471000000,,-3.27868219756e-05,-0.000337492878316,1.40967813422e-05,7.73216473487e-12,3.12450204598e-11,1.12733485741e-11
16505000000,377,16505000000,,-2.99919738609e-05,-0.000324462249409,1.70282128238e-05,2.92852235517e-11,1.46567855075e-10,2.36963938055e-11
16538000000,378,16538000000,,-2.56201710727e-05,-0.00030207078089,1.98734342121e-05,6.17466702768e-11,3.2880159706e-10,3.53388325547e-11
16571000000,379,16571000000,,-1.97534172912e-05,-0.000269468699116,2.28015287576e-05,1.09574682661e-10,6.31054042355e-10,4.87883414224e-11
16601000000,380,16601000000,,-1.36360904435e-05,-0.000234189486946,2.52127829299e-05,1.63169505685e-10,9.42750100208e-10,5.95790222713e-11
16640000000,381,16640000000,,-3.57502744919e-06,-0.000175440349267,2.85658115899e-05,2.29907037852e-10,1.38578226672e-09,7.20635703888e-11
16671000000,382,16671000000,,5.93910635871e-06,-0.00011753844592,3.13153723255e-05,3.05052177962e-10,1.85038750988e-09,8.31787139166e-11
16701000000,383,16701000000,,1.59324608831e-05,-5.74745936319e-05,3.38888385158e-05,0.000340199039783,0.00206678849645,8.57501509017e-05
16728000000,384,16728000000,,2.48077449214e-05,-2.27896248362e-06,3.60316262231e-05,0.00036039823317,0.00228089792654,8.57120758155e-05
16759000000,385,16759000000,,4.04498241551e-05,9.51092079049e-05,3.88631524402e-05,0.000479184323922,0.00291609484702,8.57061822899e-05
16800000000,386,16800000000,,5.72743010707e-05,0.000201163464226,4.21176009695e-05,0.00038976862561,0.00254626362585,8.55649705045e-05
16840000000,387,16840000000,,7.28415034246e-05,0.000300789834,4.57910682599e-05,2.53047721666e-10,1.63165025935e-09,7.74792591196e-11
16882000000,388,16882000000,,7.95186788309e-05,0.000350573565811,4.93638362968e-05,1.76209463687e-11,1.75505332489e-10,2.53031710168e-11
16923000000,389,16923000000,,7.41372350603e-05,0.000328237423673,5.26409457962e-05,-1.38041994502e-10,-6.49247600126e-10,4.81651593609e-11
16962000000,390,16962000000,,6.36638651486e-05,0.000277080194792,5.57943822059e-05,-2.44617298639e-10,-1.20580445628e-09,6.46868461573e-11
16998000000,391,16998000000,,4.95641979796e-05,0.000212765211472,5.89790797676e-05,-3.54940521419e-10,-1.59297208757e-09,7.31426516576e-11
17035000000,392,17035000000,,3.49363217538e-05,0.000145554091432,6.17881887592e-05,-0.00043864842155,-0.0019988019485,7.96682725195e-05
17072000000,393,17072000000,,1.66060126503e-05,6.77404896123e-05,6.47939086775e-05,-0.000500159105286,-0.00209410255775,7.86800883361e-05
17105000000,394,17105000000,,-4.76613058709e-06,-2.51666133408e-05,6.73818140058e-05,-0.000654537521768,-0.00282317097299,7.82423157943e-05
17138000000,395,17138000000,,-2.60497508862e-05,-0.000109355132736,6.98807052686e-05,-0.000622049847152,-0.00236332439817,7.80444970587e-05
17176000000,396,17176000000,,-4.90746751893e-05,-0.000199615373276,7.29244347895e-05,-4.93149743264e-10,-1.89803217587e-09,7.72173575081e-11
17212000000,397,17212000000,,-6.39193749521e-05,-0.000247264455538,7.57908783271e-05,-1.16305867714e-10,-3.051504327e-10,3.12357882615e-11
17250000000,398,17250000000,,-6.35313335806e-05,-0.000233700222452,7.85577285569e-05,5.10873357507e-11,3.30291655137e-10,3.13429768251e-11
17286000000,399,17286000000,,-5.74245277676e-05,-0.000198011359316,8.13623410068e-05,1.20907076018e-10,6.5432426144e-10,4.34296626439e-11
17316000000,400,17316000000,,-5.01048925798e-05,-0.000159666844411,8.36032704683e-05,1.96345287251e-10,9.8165131579e-10,5.26038795856e-11
17351000000,401,17351000000,,-3.95522947656e-05,-0.000109509986942,8.61122098286e-05,2.60472421409e-10,1.18969156748e-09,5.7333037623e-11
17393000000,402,17393000000,,-2.37616859522e-05,-3.82600410376e-05,8.9258159278e-05,3.5567737644e-10,1.54676971231e-09,6.50469816899e-11
17434000000,403,17434000000,,-5.67062670598e-06,3.65697014786e-05,9.23182597035e-05,4.19833723342e-10,1.69980574061e-09,6.81943251868e-11
17473000000,404,17473000000,,1.31693805088e-05,0.000111844048661,9.51638721745e-05,0.000505367235746,0.00194183608983,7.29850362404e-05
17509000000,405,17509000000,,3.1824423786e-05,0.000180616960279,9.7719457699e-05,0.000537599727977,0.00196302239783,7.30542160454e-05
17549000000,406,17549000000,,6.09747039562e-05,0.000286964466795,0.000100716002635,0.000693107431289,0.0024059060961,7.30688407202e-05
17588000000,407,17588000000,,8.58970597619e-05,0.000367862492567,0.00010356301209,4.89780827007e-10,1.54052692825e-09,6.56368154273e-11
17630000000,408,17630000000,,0.000106600462459,0.000427646853495,0.000106548126496,1.91903687385e-10,4.61240712291e-10,3.63078907217e-11
17670000000,409,17670000000,,0.000108208856545,0.000416266615503,0.000109438798972,-3.0282026886e-11,-2.88755214184e-10,2.7468406022e-11
17711000000,410,17711000000,,0.000102530277218,0.000375497562345,0.00011243334302,-1.20184015517e-10,-6.90843326989e-10,4.18733242524e-11
17748000000,411,17748000000,,9.34405325097e-05,0.00032409830601,0.000115024420666,-2.27739438419e-10,-1.26592936134e-09,5.57229470899e-11
17787000000,412,17787000000,,8.01693386165e-05,0.000256596627878,0.000117702169518,-3.632470158e-10,-1.70559488755e-09,6.35596922316e-11
17824000000,413,17824000000,,6.47858323646e-05,0.000183419251698,0.000120136195619,-0.000455257686554,-0.00216749846004,6.73075337545e-05
17858000000,414,17858000000,,4.68959187856e-05,0.000104021542938,0.000122480560094,-0.000552291923668,-0.00229643075727,6.67939166306e-05
17896000000,415,17896000000,,1.94420008484e-05,-1.47141545312e-05,0.000125007180031,-0.00072807847755,-0.00314639462158,6.65166007821e-05
17929000000,416,17929000000,,-5.42911811863e-06,-0.000112515888759,0.000127199702547,-0.000733175722416,-0.00265321414918,6.64114631945e-05
17963000000,417,17963000000,,-3.03725792037e-05,-0.000204692973057,0.000129452120746,-0.000661400787067,-0.00241629895754,6.61489757476e-05
18002000000,418,18002000000,,-5.19067398272e-05,-0.000270296673989,0.000131877488457,-3.08376491009e-10,-7.63390406444e-10,4.18388136636e-11
18043000000,419,18043000000,,-6.55054609524e-05,-0.000294803903671,0.000134659727337,-1.41380787286e-11,4.01386042459e-12,5.73996189121e-12
18085000000,420,18085000000,,-5.93501572439e-05,-0.000244203431066,0.000137272101711,2.36194369618e-10,1.48789780496e-09,5.48736195372e-11
18123000000,421,18123000000,,-4.78137480968e-05,-0.000172936517629,0.000139596086228,0.000356149859726,0.00209440127946,6.25159955234e-05
18158000000,422,18158000000,,-3.34014330292e-05,-9.17253346415e-05,0.000141898504808,0.000410969165387,0.00226997048594,6.20608116151e-05
18195000000,423,18195000000,,-1.33177700263e-05,2.06298464036e-05,0.000144189078128,0.000559717358556,0.0030530965887,6.19032289251e-05
18233000000,424,18233000000,,7.18792898624e-06,0.000125602382468,0.000146478385432,0.000510151556227,0.00253506936133,6.18434933131e-05
18266000000,425,18266000000,,2.38422544498e-05,0.000207916556974,0.000148453676957,0.00047551174066,0.00225183367729,6.16002434981e-05
18305000000,426,18305000000,,3.93731606891e-05,0.000271288095973,0.000150959211169,1.3467768567e-10,4.59890486804e-10,2.97405468308e-11
18348000000,427,18348000000,,4.64382937935e-05,0.000284627603833,0.000153426546603,9.44530478136e-12,-3.32011362847e-11,7.89566068776e-12
18384000000,428,18384000000,,4.07570551033e-05,0.000236440115259,0.000155615009135,-2.19444684646e-10,-1.58920154814e-09,5.25827818787e-11
18421000000,429,18421000000,,3.03709311993e-05,0.000160447089002,0.000157831193064,-0.000304630026221,-0.00214653881267,5.79547449888e-05
18452000000,430,18452000000,,1.99863407033e-05,9.17290017242e-05,0.000159621049534,-0.000348338740878,-0.00228909123689,5.75784215471e-05
18486000000,431,18486000000,,4.33256400356e-06,-1.51831445692e-05,0.000161572330398,-0.000448911858257,-0.0030553417746,5.73587785766e-05
18523000000,432,18523000000,,-1.30009066197e-05,-0.000123126868857,0.000163805467309,-0.000402194651542,-0.00241990434006,5.71836462768e-05
18561000000,433,18561000000,,-2.73562982329e-05,-0.000212080703932,0.000165971941897,-3.1000679801e-10,-1.85929716068e-09,5.51043620456e-11
18601000000,434,18601000000,,-3.67698703485e-05,-0.000257516920101,0.000168109021615,-5.50170776992e-11,-2.1222074098e-10,1.85306978095e-11
18639000000,435,18639000000,,-3.56901437044e-05,-0.000236529594986,0.00017021659005,5.13182205064e-11,4.91526208624e-10,2.73482105018e-11
18675000000,436,18675000000,,-3.15457036777e-05,-0.000198312991415,0.00017206708435,9.38526686922e-11,8.29271873393e-10,3.4880539429e-11
18710000000,437,18710000000,,-2.53632260865e-05,-0.000146179983858,0.000173997774255,1.49601595001e-10,1.20533483194e-09,4.15385295605e-11
18745000000,438,18745000000,,-1.82642215805e-05,-9.13614858291e-05,0.000175801978912,1.88409954305e-10,1.41087808103e-09,4.46741185711e-11
18780000000,439,18780000000,,-9.10360904527e-06,-2.53448215517e-05,0.000177759706276,2.47073750348e-10,1.69209468659e-09,4.88925150366e-11
18818000000,440,18818000000,,7.69617429341e-07,3.94514718209e-05,0.000179609050974,2.75172190589e-10,1.76952719144e-09,5.0013906211e-11
18857000000,441,18857000000,,1.38928653541e-05,0.000121505720017,0.000181829178473,3.22121496144e-10,1.91793536608e-09,5.20780883695e-11
18895000000,442,18895000000,,2.67452905973e-05,0.000195058091776,0.000183833326446,3.33630290061e-10,1.88745441498e-09,5.15986732508e-11
18931000000,443,18931000000,,3.88707230741e-05,0.000261937122559,0.000185624405276,3.56310286831e-10,1.88530657752e-09,5.1513637106e-11
18968000000,444,18968000000,,5.32162302989e-05,0.000334546697559,0.000187670608284,3.29195892768e-10,1.64056679353e-09,4.79222737881e-11
19008000000,445,19008000000,,6.70274239383e-05,0.000400861405069,0.000189657526789,2.94138047252e-10,1.33203870156e-09,4.30353183645e-11
19045000000,446,19045000000,,8.05784002296e-05,0.000459466973552,0.000191682920558,2.30218163977e-10,9.66121738166e-10,3.65089347643e-11
19081000000,447,19081000000,,9.18162913877e-05,0.000503850518726,0.000193490821403,1.67468358625e-10,6.03781746822e-10,2.88022557193e-11
19135000000,448,19135000000,,0.000106118342956,0.00054855144117,0.000196305612917,5.78697888221e-11,1.34845037914e-10,1.38139144221e-11
19167000000,449,19167000000,,0.000237746848143,0.00067818898242,0.000197201705305,0.00553384842351,0.00513215968385,3.19908031088e-05
19226000000,450,19226000000,,0.000217701308429,0.000625815882813,0.00020009430591,-0.0043207667768,-0.0049107382074,4.96347929584e-05
19267000000,451,19267000000,,-0.000159590694238,0.000233492712141,0.000202516239369,-0.0117473974824,-0.0125380354002,7.15700589353e-05
19284000000,452,19284000000,,-0.000437095266534,-6.80832890794e-05,0.000204160824069,-0.0143777010962,-0.0156567767262,8.44253518153e-05
19307000000,453,19307000000,,-0.00063717312878,-0.000290012307232,0.000205495962291,-0.0108935600147,-0.0118491789326,7.67323363107e-05
19338000000,454,19338000000,,-0.000906932924408,-0.000596668280195,0.000208191224374,-0.0039070378989,-0.00511417817324,6.55445619486e-05
19368000000,455,19368000000,,-0.000957965443376,-0.000667199725285,0.000209586753044,-7.23118620538e-10,-1.247966952e-09,4.1360897346e-11
19390000000,456,19390000000,,-0.000940473284572,-0.000661092053633,0.000210607729969,1.32326372082e-09,8.89223361611e-10,3.64082618221e-11
19409000000,457,19409000000,,-0.000897272664588,-0.000623411906417,0.00021130994719,0.00253226538189,0.00225650332868,3.43347201124e-05
19446000000,458,19446000000,,-0.000833903730381,-0.000581966363825,0.000212712271605,0.00192735390738,0.00104841601569,4.172133049e-05
19481000000,459,19481000000,,-0.000737758062314,-0.000537447922397,0.000214245490497,0.00332628539763,0.00162502843887,4.68887301395e-05
19532000000,460,19532000000,,-0.00048001925461,-0.000389307417208,0.000216823100345,0.00486990856007,0.00286049488932,4.57197529613e-05
19586000000,461,19586000000,,-0.000216734188143,-0.000202930154046,0.000219300345634,0.00428380118683,0.00312559609301,4.48635910288e-05
19652000000,462,19652000000,,-3.36253797286e-05,-5.33596576133e-05,0.000222228190978,0.00171373307239,0.00141182984225,4.36166519648e-05
19709000000,463,19709000000,,-3.74960654881e-05,-6.36772092548e-05,0.000224658084335,-1.29481023126e-10,-1.91209145739e-10,1.39408571492e-11
19755000000,464,19755000000,,-7.08206716808e-05,-0.000122757293866,0.000226480537094,-2.7704577521e-10,-6.14423067979e-10,2.27518802409e-11
19788000000,465,19788000000,,-2.94934325211e-05,-0.000108141161036,0.000227812721278,1.11573272843e-09,5.39343736339e-10,3.1682746704e-11
19834000000,466,19834000000,,6.90754677635e-05,-1.0392472177e-05,0.000229691562708,0.00178348377813,0.00183297670446,4.12612898799e-05
19870000000,467,19870000000,,2.01309212571e-05,-4.57375244878e-05,0.000231280486332,-0.00180103653111,-0.00152600242291,4.24088975706e-05
19907000000,468,19907000000,,-4.03574595111e-05,-0.000130300657474,0.00023269430676,-0.00164113333449,-0.00302336341701,4.28852035839e-05
19971000000,469,19971000000,,3.81766767532e-05,-0.000149306710227,0.00023561695707,0.00187038898002,0.000890131283086,4.30552427133e-05
20001000000,470,20001000000,,9.58850287134e-05,-7.74965446908e-05,0.000237012412981,0.00167722208425,0.00274897902273,4.66482997581e-05
20039000000,471,20039000000,,7.10834719939e-05,-2.04726511583e-05,0.000238627253566,-1.0059755251e-09,7.11718906032e-10,3.07785047449e-11
20084000000,472,20084000000,,9.92594050331e-06,-3.52868228219e-05,0.000240242530708,-7.98337451702e-10,-4.18060613905e-10,2.46033193818e-11
20120000000,473,20120000000,,6.26268738415e-05,-5.96965764998e-05,0.000241770903813,1.90426163726e-09,-3.59304919151e-10,3.86249504603e-11
20166000000,474,20166000000,,0.000130258646095,3.71359092242e-05,0.000243739355938,0.000913989089895,0.00242960662581,4.50004808954e-05
20202000000,475,20202000000,,-1.23055224321e-05,0.000114269118058,0.000246054900344,-0.00484822643921,0.00140073825605,6.12084259046e-05
20278000000,476,20278000000,,-0.000155948859174,-1.92979114217e-05,0.000249983626418,-4.81335839242e-11,-1.392563731e-09,3.80465103866e-11
20318000000,477,20318000000,,5.15990109307e-07,-8.74371471582e-05,0.000252451078268,0.00476797204465,-0.00110674719326,6.05662753514e-05
20358000000,478,20358000000,,0.000201286209631,4.63832111564e-05,0.000254714075709,0.0041026622057,0.00357551919296,5.30861434527e-05
20401000000,479,20401000000,,0.00019629135204,0.000132042667246,0.000256972765783,-7.52960638284e-10,8.37489633199e-10,3.8840038824e-11
20435000000,480,20435000000,,9.87955791061e-05,1.77621805051e-05,0.000258636573562,-0.00263793673366,-0.00401117838919,4.17336268583e-05
20470000000,481,20470000000,,0.000134949441417,-0.000122899684357,0.00026003527455,0.0020589879714,-0.00394715648144,4.44762445113e-05
20527000000,482,20527000000,,0.000272399396636,-2.29939814744e-05,0.000263579888269,0.00117368961219,0.00270440173335,5.51361445105e-05
20588000000,483,20588000000,,8.16523679532e-05,0.000180312927114,0.000268249277724,-0.0040488075465,0.0016654584324,6.80859593558e-05
20653000000,484,20653000000,,-0.000271858589258,-9.81440462056e-05,0.00027424126165,-0.00373366079293,-0.00558548234403,8.09569173725e-05
20691000000,485,20691000000,,-0.000277514278423,-0.000397845666157,0.000279083527857,0.00176500994712,-0.00814613606781,0.000143258803291
20737000000,486,20737000000,,8.13317910797e-06,-0.000518624205142,0.000285232061287,0.00668955687433,-0.000264537608018,0.00011943163554
20786000000,487,20786000000,,0.000184784978046,-0.000236447551288,0.000290566647891,0.00160328461789,0.00543595664203,8.86792040546e-05
20832000000,488,20832000000,,-6.64774552206e-06,-0.000147144150105,0.000294638099149,-0.00483660586178,0.000161535688676,7.79508118285e-05
20873000000,489,20873000000,,-0.000158693466801,-0.000416762544774,0.000298368133372,-0.00254367128946,-0.00754414824769,8.78037099028e-05
20910000000,490,20910000000,,-1.85218978004e-05,-0.000634882948361,0.000303004810121,0.00473041646183,-0.00353053491563,0.000112232191896
20983000000,491,20983000000,,0.000305624416796,-0.000210584330489,0.000311919138767,0.00158443616237,0.00581618351862,9.65500657912e-05
21036000000,492,21036000000,,-2.21416157729e-05,0.000101986443042,0.000321662926581,-0.00742812408134,0.00274902535602,0.000152957974933
21062000000,493,21062000000,,-0.000332442519721,-6.09160015301e-05,0.000328031746903,-0.012831649743,-0.00912636239082,0.000263034802629
21080000000,494,21080000000,,-0.000468792888569,-0.000350965128746,0.000332335388521,-0.00580305606127,-0.0155331520364,0.000210660655284
21109000000,495,21109000000,,-0.000423002842581,-0.000519936555065,0.000334498065058,0.00258639384992,-0.00416452623904,5.50036347704e-05
21128000000,496,21128000000,,-0.000440986827016,-0.000460193317849,0.000334448763169,-0.00134150846861,0.00356317590922,-9.05890738068e-06
21154000000,497,21154000000,,-0.000660114455968,-0.000546008872334,0.000334873766406,-0.00846034195274,-0.00411637593061,1.77083529707e-05
21203000000,498,21203000000,,-0.000841491564643,-0.000967203115579,0.000341873877915,-0.000689946406055,-0.00675576366484,0.000145403566421
21266000000,499,21266000000,,-0.000315751298331,-0.000765002507251,0.000354581134161,0.00914291664958,0.0068848519586,0.000171312960447
21321000000,500,21321000000,,8.16492611193e-05,0.000158487615408,0.000368591718143,0.00327386427671,0.0138969570398,0.000199354952201
21372000000,501,21372000000,,-0.000299555802485,0.000464318349259,0.000385793071473,-0.00911361165345,0.000927440705709,0.000299226230709
21412000000,502,21412000000,,-0.000787475204561,-3.7074521515e-06,0.000404125079513,-0.0107756368816,-0.0139687433839,0.000434741261415
21433000000,503,21433000000,,-0.000836846476886,-0.000365093437722,0.000414140027715,0.00295879575424,-0.0172779932618,0.00045038247481
21463000000,504,21463000000,,-0.000528075848706,-0.000546348339412,0.000420639233198,0.0132585233077,-0.00204708753154,0.000146809048601
21496000000,505,21496000000,,-0.000314445263939,-0.00045542785665,0.000422123615863,0.00424913037568,0.00382056413218,1.50749719978e-05
21515000000,506,21515000000,,-0.000388629705412,-0.000518039276358,0.000421839271439,-0.00609113415703,-0.00539529975504,-2.4350516469e-05
21551000000,507,21551000000,,-0.00048342734226,-0.0007804716588,0.000422700162744,0.00108669430483,-0.0108625311404,9.01844687178e-05
21570000000,508,21570000000,,-0.000373317365302,-0.000889142917003,0.000424885802204,0.011957174167,-0.000691402063239,0.000161823190865
21604000000,509,21604000000,,-3.46240994986e-05,-0.000674383889418,0.000427778169978,0.00737424939871,0.0077879759483,4.08849628002e-05
21635000000,510,21635000000,,-8.01147143648e-06,-0.000580031250138,0.000427829538239,-0.00244448427111,0.000237806496443,-1.98897778318e-05
21670000000,511,21670000000,,-6.68221546221e-05,-0.00074300164124,0.000426795013482,-0.000885968736839,-0.00660623190925,-3.43022875313e-05
21691000000,512,21691000000,,1.12187808554e-05,-0.000819148612209,0.000426921178587,0.00761461863294,-0.000947231252212,4.02587356803e-05
21727000000,513,21727000000,,0.000283459055936,-0.000642162631266,0.000428721134085,0.00670632207766,0.00724532315508,4.86762437504e-05
21756000000,514,21756000000,,0.00033876686939,-0.000484043790493,0.000429587758845,-0.0020337253809,0.0037850139197,1.49784009409e-05
21787000000,515,21787000000,,0.000206564887776,-0.000532639271114,0.000428453553468,-0.00515464227647,-0.00365187227726,-5.88800830883e-05
21823000000,516,21823000000,,0.000151016458403,-0.000619463506155,0.000427076854976,1.30486610406e-09,-1.35504019116e-09,-2.40205234175e-11
21863000000,517,21863000000,,0.000318205129588,-0.000428274477599,0.000427111546742,0.00427515711635,0.00660703890026,7.62733588999e-06
21902000000,518,21902000000,,0.000294525380014,-0.00013845282956,0.000428130297223,-0.00230736355297,0.00642336672172,2.27701930271e-05
21935000000,519,21935000000,,8.98938378668e-05,-0.000178270944161,0.000429056934081,-0.00571302277967,-0.00291846692562,1.92668958334e-05
21969000000,520,21969000000,,3.15678626066e-05,-0.000386962783523,0.000429641309893,-0.000529223703779,-0.0060385200195,1.19278647617e-05
22035000000,521,22035000000,,0.000275461003184,-0.000255637656664,0.000430044339737,0.00262636551633,0.00357426167466,-3.88127909901e-06
22069000000,522,22069000000,,0.000257840525592,2.89096769848e-05,0.000432372093201,-0.00185341399629,0.00743064424023,6.24927051831e-05
22112000000,523,22112000000,,-0.000138239847729,6.87647843733e-05,0.000435679219663,-0.00924341473728,-0.00104813056532,6.1992497649e-05
22150000000,524,22150000000,,-0.000428649800597,-0.000232715217862,0.000440303032519,-0.00562004279345,-0.00773006025702,0.000111843306513
22193000000,525,22193000000,,-0.000246103125392,-0.000344692816725,0.000444738718215,0.00629183510318,-0.000265446404228,8.45099420985e-05
22215000000,526,22215000000,,-5.34575447091e-05,-0.000150784719153,0.000446336664027,0.0087904650718,0.010438320227,6.36827826384e-05
22251000000,527,22251000000,,-6.09237176832e-05,0.000163074946613,0.000446968246251,-0.00189136958215,0.00725729763508,4.58927388536e-06
22302000000,528,22302000000,,-0.000336995959515,-4.41178599431e-05,0.000449671118986,-0.00313081848435,-0.00394924543798,3.96705727326e-05
22345000000,529,22345000000,,-5.16497420904e-05,-0.00018549352535,0.000455356406746,0.00850898493081,-0.00102269346826,0.000114163784019
22383000000,530,22383000000,,0.000553222955205,0.000223896160605,0.000462277588667,0.0149806365371,0.0118081718683,0.000170935411006
22422000000,531,22422000000,,0.000780803267844,0.000805283896625,0.000474348955322,0.00163808802608,0.0111829545349,0.000268754374702
22476000000,532,22476000000,,0.000206645956496,0.000582909502555,0.000487383425934,-0.00943124294281,-0.0066017312929,0.000188038844499
22517000000,533,22517000000,,3.66246786143e-05,4.45100937441e-07,0.000497979868669,-0.00149028515443,-0.0130673553795,0.000239385190071
22556000000,534,22556000000,,0.000485359138111,-7.81388098403e-06,0.000506126089022,0.0123810712248,0.00336891808547,0.000161066607689
22583000000,535,22583000000,,0.000872194417752,0.000380981189664,0.000512517814059,0.0130399437621,0.0145239364356,0.000224342817091
22616000000,536,22616000000,,0.000879147148225,0.000590134586673,0.000516261730809,-0.00317830219865,0.00355913140811,7.89953410276e-05
22661000000,537,22661000000,,0.000527690863237,0.000233582977671,0.000514885876328,-0.00699950708076,-0.00835415627807,-5.2878043789e-05
22692000000,538,22692000000,,0.000612632429693,0.000135160211357,0.000515258056112,0.00537198316306,-0.000838768784888,2.0583780497e-05
22739000000,539,22739000000,,0.00110431318171,0.000594511104282,0.000519586610608,0.009177534841,0.0104848016053,8.61201260705e-05
22775000000,540,22775000000,,0.00105040008202,0.000847375951707,0.000524859700818,-0.00442105485126,0.00402038218454,0.000119253309094
22821000000,541,22821000000,,0.000367510627257,0.000454886932857,0.000531432626303,-0.0146048758179,-0.0107961660251,0.000116760726087
22858000000,542,22858000000,,0.000123930920381,-1.75069340003e-06,0.000536029052455,-0.00360830756836,-0.0102897631004,0.000101060097222
22935000000,543,22935000000,,0.000735420442652,0.000232789272559,0.000538486696314,0.00452319672331,0.00334156467579,-1.75511559064e-06
22975000000,544,22975000000,,0.000715152709745,0.000498819863424,0.000545467599295,-0.00390634406358,0.00494282040745,0.000163759483257
23019000000,545,23019000000,,-4.32936321886e-05,0.000114739515993,0.000544584123418,-0.0183504391462,-0.00993312802166,-4.23577839683e-05
23072000000,546,23072000000,,-0.00113765581045,-0.000674559443723,0.000543394242413,-0.0156258773059,-0.0106979431584,-2.72809811577e-05
23125000000,547,23125000000,,-0.00109864375554,-0.000413996021962,0.000532667618245,0.00642200978473,0.00921872165054,-0.000206964075915
23175000000,548,23175000000,,-0.000241120680585,0.000485302385641,0.000515240535606,0.0175225622952,0.0166081320494,-0.000334629206918
23232000000,549,23232000000,,0.00024935696274,0.000724559125956,0.000500778434798,0.003545680549,-0.00115757761523,-0.000207472912734
23280000000,550,23280000000,,-0.000223009526962,6.20071659796e-05,0.000493495666888,-0.0107485093176,-0.0141804628074,-0.000134281683131
23322000000,551,23322000000,,-0.000673410831951,-0.000447194703156,0.000487764831632,-0.00783037953079,-0.00867798924446,-0.000132845816552
23366000000,552,23366000000,,-0.000417109462433,-0.000219994210056,0.000483139912831,0.00823052600026,0.00743906758726,-0.00010418126476
23408000000,553,23408000000,,9.78936295724e-05,0.000236477193539,0.000479285750771,0.011012641713,0.0097815208137,-9.06247078092e-05
23450000000,554,23450000000,,6.02047221037e-05,0.000135336696985,0.000475047971122,-0.00458900863305,-0.00583491101861,-9.98051982606e-05
23484000000,555,23484000000,,-0.000327283574734,-0.000301039020997,0.000471438543173,-0.0114219738171,-0.0130945025012,-0.000103604230389
23526000000,556,23526000000,,-0.000358129618689,-0.000388597836718,0.000467795121949,0.00192365795374,0.000891615694854,-8.28351330711e-05
23556000000,557,23556000000,,-4.24156023655e-05,-9.48582091951e-05,0.000466153549496,0.0104938196018,0.0101829161867,-5.30032884853e-05
23640000000,558,23640000000,,-1.1319193618e-05,-2.4017832402e-05,0.00045992154628,-0.00227367668413,-0.0021593903657,-8.160383004e-05
23657000000,559,23657000000,,-0.000195020067622,-0.0002099013509,0.000458867521957,-0.0121274245903,-0.01229827106,-5.25393952557e-05
23708000000,560,23708000000,,-0.000481504335767,-0.00059318827698,0.000455737987068,-0.00237126252614,-0.00438410229981,-6.52460294077e-05
23764000000,561,23764000000,,-0.00013399013551,-0.00030376308132,0.00045345450053,0.00567074818537,0.00549185508862,-4.72410029033e-05
23815000000,562,23815000000,,-6.0672435211e-05,-8.45207250677e-05,0.000451594591141,-0.00121191248763,0.00176644511521,-4.38723800471e-05
23839000000,563,23839000000,,-0.00027892034268,-0.000231956815696,0.000450525607448,-0.0133333932608,-0.0093479687348,-2.68189469352e-05
23875000000,564,23875000000,,-0.000740429968573,-0.000630402588286,0.000449709652457,-0.0112174283713,-0.011115450412,-1.79717226274e-05
23906000000,565,23906000000,,-0.000929992180318,-0.000786533462815,0.000447423022706,0.00380663899705,0.00254576979205,-5.68298892176e-05
23947000000,566,23947000000,,-0.000650885689538,-0.000503825431224,0.000443048513262,0.00794421881437,0.00830245763063,-0.000125424063299
23994000000,567,23994000000,,-0.000541379384231,-0.000378807686502,0.000438488583313,0.00139295938425,0.00144368049223,-9.3636168458e-05
24020000000,568,24020000000,,-0.000548011797946,-0.000422289449489,0.000436555390479,-0.00103067734744,-0.00333204260096,-6.38220881228e-05
24043000000,569,24043000000,,-0.000473441032227,-0.000417887640651,0.000434990506619,0.00462274067104,0.000981077319011,-8.1538761151e-05
24066000000,570,24066000000,,-0.000297522172332,-0.000311265175696,0.000432735279901,0.00747164338827,0.00576153118163,-8.45390168251e-05
24116000000,571,24116000000,,-0.00016010030231,-0.00020044525445,0.000428717496106,1.56058477252e-09,1.16305653997e-09,-8.6951203182e-11
24162000000,572,24162000000,,-0.000221927228267,-0.000313506345265,0.000424250785727,-0.00122025841847,-0.00241239485331,-8.98061916814e-05
24206000000,573,24206000000,,-0.000143918674439,-0.000330662413035,0.000420728989411,0.00332155148499,0.00110291468445,-7.83147261245e-05
24235000000,574,24235000000,,0.000102085323306,-0.00013594191114,0.000419026910095,0.00926080998033,0.00769953010604,-5.6476212194e-05
24271000000,575,24271000000,,0.000373847171431,0.000131760418299,0.000417002418544,0.00602846918628,0.00637337518856,-5.95465317019e-05
24298000000,576,24298000000,,0.000348749512341,0.000131411856273,0.000414852023823,-0.00208932207897,-0.0011528293835,-8.35527753225e-05
24340000000,577,24340000000,,0.000242407491896,8.01896658231e-06,0.000410879205447,-0.00213801045902,-0.00268741138279,-9.86788727459e-05
24369000000,578,24369000000,,0.000344101194059,8.74655524967e-05,0.000408442108892,0.0044124876149,0.00383903319016,-7.82661300036e-05
24398000000,579,24398000000,,0.000506645359565,0.000271139666438,0.000406568113249,0.0056190774776,0.00676443846896,-6.02474465268e-05
24452000000,580,24452000000,,0.000459669565316,0.000322605541442,0.00040285216528,-0.00233176792972,-0.000662058591843,-7.85662050475e-05
24500000000,581,24500000000,,0.000222328613745,8.53764504427e-05,0.000398941192543,-0.00413575861603,-0.00463755615056,-8.14214436105e-05
24538000000,582,24538000000,,0.000254677928751,7.05882484908e-05,0.000396208954044,0.00241559976712,0.00128336856142,-7.1849928645e-05
24571000000,583,24571000000,,0.000471285049571,0.000305146735627,0.00039410428144,0.00660423981026,0.00788130704314,-6.12367075519e-05
24620000000,584,24620000000,,0.000538918131497,0.000505539530423,0.000391139794374,-4.89141172011e-10,1.62229463196e-09,-6.06459257813e-11
24662000000,585,24662000000,,0.000259328342509,0.000244005859713,0.000388714979636,-0.00657386751845,-0.00687986100093,-5.94626872044e-05
24697000000,586,24697000000,,0.000148156585055,-1.19715996334e-05,0.000387179898098,-0.00201747729443,-0.00605264678597,-4.73835134471e-05
24743000000,587,24743000000,,0.000357219250873,0.000160077412147,0.000386015686672,0.00476155383512,0.00528560951352,-3.09635033773e-05
24768000000,588,24768000000,,0.000437582639279,0.000365291547496,0.000386188883567,0.00158141949214,0.00924867764115,3.01787531498e-05
24810000000,589,24810000000,,0.000165915509569,0.000355763972038,0.000385749852285,-0.00772209279239,-0.00299125444144,-2.74105441349e-05
24857000000,590,24857000000,,-0.000139261552249,-2.3218235583e-05,0.000385465187719,-0.00448144972324,-0.00684953620657,-1.41896598507e-05
24898000000,591,24898000000,,6.37763660052e-05,7.52767955419e-05,0.000385467312299,0.0063298670575,0.00462994305417,-9.69076882029e-06
24942000000,592,24942000000,,0.000418207026087,0.000634693948086,0.00038566836156,0.00640642829239,0.012095939368,-4.23655228587e-06
24977000000,593,24977000000,,0.000313810771331,0.000770823739003,0.000387815176509,-0.00504936324432,0.000734440924134,5.3268740885e-05
25019000000,594,25019000000,,-0.000119458549307,0.000325777538819,0.000391890149331,-0.00991844385862,-0.0123589402065,8.73025273904e-05
25050000000,595,25050000000,,-0.000184174554306,2.02268656722e-05,0.000394614413381,0.00135108677205,-0.00709709711373,7.01032331563e-05
25101000000,596,25101000000,,0.000362459017197,0.000302095751977,0.000396354065742,0.00911103654653,0.00634032208472,1.32510331241e-05
25150000000,597,25150000000,,0.000361460755812,0.000578675768338,0.000401303608669,-0.00360956555232,0.00237734150141,7.89165205788e-05
25193000000,598,25193000000,,-0.000304013141431,9.6390125691e-05,0.000406288600061,-0.0152843398973,-0.0121047329158,8.96746205399e-05
25235000000,599,25235000000,,-0.000788025325164,-0.000645784428343,0.000413639209,-0.00769014144316,-0.0146841146052,0.000145007958054
25274000000,600,25274000000,,-0.000562467554118,-0.000645427731797,0.000418042065576,0.00824686978012,0.00377132557333,7.92333885329e-05
25311000000,601,25311000000,,-9.40930622164e-05,-9.13256444619e-05,0.000419271644205,0.0116422530264,0.0151555556804,1.51472440848e-05
25353000000,602,25353000000,,-0.00010088338604,0.000130539032398,0.000419278308982,-0.00306717632338,0.00138050725218,-1.60716208484e-05
25395000000,603,25395000000,,-0.000546950090211,-0.000305041350657,0.000421931472374,-0.00988333672285,-0.0113102272153,5.64828733332e-05
25420000000,604,25420000000,,-0.00054739479674,-0.000502288225107,0.000423812365625,0.00282798358239,-0.00599076785147,6.43583698547e-05
25464000000,605,25464000000,,5.29440985702e-05,-0.000222477450734,0.000424050696893,0.0134095521644,0.00747206807137,-1.06303323264e-05
25510000000,606,25510000000,,0.000236892403336,5.97390826442e-05,0.000425197358709,4.90456368425e-05,0.00361336069182,1.02754511317e-05
25545000000,607,25545000000,,-0.000151542029926,-0.000220847374294,0.000424017984187,-0.0136021263897,-0.0108431810513,-5.06051037519e-05
25576000000,608,25576000000,,-0.000510186597239,-0.000632787763607,0.000422307959525,-0.00961425807327,-0.012423989363,-5.93555960222e-05
25605000000,609,25605000000,,-0.000443530472694,-0.000652727554552,0.000420685770223,0.00360651616938,0.00112485815771,-6.09473863733e-05
25648000000,610,25648000000,,-0.000245828152401,-0.000349130044924,0.000417177740019,0.00402756500989,0.00734516931698,-9.30811656872e-05
25692000000,611,25692000000,,-0.000510899408255,-0.000452992710052,0.000414041278418,-0.00764071242884,-0.00503374636173,-6.76974232192e-05
25749000000,612,25749000000,,-0.000997825525701,-0.00108543562237,0.000413969799411,-0.00500753941014,-0.00815739762038,-1.90758910321e-05
25795000000,613,25795000000,,-0.000662428094074,-0.000953736016527,0.000416249211412,0.00935402698815,0.00646490463987,2.54619626503e-05
25839000000,614,25839000000,,8.46826515044e-05,-0.000144430669025,0.000421066215495,0.0152441421524,0.0177347399294,8.64273970365e-05
25851000000,615,25851000000,,0.000175650187884,4.74023509014e-05,0.000422693556175,0.00503180827945,0.0148677676916,0.000141570693813
25886000000,616,25886000000,,4.6738779929e-05,0.000209730205825,0.000425479258411,-0.0100217079744,-0.00153343542479,5.10863101226e-05
25933000000,617,25933000000,,-0.000133395005832,7.63556308812e-05,0.000422477518441,-0.00129196036141,-0.00215975963511,-9.36854703468e-05
25975000000,618,25975000000,,0.000143108904012,0.000278523832094,0.000418960757088,0.0100993663073,0.00835384894162,-8.37287298054e-05
26020000000,619,26020000000,,0.000417083210777,0.000760390947107,0.000417485862272,0.00215856963769,0.00855115521699,-2.19360244955e-05
26037000000,620,26037000000,,0.000347821303876,0.000803347385954,0.000418130599428,-0.00886103883386,-0.000182054704055,7.88203687989e-05
26071000000,621,26071000000,,1.78277350642e-05,0.000557225605007,0.000417618837673,-0.00906113162637,-0.00900696124882,-5.6676024542e-05
26097000000,622,26097000000,,-0.000332172872731,0.000234853287111,0.000416626979131,-0.0134168937802,-0.0121629545465,-2.5663202905e-05
26124000000,623,26124000000,,-0.000406333943829,0.000194309162907,0.000413353642216,0.00358139537275,0.00448905443773,-0.00018075677508
26159000000,624,26159000000,,0.000105951956357,0.000694260001183,0.000403179670684,0.0178114380687,0.0166092142463,-0.000311214767862
26201000000,625,26201000000,,0.00065537833143,0.00112409086432,0.00039220546023,0.0097000207752,0.00587363867089,-0.000232349091675
26230000000,626,26230000000,,0.00063207524363,0.000964587612543,0.000386525760405,-0.00461980188265,-0.00940760876983,-0.000180221424671
26260000000,627,26260000000,,0.000443185970653,0.000641302729491,0.000381472404115,-0.00696387700737,-0.0113299069926,-0.000169550607097
26294000000,628,26294000000,,0.000451468164101,0.000537585932761,0.000376252719434,0.0045741405338,0.00240013725124,-0.000124486032291
26324000000,629,26324000000,,0.000650031201076,0.000678752548993,0.000372905196855,0.00596904940903,0.00435549812391,-0.000111299828859
26365000000,630,26365000000,,0.000547633797396,0.000498174806125,0.000366327585652,-0.00358270620927,-0.00490271672606,-0.000157656701049
26394000000,631,26394000000,,0.000332320079906,0.000251702207606,0.000361201993655,-0.00689497031271,-0.00790154468268,-0.00017326559464
26437000000,632,26437000000,,0.000320974417264,0.000242005422479,0.00035527345608,0.0013054482406,0.00153783836868,-0.000138043920742
26478000000,633,26478000000,,0.00053026562091,0.000459005823359,0.000349944224581,0.00458436226472,0.00468175532296,-0.000125224149087
26498000000,634,26498000000,,0.000526235729922,0.000450833525974,0.000347350083757,-0.00259838276543,-0.00294110551476,-0.000141700307722
26545000000,635,26545000000,,0.000172716579982,9.36013457249e-05,0.000340181752108,-0.00857564155012,-0.00863726995885,-0.000145601443364
26591000000,636,26591000000,,2.89366307697e-05,-3.0119332223e-05,0.000333814008627,-2.29074897939e-10,-1.67969770037e-11,-4.63805660544e-11
26642000000,637,26642000000,,0.00029018407804,0.000270274613285,0.000327295187162,0.00524083478376,0.00578552903607,-0.000128947634948
26664000000,638,26664000000,,0.000345452077454,0.000331504765199,0.000324393738993,0.00129544641823,0.00153665733524,-0.00013262021821
26706000000,639,26706000000,,6.30177892162e-05,6.62144302623e-05,0.0003187530383,-0.00726872077212,-0.00676578609273,-0.000129790816572
26740000000,640,26740000000,,-9.9978838989e-05,-7.14601337677e-05,0.000314573990181,-0.00359693798237,-0.0028202040121,-0.000130486208946
26792000000,641,26792000000,,0.000193323532585,0.00024606010993,0.00030721296207,0.00573157100007,0.00569585291669,-0.00013481224596
26813000000,642,26813000000,,0.000282416847767,0.000336330820573,0.000304703135043,0.0038510770537,0.00394058320671,-0.00013138257782
26866000000,643,26866000000,,-4.6696382924e-05,-4.65114362669e-06,0.000297766790027,-0.00661917449906,-0.00644074799493,-0.000124460304505
26912000000,644,26912000000,,-0.000256319122855,-0.000214632644202,0.000292277487461,-0.00222679576837,-0.00223022210412,-0.000122356126667
26951000000,645,26951000000,,8.16297906567e-05,0.000147645012476,0.000287017319351,0.0100635308772,0.0104231992736,-0.000133855006425
26989000000,646,26989000000,,0.000494030537084,0.000583320099395,0.000281990069197,0.00905911996961,0.00949186831713,-0.000129601394292
27020000000,647,27020000000,,0.000423432356911,0.00047776667634,0.000277161219856,-0.00491492217407,-0.0056300596334,-0.000138794275699
27066000000,648,27066000000,,3.00646534015e-05,3.7566125684e-05,0.000270270567853,-0.00864036008716,-0.00907589308918,-0.000148038816405
27104000000,649,27104000000,,0.000102328558569,0.000145665282616,0.000265040289378,0.00404952093959,0.00516530591995,-0.000130520027597
27142000000,650,27142000000,,0.000494550331496,0.000603702384979,0.00026016990887,0.00971005950123,0.011001450941,-0.000125617152662
27173000000,651,27173000000,,0.000524528441019,0.000628429697827,0.000256194209214,-0.0025105830282,-0.00316635961644,-0.000129206397105
27208000000,652,27208000000,,0.000166135025211,0.000204844080145,0.00025170322624,-0.0128384707496,-0.0147897340357,-0.000128911080537
27247000000,653,27247000000,,-9.45072097238e-05,-7.50064864405e-05,0.000246670475462,-0.0028375161346,-0.00278612133116,-0.000122856145026
27294000000,654,27294000000,,0.00027152657276,0.000346861372236,0.000240969384322,0.00726811867207,0.00806694477797,-0.000117109775601
27325000000,655,27325000000,,0.000338558631483,0.000430742977187,0.000237470609136,1.23465515589e-10,2.57459109587e-10,-4.31155597336e-11
27365000000,656,27365000000,,-0.000119300573715,-3.59625846613e-05,0.000234211765928,-0.0117619642988,-0.0117869852111,-7.87663811934e-05
27418000000,657,27418000000,,-0.000518398475833,-0.000531263300218,0.000230821737205,-0.00348104024306,-0.00508306920528,-7.24080673535e-05
27455000000,658,27455000000,,-0.000192041698028,-0.000244439259404,0.000229438737733,0.0120322434232,0.0112453084439,-3.39829057339e-05
27493000000,659,27493000000,,0.000353937561158,0.000397242285544,0.000228070901358,0.0137217259035,0.017178799957,-4.12798908656e-05
27522000000,660,27522000000,,0.000435660593212,0.000565242720768,0.000226698582992,-6.5533733995e-10,1.53177792672e-09,-4.92736892954e-11
27548000000,661,27548000000,,0.000283287808998,0.000413233821746,0.000225132491323,-0.00818110350519,-0.00865730457008,-8.24323433335e-05
27608000000,662,27608000000,,0.000361388432793,0.000309768947773,0.000218975299504,0.0032558105886,0.00161165103782,-9.6422045317e-05
27647000000,663,27647000000,,0.000635787378997,0.000721721618902,0.000219482535613,0.00649100961164,0.0114056905732,1.78376667463e-05
27684000000,664,27684000000,,0.000534096849151,0.000990867963992,0.000222331305849,-0.00483752507716,0.00398837542161,5.67520764889e-05
27718000000,665,27718000000,,0.000161286618095,0.00072479469236,0.000224797040573,-0.0115357656032,-0.0100839007646,6.46985063213e-05
27761000000,666,27761000000,,-1.37654005812e-05,0.000310208648443,0.00022494699806,-0.001604191144,-0.00734796002507,-1.9541286747e-05
27791000000,667,27791000000,,0.000170079962118,0.000413136032876,0.000224314251682,0.00761779583991,0.00602412549779,-2.82706787402e-05
27850000000,668,27850000000,,0.000279799249256,0.000818164786324,0.000224133749725,-0.00185549573507,0.00497954431921,-6.11230507275e-06
27910000000,669,27910000000,,-0.000333923642756,0.000370555906557,0.000228102609981,-0.00866105500609,-0.00944752339274,3.79056400561e-05
27948000000,670,27948000000,,-0.000523494440131,-0.000205241289223,0.000234544655541,-0.00312526151538,-0.0147549659014,0.00016244543076
27988000000,671,27988000000,,-0.000159496514243,-0.000364209263353,0.000241625588387,0.0104889599606,0.000344017142197,0.00013339058205
28045000000,672,28045000000,,0.000330220413161,0.000194341046154,0.000247764372034,0.00545281311497,0.00859951134771,6.98458970874e-05
28086000000,673,28086000000,,2.6984647775e-05,0.000205879812711,0.000252966419794,-0.00982446130365,-0.00336550106294,9.90148400888e-05
28135000000,674,28135000000,,-0.00058089219965,-0.000501663191244,0.000258529558778,-0.0092985983938,-0.0138960937038,8.02253416623e-05
28185000000,675,28185000000,,-0.000490657286718,-0.000950099900365,0.000270192249445,0.00893597491086,-0.0037204248365,0.000284899841063
28221000000,676,28221000000,,0.000151887710672,-0.000579286017455,0.00028168951394,0.0170980133116,0.0123868957162,0.000275242433418
28254000000,677,28254000000,,0.000456536072306,2.30860368902e-05,0.000288651935989,0.00649857148528,0.0167022384703,0.00016670988407
28291000000,678,28291000000,,0.000255216174992,0.000190438251593,0.000291423639283,-0.00656105577946,0.00210591731593,4.71957682748e-05
28328000000,679,28328000000,,0.000189725717064,-9.4577037089e-05,0.00029075864586,0.000153735862114,-0.00773101300001,-4.18906129198e-05
28381000000,680,28381000000,,0.000791224301793,3.0445646189e-05,0.000289694551611,0.00913737155497,0.0042682075873,-3.83513688575e-05
28431000000,681,28431000000,,0.000944331812207,0.000728115730453,0.000303218752379,-0.00123106187675,0.0111743994057,0.000217511871597
28463000000,682,28463000000,,0.000509390200023,0.000805345713161,0.000313901109621,-0.0162173081189,-0.00114881736226,0.000300027139019
28506000000,683,28506000000,,-0.000327710469719,0.000230297737289,0.000325094268192,-0.0169497542083,-0.0145538765937,0.000206152617466
28549000000,684,28549000000,,-0.000514564453624,-0.000315998768201,0.000333129748469,-0.000333164673066,-0.0088068805635,0.000129831489176
28599000000,685,28599000000,,-4.04716593039e-05,-7.42066767998e-05,0.00033648518729,0.00810886640102,0.0063701197505,2.34127837757e-05
28644000000,686,28644000000,,-9.9273675005e-05,0.000344734144164,0.000340214726748,-0.00543390959501,0.00801885407418,6.80149896652e-05
28692000000,687,28692000000,,-0.00088377262,9.54800052568e-05,0.000345184176695,-0.0146106444299,-0.00667800568044,6.3578823756e-05
28728000000,688,28728000000,,-0.0011486626463,-0.000395738316001,0.000353825191269,-0.00427867053077,-0.0121738361195,0.000202061622986
28790000000,689,28790000000,,-0.000547671748791,-0.000302215077681,0.000354165182216,0.0103347301483,0.00486369756982,-5.98651895416e-05
28828000000,690,28828000000,,-0.000143849567394,0.000204262731131,0.000353534094756,0.00968212448061,0.0133324963972,-3.20619292324e-05
28861000000,691,28861000000,,-0.000218701883568,0.000367986795027,0.000353417155566,-0.0063297287561,0.000765807577409,-4.42257169198e-06
28914000000,692,28914000000,,-0.00073707284173,-0.000211359205423,0.000350447575329,-0.00686262035742,-0.00908059068024,-8.10119308881e-05
28930000000,693,28930000000,,-0.000695553899277,-0.000266432267381,0.000350166083081,0.00558012817055,-0.00241194409318,-6.55637040836e-06
28989000000,694,28989000000,,0.000157976304763,0.000321309576975,0.000343729218002,0.0109641514719,0.00804772693664,-0.00012540287571
29039000000,695,29039000000,,8.71777665452e-05,0.000502412498463,0.000343769264873,-0.00551219843328,-0.000469347345643,-1.82738840522e-05
29082000000,696,29082000000,,-0.000643874402158,-6.56037664157e-05,0.000345768901752,-0.0161561630666,-0.0146060334519,2.32353704632e-05
29105000000,697,29105000000,,-0.000935659918468,-0.000493322091643,0.000348033558112,-0.010305531323,-0.0180159527808,9.71778135863e-05
29155000000,698,29155000000,,-0.00080429186346,-0.000727220729459,0.000347666878952,0.00634274445474,0.000207965727895,-5.55414990231e-05
29204000000,699,29204000000,,-0.000511954014655,-0.000403783866204,0.000341950857546,0.00411198753864,0.00598138989881,-0.000133062378154
29240000000,700,29240000000,,-0.000725159887224,-0.000458532391349,0.00033723298111,-0.00723676988855,-0.00319659686647,-0.000133202600409
29279000000,701,29279000000,,-0.00106492941268,-0.000850862008519,0.000334060343448,-0.00740329874679,-0.00994579493999,-8.34785460029e-05
29312000000,702,29312000000,,-0.000961373618338,-0.000951052294113,0.000332406780217,0.00559454830363,-0.000471492588986,-5.89060073253e-05
29352000000,703,29352000000,,-0.000516787171364,-0.000534985447302,0.000327638757881,0.0101920394227,0.0103261619806,-0.000127910650917
29387000000,704,29387000000,,-0.000460666051367,-0.000336294004228,0.000323433108861,-0.000565570080653,0.00352616189048,-0.000124927959405
29427000000,705,29427000000,,-0.000735035166144,-0.000631960690953,0.000318927312037,-0.00663281884044,-0.00833720900118,-0.000117282950669
29467000000,706,29467000000,,-0.000678392651025,-0.00081412208965,0.000315135606797,0.00319242407568,-0.00234112679027,-0.000107547763037
29508000000,707,29508000000,,-0.000194709515199,-0.000404090736993,0.000312301533995,0.0109404111281,0.0107802180573,-7.62595809647e-05
29546000000,708,29546000000,,-2.92019576591e-05,-1.35640912049e-05,0.000310240691761,0.00198237271979,0.00800093542784,-6.65625557303e-05
29589000000,709,29589000000,,-0.000360563193681,-0.00020394740568,0.000307471811539,-0.00839740689844,-0.0066165109165,-8.07743781479e-05
29626000000,710,29626000000,,-0.000496488297358,-0.000537925749086,0.000304739194689,-0.00127532961778,-0.00651894835755,-8.22470101411e-05
29674000000,711,29674000000,,3.74651699531e-06,-0.000226344447583,0.000300941115711,0.00977638084441,0.00754631869495,-8.97789868759e-05
29717000000,712,29717000000,,0.000256594124949,0.000251843652222,0.000300384301227,0.00320100132376,0.00858872942626,-3.07571208396e-05
29764000000,713,29764000000,,-0.000197292829398,1.91226445168e-05,0.000299437757349,-0.0102465925738,-0.00710594141856,-4.36798909504e-05
29818000000,714,29818000000,,-0.00069918774534,-0.000736338552088,0.000299845065456,-0.00475205807015,-0.00981072057039,-2.21170266741e-05
29862000000,715,29862000000,,-0.000304586137645,-0.000573266355786,0.000302491011098,0.0110623277724,0.00746863288805,3.24157590512e-05
29916000000,716,29916000000,,0.000553674646653,0.000440989329945,0.00030779527151,0.0115790702403,0.0154231553897,4.88511977892e-05
29973000000,717,29973000000,,0.000320490740705,0.000794315943494,0.00031650296296,-0.00793311372399,0.000366511027096,8.83827524376e-05
30029000000,718,30029000000,,-0.000655371753965,7.22163676983e-05,0.000332198746037,-0.0138619057834,-0.0137121612206,0.000205719581572
30079000000,719,30079000000,,-0.000771576946136,-0.000719387142453,0.000350535032339,0.0033474098891,-0.0102740302682,0.000269062817097
30127000000,720,30127000000,,8.68412735144e-06,-0.000459549220977,0.000358790712198,0.0166115649045,0.00834723934531,0.000103749276605
30171000000,721,30171000000,,0.0007082184311,0.000316777266562,0.000366190448403,0.0121024139225,0.0163171328604,0.000132682413096
30214000000,722,30214000000,,0.000621432031039,0.000420420721639,0.00036692462163,-0.00506795104593,-0.00152442394756,-2.89051367872e-05
30265000000,723,30265000000,,9.16752178455e-05,-0.000257350184256,0.000362195016351,-0.00804251711816,-0.0123710669577,-0.000117184885312
30305000000,724,30305000000,,0.000252491707215,-0.000454302557046,0.000360697304131,0.00639229966328,-0.00153690925799,-5.07745571667e-05
30326000000,725,30326000000,,0.000560322019737,-0.000257764972048,0.000362857041182,0.016599258408,0.01295534987,0.000140100935823
30357000000,726,30357000000,,0.000757240341045,0.000145409285324,0.000360772421118,0.00471029337496,0.0116031011567,-9.6821320767e-05
30386000000,727,30386000000,,0.000628642679658,0.000221577385673,0.000356689677574,-0.00632566818967,-4.90876191179e-05,-0.000157518545166
30427000000,728,30427000000,,0.000684490427375,0.000117738367408,0.000349351350451,0.00351683329791,-0.00259108981118,-0.000203318035346
30462000000,729,30462000000,,0.00104429910425,0.00027375711943,0.000344594038324,0.0106330942363,0.00662059523165,-0.000116175222502
30505000000,730,30505000000,,0.00114931096323,0.000672038295306,0.000343196967151,-0.00122418114915,0.00747337611392,-3.94189810322e-05
30538000000,731,30538000000,,0.000803578703199,0.00068561261287,0.000342914892826,-0.0123935975134,-0.00263616768643,-1.88493650057e-05
30586000000,732,30586000000,,0.000411919201724,0.000256100029219,0.00033683719812,-0.00563263846561,-0.00803082529455,-0.000153512373799
30629000000,733,30629000000,,0.000565776543226,0.00017137521354,0.000331521412591,0.00444187782705,5.44007016288e-05,-0.000133682609885
30660000000,734,30660000000,,0.000629842281342,0.00042014970677,0.000328215421177,0.000795723462943,0.00811539404094,-0.000114186776045
30693000000,735,30693000000,,0.000352813251084,0.000550730270334,0.000324763037497,-0.0101305646822,0.00188139872625,-0.000106636616692
30727000000,736,30727000000,,5.27733755007e-05,0.000315315905027,0.000321037805406,-0.00782201625407,-0.00741194654256,-0.000123564430396
30769000000,737,30769000000,,0.000108404303319,0.000118743264466,0.000315769284498,0.00321420794353,-0.00303558050655,-0.000140331525472
30805000000,738,30805000000,,0.000248066644417,0.000334035430569,0.000310332630761,0.003177795792,0.00677370559424,-0.000163431977853
30835000000,739,30835000000,,0.000118257703434,0.000519180903211,0.000306241592625,-0.00663806032389,0.00449063209817,-0.000122240366181
30857000000,740,30857000000,,-5.88331749896e-05,0.000415204645833,0.00030370632885,-0.00874120183289,-0.0063863992691,-0.000131819935632
30880000000,741,30880000000,,-0.000118547686725,0.0002308794501,0.000299536070088,-0.000197330882656,-0.00725352391601,-0.000180089977221
30912000000,742,30912000000,,-4.81047973153e-05,0.000261540233623,0.000292733224342,0.00224722921848,0.00240863347426,-0.000218891727854
30945000000,743,30945000000,,-0.000160752111697,0.00037936429726,0.000286398339085,-0.00426856568083,0.00289210537449,-0.000197132074391
31005000000,744,31005000000,,-0.0005009456072,5.9972411691e-05,0.000277243671007,-0.00301704811864,-0.00503279315308,-0.00016199160018
31057000000,745,31057000000,,-0.000291099044262,-0.00024722708622,0.000273984653177,0.00607847841457,-0.00376011035405,-7.98397886683e-05
31091000000,746,31091000000,,0.000134844143759,-6.61237863824e-05,0.000272923498414,0.0117495954037,0.00654728431255,-4.57441346953e-05
31140000000,747,31140000000,,0.000400670047384,0.000483507843455,0.000270854361588,0.00270819361322,0.00904175173491,-6.73018221278e-05
31188000000,748,31188000000,,0.000154326786287,0.000449223123724,0.000268546136795,-0.00606150273234,-0.00380532350391,-6.81694946252e-05
31231000000,749,31231000000,,1.38725943089e-06,-9.20681850403e-05,0.00026475804043,-0.00178317364771,-0.0114711280912,-0.000104889251816
31269000000,750,31269000000,,0.000251774064964,-0.000261904322542,0.00026296483702,0.00775127438828,-0.00111977907363,-5.03713054059e-05
31316000000,751,31316000000,,0.000543104833923,0.000192228049855,0.000262505956925,0.00435938127339,0.00990262348205,-3.20489380101e-05
31359000000,752,31359000000,,0.000306359492242,0.00038980320096,0.000262276938884,-0.00721911713481,0.000980378361419,-3.03362594423e-05
31384000000,753,31384000000,,9.0332061518e-05,0.000204130119528,0.000262194429524,-0.00931901391596,-0.0135368183255,1.42097833304e-05
31430000000,754,31430000000,,6.90311935614e-05,-0.000449471961474,0.000257005856838,0.00124553730711,-0.0119494609535,-0.000145068828715
31461000000,755,31461000000,,0.000178933958523,-0.000484258809593,0.000254108570516,0.00325352745131,0.000596537138335,-0.000105654791696
31500000000,756,31500000000,,-3.39005168826e-06,-0.00021199339244,0.0002470635809,-0.00559559464455,0.0063915043138,-0.000184466669452
31539000000,757,31539000000,,-0.000318665232044,-0.000286255351966,0.000241461864789,-0.00703765498474,-0.0034413356334,-0.000149867802975
31591000000,758,31591000000,,-0.000238010514295,-0.000788551289588,0.000239278844674,0.00325833493844,-0.00688707549125,-6.32404917269e-05
31632000000,759,31632000000,,0.000105440100015,-0.00069013639586,0.000240274632233,0.00705219293013,0.0049067302607,-5.80232017455e-06
31678000000,760,31678000000,,0.000111870736873,1.0294211279e-06,0.000241047193413,-0.0020964522846,0.0145018957555,-1.28797692014e-05
31720000000,761,31720000000,,-0.000289932853775,0.000299876439385,0.000242887588684,-0.00872396491468,0.00320872897282,1.39183412102e-05
31751000000,762,31751000000,,-0.00039425099385,5.30609540874e-05,0.000244128808845,-0.00146843190305,-0.0109520312399,2.86688264168e-05
31791000000,763,31791000000,,-6.98722578818e-05,-0.000407272978919,0.000242168054683,0.0095579251647,-0.00908713415265,-8.45343092806e-05
31830000000,764,31830000000,,0.000136954622576,-0.000304873217829,0.00023904646514,0.00383911957033,0.00480517139658,-9.94935908238e-05
31869000000,765,31869000000,,-9.56867079367e-05,4.74229864267e-06,0.000235450643231,-0.00833208207041,0.00742962956429,-0.000103215512354
31916000000,766,31916000000,,-0.000384686602047,-0.000148688428453,0.000231570957112,-0.00318239140324,-0.00584335299209,-9.24602136365e-05
31964000000,767,31964000000,,2.39089877141e-06,-0.000624728156254,0.000230644640396,0.00866528041661,-0.00720602320507,-4.90610291308e-05
32004000000,768,32004000000,,0.000367913598893,-0.000488440680783,0.000233253769693,0.00661128666252,0.00727265840396,5.87336289755e-05
32038000000,769,32038000000,,0.000185825949302,1.92270854313e-05,0.000235201703617,-0.00792767480016,0.0154444854707,3.11055009661e-05
32087000000,770,32087000000,,-0.000408894527936,0.000350839836756,0.00023458013311,-0.0090182069689,0.00276848557405,-4.83039984829e-05
32125000000,771,32125000000,,-0.000283375527943,4.08270425396e-05,0.000235838524532,0.00760328443721,-0.0105196684599,2.78488005279e-05
32156000000,772,32156000000,,0.000225295429118,-0.000165462246514,0.000234959807131,0.0169903226197,-0.00472788466141,-5.59955187782e-05
32186000000,773,32186000000,,0.000427978811786,9.37410334245e-07,0.000233996877796,0.00358290667646,0.00851464550942,-3.93021327909e-05
32237000000,774,32237000000,,5.43946953258e-05,0.000310351577355,0.000232396225329,-0.00814145617187,0.00249769259244,-5.19120076206e-05
32280000000,775,32280000000,,0.000103892547486,-2.23997139983e-05,0.000230533536524,0.00458344537765,-0.0103200469166,-6.669616414e-05
32341000000,776,32341000000,,0.000953939510509,-0.000636210199445,0.000229813536862,0.0143532007933,-0.00663448451087,-3.00254796457e-05
32373000000,777,32373000000,,0.00127383240033,-0.000600472849328,0.00023272690305,0.00479237642139,0.00973273813725,0.000248930125963
32421000000,778,32421000000,,0.000866825459525,0.000195907094167,0.000242246838752,-0.0117271263152,0.0166154466569,0.000135550435516
32475000000,779,32475000000,,0.00016043598589,0.00056040158961,0.0002454239293,-0.00984233804047,0.00154664355796,-8.87206260813e-06
32523000000,780,32523000000,,0.000309568917146,2.74441026704e-05,0.00024292965827,0.00603047758341,-0.0118191279471,-8.83666798472e-05
32574000000,781,32574000000,,0.000875563651789,-0.000373571179807,0.000239911300014,0.00892895739526,-0.00406883237883,-7.92597347754e-05
32605000000,782,32605000000,,0.00081095850328,-8.80719599081e-05,0.000239484419581,-0.0043963631615,0.0102903684601,-3.1768639019e-05
32649000000,783,32649000000,,0.000155702713528,0.000460236013168,0.000237484913669,-0.0147276483476,0.0104894731194,-7.71936174715e-05
32682000000,784,32682000000,,-2.73327786999e-05,0.000392238522181,0.000234980499954,-0.00228939647786,-0.00571623397991,-9.33687479119e-05
32748000000,785,32748000000,,0.000581841857638,-0.00034995409078,0.00022478120809,0.00602572131902,-0.0061192959547,-0.000178787668119
32793000000,786,32793000000,,0.000481679162476,-2.36380019487e-05,0.000222347574891,-0.00557898636907,0.00975903868675,-8.35023311083e-05
32819000000,787,32819000000,,7.89495679783e-05,0.000464236887638,0.000222915390623,-0.0198457725346,0.0217109769583,4.75137458125e-05
32871000000,788,32871000000,,-0.000983224133961,0.00116623786744,0.000224290633923,-0.0170965753496,0.00758331874385,-1.22981555251e-05
32922000000,789,32922000000,,-0.00118103297427,0.000905702181626,0.000225982337724,0.00122325168923,-0.00799809396267,1.27080443235e-06
32966000000,790,32966000000,,-0.000725559832063,0.000525536772329,0.000223585142521,0.0115011660382,-0.0067780665122,-9.40890313359e-05
33002000000,791,33002000000,,-0.000566885573789,0.000637470569927,0.000217870299821,0.00200554239564,0.00546133797616,-0.000185021781363
33042000000,792,33042000000,,-0.000760611786973,0.000922898296267,0.000212372207898,-0.00904672313482,0.00728703988716,-0.000117752417282
33077000000,793,33077000000,,-0.000911891635042,0.000853096833453,0.000208199882763,-0.00131329486612,-0.00598903279752,-0.000123115256429
33110000000,794,33110000000,,-0.000640737009235,0.000471714040032,0.000202724273549,0.00940228253603,-0.0112643893808,-0.000181017749128
33138000000,795,33138000000,,-0.00043264994747,0.000381775695132,0.000196952285478,0.00639599002898,-0.00198255060241,-0.000211551523535
33161000000,796,33161000000,,-0.000496644293889,0.000486250821268,0.000191749655642,-0.00387302716263,0.00488794455305,-0.0002190953237
33194000000,797,33194000000,,-0.0005874754861,0.000463782460429,0.000185468015843,-0.00217887712643,-0.00297152716666,-0.000207740813494
33234000000,798,33234000000,,-0.000387161155231,0.000165888603078,0.000178319984116,0.00798074807972,-0.00912756286561,-0.000185695680557
33270000000,799,33270000000,,-9.7162934253e-05,-7.88775741967e-06,0.000171966690687,0.00719052366912,-0.00132684898563,-0.000165207995451
33324000000,800,33324000000,,-0.000115040878882,0.000257089472143,0.000162157972227,-0.00354679604061,0.00632544793189,-0.000186401273822
33363000000,801,33363000000,,-0.000308043556288,0.00037689099554,0.000154628942255,-0.0039955386892,0.000870142015629,-0.000188319769222
33403000000,802,33403000000,,-0.000235855477513,0.000154378183652,0.000147435624967,0.00395296188071,-0.00759389204904,-0.000199973757844
