%time,field.header.seq,field.header.stamp,field.header.frame_id,field.angular_velocities0,field.angular_velocities1,field.angular_velocities2,field.angular_velocities3
16205000000,367,16205000000,,431.289814387,431.286834359,431.289814387,431.286834359
16237000000,368,16237000000,,429.904903608,429.90192358,429.904903608,429.90192358
16279000000,369,16279000000,,430.622325143,430.619345114,430.622325143,430.619345114
16299000000,370,16299000000,,431.625969576,431.622989548,431.625969576,431.622989548
16318000000,371,16318000000,,432.445296726,432.443413844,432.445296726,432.443413844
16350000000,372,16350000000,,432.981999942,432.98011706,432.981999942,432.98011706
16369000000,373,16369000000,,432.422392046,432.420509164,432.422392046,432.420509164
16402000000,374,16402000000,,433.264821042,433.26293816,433.264821042,433.26293816
16438000000,375,16438000000,,430.650884376,430.648742183,430.650884376,430.648742183
16471000000,376,16471000000,,430.953843924,430.951701731,430.953843924,430.951701731
16505000000,377,16505000000,,431.060836776,431.058694583,431.060836776,431.058694583
16538000000,378,16538000000,,434.044542739,434.042400547,434.044542739,434.042400547
16571000000,379,16571000000,,430.153240008,430.152271992,430.153240008,430.152271992
16601000000,380,16601000000,,432.396009401,432.395041385,432.396009401,432.395041385
16640000000,381,16640000000,,432.005669237,432.004701221,432.005669237,432.004701221
16671000000,382,16671000000,,431.285482431,431.284514415,431.285482431,431.284514415
16701000000,383,16701000000,,432.617145473,432.616631919,432.617145473,432.616631919
16728000000,384,16728000000,,432.324997303,432.32448375,432.324997303,432.32448375
16759000000,385,16759000000,,433.750083483,433.74956993,433.750083483,433.74956993
16800000000,386,16800000000,,431.451417718,431.450904165,431.451417718,431.450904165
16840000000,387,16840000000,,435.323090003,435.399966259,435.323090003,435.399966259
16882000000,388,16882000000,,431.878536235,431.955412492,431.878536235,431.955412492
16923000000,389,16923000000,,432.641560518,432.718436774,432.641560518,432.718436774
16962000000,390,16962000000,,431.423812093,431.50068835,431.423812093,431.50068835
16998000000,391,16998000000,,436.3505729,436.287535997,436.3505729,436.287535997
17035000000,392,17035000000,,432.601271035,432.538234133,432.601271035,432.538234133
17072000000,393,17072000000,,434.186562762,434.12352586,434.186562762,434.12352586
17104000000,394,17104000000,,431.745389863,431.68235296,431.745389863,431.68235296
17138000000,395,17138000000,,434.956380326,435.028025844,434.956380326,435.028025844
17176000000,396,17176000000,,432.855420647,432.927066165,432.855420647,432.927066165
17212000000,397,17212000000,,433.322185304,433.393830822,433.322185304,433.393830822
17250000000,398,17250000000,,433.15570686,433.227352379,433.15570686,433.227352379
17286000000,399,17286000000,,430.763428505,430.706394031,430.763428505,430.706394031
17316000000,400,17316000000,,431.251283015,431.194248541,431.251283015,431.194248541
17351000000,401,17351000000,,435.312134493,435.255100019,435.312134493,435.255100019
17393000000,402,17393000000,,432.183498197,432.126463722,432.183498197,432.126463722
17434000000,403,17434000000,,432.502546641,432.504579156,432.502546641,432.504579156
17473000000,404,17473000000,,432.46685948,432.468891996,432.46685948,432.468891996
17509000000,405,17509000000,,432.197843706,432.199876222,432.197843706,432.199876222
17549000000,406,17549000000,,430.059632982,430.061665498,430.059632982,430.061665498
17588000000,407,17588000000,,430.807486323,430.876008042,430.807486323,430.876008042
17630000000,408,17630000000,,432.559033648,432.627555367,432.559033648,432.627555367
17670000000,409,17670000000,,427.502555842,427.571077561,427.502555842,427.571077561
17711000000,410,17711000000,,432.58263696,432.651158679,432.58263696,432.651158679
17748000000,411,17748000000,,430.195793957,430.144351342,430.195793957,430.144351342
17787000000,412,17787000000,,431.910620634,431.859178019,431.910620634,431.859178019
17824000000,413,17824000000,,427.774514433,427.723071817,427.774514433,427.723071817
17858000000,414,17858000000,,429.178094553,429.126651938,429.178094553,429.126651938
17896000000,415,17896000000,,433.42327219,433.486863421,433.42327219,433.486863421
17929000000,416,17929000000,,429.138292532,429.201883763,429.138292532,429.201883763
17963000000,417,17963000000,,430.10134638,430.164937611,430.10134638,430.164937611
18002000000,418,18002000000,,429.625091276,429.688682506,429.625091276,429.688682506
18043000000,419,18043000000,,428.410146739,428.363820446,428.410146739,428.363820446
18085000000,420,18085000000,,431.715014474,431.668688181,431.715014474,431.668688181
18123000000,421,18123000000,,431.748561147,431.702234854,431.748561147,431.702234854
18158000000,422,18158000000,,432.866705832,432.820379539,432.866705832,432.820379539
18195000000,423,18195000000,,431.25863,431.318887028,431.25863,431.318887028
18233000000,424,18233000000,,432.083779237,432.144036265,432.083779237,432.144036265
18266000000,425,18266000000,,433.995206701,434.055463729,433.995206701,434.055463729
18305000000,426,18305000000,,433.20097804,433.261235068,433.20097804,433.261235068
18348000000,427,18348000000,,432.759647277,432.717713796,432.759647277,432.717713796
18384000000,428,18384000000,,432.004925578,431.962992098,432.004925578,431.962992098
18421000000,429,18421000000,,432.121318003,432.079384522,432.121318003,432.079384522
18452000000,430,18452000000,,433.103239839,433.061306358,433.103239839,433.061306358
18486000000,431,18486000000,,433.077290429,433.134065313,433.077290429,433.134065313
18523000000,432,18523000000,,435.855738471,435.912513356,435.855738471,435.912513356
18561000000,433,18561000000,,432.708589145,432.765364029,432.708589145,432.765364029
18601000000,434,18601000000,,433.278841685,433.33561657,433.278841685,433.33561657
18639000000,435,18639000000,,434.139998166,434.102131706,434.139998166,434.102131706
18675000000,436,18675000000,,430.255350572,430.217484112,430.255350572,430.217484112
18710000000,437,18710000000,,432.491364473,432.453498012,432.491364473,432.453498012
18745000000,438,18745000000,,432.589418312,432.551551852,432.589418312,432.551551852
18780000000,439,18780000000,,429.667364676,429.672870439,429.667364676,429.672870439
18818000000,440,18818000000,,433.227213079,433.232718842,433.227213079,433.232718842
18857000000,441,18857000000,,430.83786909,430.843374853,430.83786909,430.843374853
18895000000,442,18895000000,,432.14956788,432.155073643,432.14956788,432.155073643
18931000000,443,18931000000,,432.384577336,432.3905427,432.384577336,432.3905427
18968000000,444,18968000000,,433.086570711,433.092536075,433.086570711,433.092536075
19008000000,445,19008000000,,431.554609185,431.560574549,431.554609185,431.560574549
19045000000,446,19045000000,,433.349358836,433.3553242,433.349358836,433.3553242
19081000000,447,19081000000,,434.683672763,434.689973442,434.683672763,434.689973442
19135000000,448,19135000000,,431.265838005,431.272138959,431.182793512,431.189093916
19167000000,449,19167000000,,433.555707309,433.562008132,433.520473763,433.526774298
19226000000,450,19226000000,,433.488972902,433.495273033,433.491338109,433.497639334
19267000000,451,19267000000,,433.855187326,433.906706471,433.866503941,433.918026304
19284000000,452,19284000000,,431.629794454,431.681312733,431.638806765,431.690329995
19307000000,453,19307000000,,433.837051402,433.888569592,433.842440425,433.893963744
19338000000,454,19338000000,,430.965813822,431.017332117,430.968220678,431.019743892
19368000000,455,19368000000,,433.697978005,433.726933566,433.698175673,433.727136689
19390000000,456,19390000000,,434.25221436,434.281169595,434.251245302,434.280206644
19409000000,457,19409000000,,432.333653863,432.362611591,432.332765243,432.361724093
19446000000,458,19446000000,,431.536457687,431.565420463,431.53633617,431.56528997
19481000000,459,19481000000,,431.65250267,431.647532782,431.65278235,431.647804515
19532000000,460,19532000000,,429.406514934,429.401537066,429.406581574,429.401611719
19586000000,461,19586000000,,432.837569949,432.832592297,432.837475066,432.832504997
19652000000,462,19652000000,,430.59495818,430.589987383,430.594974635,430.58999771
19709000000,463,19709000000,,427.783054888,427.799252815,427.783080025,427.799273164
19755000000,464,19755000000,,435.556885881,435.573079085,435.556848623,435.573046485
19788000000,465,19788000000,,431.535764826,431.551957907,431.535779765,431.551977749
19834000000,466,19834000000,,429.790083885,429.806283075,429.790107827,429.806299702
19870000000,467,19870000000,,434.004908743,434.017482863,434.004876277,434.017446769
19907000000,468,19907000000,,430.180012052,430.192578995,430.180019859,430.192597527
19971000000,469,19971000000,,433.26363026,433.276205296,433.263639391,433.276208967
20001000000,470,20001000000,,432.792101789,432.804674423,432.792095124,432.804667101
20039000000,471,20039000000,,431.490742922,431.510273702,431.490744391,431.510276838
20084000000,472,20084000000,,431.938548599,431.958078627,431.93854998,431.95808318
20120000000,473,20120000000,,430.352345586,430.371884722,430.352350679,430.371874771
20166000000,474,20166000000,,434.292350339,434.311883067,434.292338645,434.311869144
20202000000,475,20202000000,,431.348449221,431.362651342,431.348442108,431.36268928
20278000000,476,20278000000,,431.587549027,431.601785014,431.587565379,431.601778684
20318000000,477,20318000000,,431.92298283,431.937228605,431.923007117,431.937210634
20358000000,478,20358000000,,433.642076007,433.656285616,433.64202873,433.656268413
20401000000,479,20401000000,,435.050806224,435.075030281,435.050792993,435.075046979
20435000000,480,20435000000,,430.14706467,430.171298744,430.147096038,430.171340007
20470000000,481,20470000000,,431.895225011,431.919503707,431.895273515,431.919472863
20527000000,482,20527000000,,432.263990108,432.288239707,432.263965174,432.288193619
20588000000,483,20588000000,,434.1370785,434.157037579,434.137005426,434.157042184
20653000000,484,20653000000,,433.43489711,433.454857237,433.43487984,433.45491555
20691000000,485,20691000000,,432.333605842,432.353624066,432.333693108,432.353670721
20737000000,486,20737000000,,432.079880241,432.09994056,432.079954194,432.099889712
20786000000,487,20786000000,,436.287416438,436.367693444,436.287363126,436.3676054
20832000000,488,20832000000,,429.137337275,429.217535137,429.137216091,429.21753751
20872000000,489,20872000000,,432.301711898,432.38191547,432.301700091,432.382015799
20910000000,490,20910000000,,432.468736466,432.549032104,432.468866212,432.549089855
20983000000,491,20983000000,,432.559751789,432.585398231,432.559835431,432.585322353
21034000000,492,21034000000,,431.869485499,431.895062344,431.869383021,431.894939539
21062000000,493,21062000000,,433.261405073,433.286897607,433.261267019,433.286907848
21080000000,494,21080000000,,433.682546957,433.708078851,433.682594607,433.708196077
21109000000,495,21109000000,,431.48610703,431.609750698,431.486224512,431.609773655
21128000000,496,21128000000,,433.253889526,433.377518519,433.253866079,433.377429896
21154000000,497,21154000000,,434.139969062,434.263535524,434.139885629,434.263511978
21203000000,498,21203000000,,432.425388132,432.548957054,432.425414722,432.549038612
21266000000,499,21266000000,,432.839181897,432.826326712,432.839286338,432.826379285
21321000000,500,21321000000,,432.185281577,432.172436193,432.185299445,432.172382591
21372000000,501,21372000000,,431.451731469,431.438835104,431.451629835,431.438763962
21412000000,502,21412000000,,428.195158924,428.182232046,428.195103597,428.182268238
21433000000,503,21433000000,,430.405650451,430.716992872,430.405711044,430.717067958
21463000000,504,21463000000,,431.346419337,431.657799378,431.346458664,431.657777957
21496000000,505,21496000000,,432.875737019,433.187096294,432.875693997,433.187034058
21515000000,506,21515000000,,431.580273118,431.891596392,431.580237214,431.891613276
21551000000,507,21551000000,,432.916331956,432.588307176,432.91637068,432.588357482
21570000000,508,21570000000,,429.163620048,428.835623721,429.16365229,428.835610639
21604000000,509,21604000000,,432.083894186,431.755877954,432.083860785,431.755839039
21635000000,510,21635000000,,430.379832182,430.051796577,430.379807522,430.051805148
21670000000,511,21670000000,,427.679041176,427.697030034,427.679068124,427.697058382
21691000000,512,21691000000,,429.596233425,429.614236028,429.59625074,429.614227254
21727000000,513,21727000000,,432.283412995,432.301400655,432.283389032,432.301380489
21756000000,514,21756000000,,429.149259806,429.167239008,429.149250791,429.167250705
21787000000,515,21787000000,,432.09946301,432.144677336,432.099482707,432.144688011
21823000000,516,21823000000,,431.535344396,431.580559028,431.535340623,431.580545621
21863000000,517,21863000000,,432.404598504,432.449792332,432.404564383,432.449790184
21902000000,518,21902000000,,431.661863201,431.707022708,431.661748324,431.707008447
21935000000,519,21935000000,,430.773308354,430.797745095,430.770915853,430.797164439
21969000000,520,21969000000,,432.241173802,432.272340853,432.246263861,432.265782137
22034000000,521,22034000000,,431.936767641,431.965257475,431.940144178,431.962339671
22069000000,522,22069000000,,429.72238239,429.747937404,429.723803982,429.748934295
22112000000,523,22112000000,,431.908315734,431.964408312,431.908612209,431.966117981
22150000000,524,22150000000,,433.125309702,433.181758229,433.125336833,433.182486656
22193000000,525,22193000000,,429.225900824,429.282726303,429.225856574,429.282629446
22215000000,526,22215000000,,436.023219849,436.080151876,436.023235516,436.079901839
22251000000,527,22251000000,,432.575673038,432.606787565,432.575753501,432.606585839
22302000000,528,22302000000,,433.021921332,433.053003366,433.022038164,433.052902994
22345000000,529,22345000000,,431.243905125,431.274929144,431.24395508,431.274877927
22383000000,530,22383000000,,431.611680455,431.642640748,431.611619347,431.642605918
22422000000,531,22422000000,,432.101919395,432.229790379,432.101894005,432.229811208
22476000000,532,22476000000,,435.141971243,435.269863842,435.142026693,435.269922282
22515000000,533,22515000000,,433.359413761,433.487316783,433.359425213,433.487310378
22556000000,534,22556000000,,432.985952931,433.113853872,432.985911054,433.1137983
22582000000,535,22582000000,,435.679701514,435.726641235,435.679684231,435.726645039
22616000000,536,22616000000,,433.640549343,433.687499442,433.64059214,433.687542569
22661000000,537,22661000000,,434.658102729,434.705056384,434.658102867,434.705049741
22692000000,538,22692000000,,432.991063055,433.038003554,432.991010915,433.037970945
22739000000,539,22739000000,,432.247966589,432.168468886,432.247813695,432.168485604
22775000000,540,22775000000,,432.75591876,432.67523844,432.75341565,432.675270176
22821000000,541,22821000000,,434.039931488,433.961816239,434.042544819,433.961834274
22857000000,542,22857000000,,431.995118086,431.915975176,431.995926709,431.916243825
22935000000,543,22935000000,,433.883943076,433.984540515,433.885206369,433.988681189
22975000000,544,22975000000,,433.470744778,433.577020932,433.471899851,433.569695955
23019000000,545,23019000000,,435.329159466,435.433228704,435.330082872,435.430085892
23071000000,546,23071000000,,431.012678215,431.11598918,431.013155134,431.113916427
23125000000,547,23125000000,,432.925626684,432.849770336,432.925714048,432.848653074
23175000000,548,23175000000,,429.831607986,429.755296227,429.831406938,429.754801375
23232000000,549,23232000000,,429.736315259,429.659710038,429.736136189,429.659824087
23280000000,550,23280000000,,429.943637847,429.866982123,429.943631793,429.867370194
23322000000,551,23322000000,,430.596152529,430.504418801,430.596222771,430.504700984
23366000000,552,23366000000,,431.004864119,430.913253815,431.004850363,430.913205152
23408000000,553,23408000000,,431.131427515,431.039844279,431.131399038,431.039726758
23450000000,554,23450000000,,429.370649096,429.27901239,429.370682532,429.279063722
23484000000,555,23484000000,,426.781996568,426.807897447,426.781983933,426.807913039
23526000000,556,23526000000,,429.388619758,429.414546196,429.388608375,429.414511923
23556000000,557,23556000000,,430.597323866,430.62323732,430.597329724,430.623246255
23640000000,558,23640000000,,431.414026164,431.439936225,431.414033739,431.439953663
23657000000,559,23657000000,,430.876308255,430.892836187,430.876294698,430.892822789
23708000000,560,23708000000,,430.930865393,430.947390101,430.930848533,430.947379848
23764000000,561,23764000000,,431.882875823,431.899342874,431.882766075,431.899355047
23815000000,562,23815000000,,431.026380373,431.042071701,431.024717364,431.042082059
23839000000,563,23839000000,,433.067213325,433.096925917,433.050652764,433.096994347
23875000000,564,23875000000,,432.010362169,432.042997286,432.000831366,432.044250424
23906000000,565,23906000000,,435.046918284,435.072817812,435.041147019,435.091301666
23947000000,566,23947000000,,431.862635575,431.894111479,431.858893415,431.903471686
23994000000,567,23994000000,,432.72895902,432.660534051,432.726802967,432.667030165
24020000000,568,24020000000,,432.561168229,432.494421614,432.559837693,432.498386537
24043000000,569,24043000000,,432.33766964,432.272432753,432.336918406,432.273957521
24066000000,570,24066000000,,432.821521306,432.756935018,432.821109882,432.757498399
24116000000,571,24116000000,,432.853631562,432.886545492,432.853582951,432.886704659
24162000000,572,24162000000,,432.331325992,432.364319906,432.331459817,432.36450154
24206000000,573,24206000000,,434.779395667,434.812375096,434.77948951,434.812545718
24235000000,574,24235000000,,432.86907903,432.901994385,432.869040485,432.902160766
24271000000,575,24271000000,,432.531679003,432.557868805,432.531645344,432.557970504
24298000000,576,24298000000,,432.100265764,432.126523448,432.100300336,432.126557614
24340000000,577,24340000000,,432.0705949,432.096862473,432.070587077,432.096834466
24369000000,578,24369000000,,432.696405442,432.722675602,432.696400124,432.722644925
24398000000,579,24398000000,,430.76227058,430.748107591,430.76226856,430.748118812
24452000000,580,24452000000,,433.002437342,432.988279957,433.002445519,432.988290167
24500000000,581,24500000000,,432.356898236,432.342739369,432.356891806,432.342737937
24538000000,582,24538000000,,435.267456896,435.253302415,435.267453862,435.253295606
24571000000,583,24571000000,,432.691705691,432.698770997,432.691720963,432.698771848
24620000000,584,24620000000,,432.510653335,432.517712445,432.510662464,432.517719544
24662000000,585,24662000000,,432.846875498,432.853922283,432.846846557,432.853915964
24697000000,586,24697000000,,433.069468594,433.076374256,433.069158729,433.076369258
24741000000,587,24741000000,,432.490895234,432.512783025,432.485476402,432.512804273
24768000000,588,24768000000,,432.773121407,432.800217036,432.778122765,432.800242798
24810000000,589,24810000000,,432.081955266,432.108541448,432.085942108,432.108571588
24857000000,590,24857000000,,430.116977415,430.144047381,430.122465935,430.144611632
24898000000,591,24898000000,,432.116753013,432.151331058,432.120794931,432.161700159
24941000000,592,24941000000,,435.627431429,435.674358733,435.629231615,435.657787584
24977000000,593,24977000000,,434.431218053,434.473913616,434.431878701,434.46466641
25019000000,594,25019000000,,433.917757613,433.95846416,433.917976605,433.952753331
25050000000,595,25050000000,,432.725298391,432.833247348,432.725441471,432.830275946
25101000000,596,25101000000,,432.231048909,432.338306318,432.231146678,432.336672701
25150000000,597,25150000000,,430.734526874,430.841449295,430.734627215,430.840488226
25193000000,598,25193000000,,432.880866505,432.987607508,432.880998244,432.987040674
25235000000,599,25235000000,,433.210602907,433.245791101,433.210686185,433.245366081
25274000000,600,25274000000,,430.92056842,430.955632292,430.920546265,430.955350482
25311000000,601,25311000000,,433.379081123,433.414026484,433.379024033,433.413946762
25353000000,602,25353000000,,432.979923711,433.014826294,432.979936124,433.01490163
25395000000,603,25395000000,,433.329029277,433.267303528,433.329066568,433.267381957
25420000000,604,25420000000,,430.618017532,430.55631743,430.617998039,430.556287781
25464000000,605,25464000000,,434.628017321,434.566324069,434.628002691,434.566285582
25510000000,606,25510000000,,430.993741872,430.932027166,430.993755398,430.932059743
25545000000,607,25545000000,,433.237485256,433.277534871,433.237500944,433.277546222
25576000000,608,25576000000,,431.632908376,431.672958082,431.632897286,431.672942472
25605000000,609,25605000000,,430.423901566,430.463949391,430.42388912,430.463936188
25648000000,610,25648000000,,433.798127801,433.838165615,433.798123725,433.838180804
25692000000,611,25692000000,,428.707400549,428.631167382,428.707380609,428.631177662
25747000000,612,25747000000,,431.013767147,430.937520308,431.013711561,430.937522286
25795000000,613,25795000000,,431.935182835,431.858881889,431.935037179,431.85890201
25839000000,614,25839000000,,430.505962562,430.429178204,430.504867157,430.4292154
25851000000,615,25851000000,,430.487951395,430.647289066,430.475086657,430.64734201
25886000000,616,25886000000,,429.392717337,429.564852253,429.405751316,429.565209425
25933000000,617,25933000000,,430.283976072,430.447151262,430.283124688,430.451542522
25975000000,618,25975000000,,429.916700034,430.072629453,429.912245213,430.087908818
26020000000,619,26020000000,,431.826787456,431.698858059,431.82401765,431.705143004
26037000000,620,26037000000,,435.077578147,434.954840575,435.077744617,434.953678147
26071000000,621,26071000000,,430.297761291,430.17676158,430.298503011,430.172698679
26097000000,622,26097000000,,430.387143228,430.264763108,430.386726735,430.262302813
26124000000,623,26124000000,,430.316811828,430.373134653,430.316507615,430.372899548
26159000000,624,26159000000,,433.771399244,433.827577131,433.771540133,433.828077005
26201000000,625,26201000000,,430.660170445,430.716540419,430.660029947,430.716374731
26230000000,626,26230000000,,431.894258124,431.950774476,431.894338014,431.950536419
26260000000,627,26260000000,,431.265758807,431.131753247,431.265703178,431.131864559
26294000000,628,26294000000,,432.422592566,432.28875152,432.422614873,432.28861174
26324000000,629,26324000000,,430.941095055,430.807160357,430.941086758,430.807177276
26365000000,630,26365000000,,434.083802066,433.949877847,434.083782446,433.949862486
26394000000,631,26394000000,,431.246494333,431.250078603,431.246495582,431.250121273
26437000000,632,26437000000,,431.212013357,431.215643026,431.212049725,431.215630019
26478000000,633,26478000000,,432.274237986,432.277965708,432.274443174,432.277925414
26498000000,634,26498000000,,431.118218973,431.122815388,431.120146862,431.122760409
26545000000,635,26545000000,,429.741792783,429.752444331,429.762057498,429.752301666
26591000000,636,26591000000,,432.644997821,432.642570262,432.638461761,432.641785036
26642000000,637,26642000000,,434.657908057,434.659154324,434.652610616,434.652260065
26664000000,638,26664000000,,434.279973969,434.282132953,434.278869765,434.277606497
26706000000,639,26706000000,,434.308496959,434.307288213,434.309736665,434.300365917
26740000000,640,26740000000,,432.716505785,432.711353381,432.718127709,432.712700619
26792000000,641,26792000000,,433.490118604,433.483227996,433.490826835,433.487137948
26811000000,642,26811000000,,433.520221395,433.513952646,433.519793134,433.515482388
26866000000,643,26866000000,,434.473043893,434.462191332,434.472804745,434.461350878
26912000000,644,26912000000,,434.101242044,434.090196902,434.10148881,434.090227524
26951000000,645,26951000000,,435.942937155,435.931580017,435.942969004,435.932019714
26987000000,646,26987000000,,435.925782408,435.914757925,435.925759107,435.914477161
27020000000,647,27020000000,,433.008787233,432.996576593,433.008848766,432.996662373
27066000000,648,27066000000,,434.166886177,434.1547065,434.166862357,434.154645001
27104000000,649,27104000000,,434.451570199,434.439345012,434.451566366,434.43939452
27142000000,650,27142000000,,432.998541434,432.986361092,432.998517993,432.986301302
27173000000,651,27173000000,,434.000710319,433.989954093,434.00069861,433.989957602
27208000000,652,27208000000,,432.333035421,432.322275802,432.333075011,432.322337396
27247000000,653,27247000000,,435.857078504,435.846330852,435.857187339,435.846437758
27294000000,654,27294000000,,432.786805269,432.776088626,432.787177664,432.776397074
27325000000,655,27325000000,,430.937212836,430.931091376,430.939329127,430.932705191
27364000000,656,27364000000,,429.973055585,429.968387165,429.989001365,429.98092439
27418000000,657,27418000000,,428.610392855,428.602640849,428.598865812,428.593872423
27455000000,658,27455000000,,431.364982853,431.356656681,431.367189244,431.36277002
27493000000,659,27493000000,,430.069869645,430.133827263,430.074740296,430.13734615
27522000000,660,27522000000,,430.725497283,430.789787381,430.725746136,430.788019509
27548000000,661,27548000000,,428.759378404,428.822529852,428.757753133,428.821165157
27608000000,662,27608000000,,430.942919827,431.005931759,430.94321139,431.006762929
27645000000,663,27645000000,,432.00224923,431.946929186,432.002521672,431.946838388
27684000000,664,27684000000,,431.935752545,431.880166551,431.935342649,431.879925314
27718000000,665,27718000000,,428.927559453,428.872059783,428.927802914,428.872299254
27761000000,666,27761000000,,431.416605869,431.361113239,431.416489591,431.360978892
27791000000,667,27791000000,,432.133116672,432.197636207,432.133195445,432.197688272
27850000000,668,27850000000,,432.356086935,432.420564924,432.356016823,432.420551195
27910000000,669,27910000000,,429.819793714,429.884302223,429.81978428,429.884288132
27948000000,670,27948000000,,430.517266554,430.581785334,430.517341095,430.581834677
27988000000,671,27988000000,,427.715583243,427.887586924,427.715710554,427.887655908
28045000000,672,28045000000,,431.725276555,431.897352149,431.725617397,431.897490838
28086000000,673,28086000000,,429.792632487,429.965114841,429.794269905,429.965736586
28135000000,674,28135000000,,430.239412589,430.414832181,430.25151254,430.420041982
28185000000,675,28185000000,,433.072006239,433.026353369,433.064891657,433.042276464
28221000000,676,28221000000,,431.680932769,431.647648694,431.688115164,431.653131176
28254000000,677,28254000000,,431.27953,431.248132648,431.281584655,431.244713944
28291000000,678,28291000000,,432.517868701,432.484312111,432.515202538,432.480491064
28327000000,679,28327000000,,432.802552623,432.804006813,432.802131016,432.803362942
28381000000,680,28381000000,,433.806278753,433.807506242,433.807254179,433.808712805
28431000000,681,28431000000,,434.127495914,434.128420299,434.126944731,434.128706461
28463000000,682,28463000000,,432.356169826,432.357822231,432.356318211,432.357351921
28506000000,683,28506000000,,434.541596029,434.794017349,434.541615511,434.794172001
28549000000,684,28549000000,,434.382230911,434.634716645,434.382258733,434.634750809
28599000000,685,28599000000,,435.437840639,435.690336457,435.437763194,435.690245185
28644000000,686,28644000000,,434.129523426,434.382000226,434.129559882,434.382060892
28692000000,687,28692000000,,434.213357616,434.069523452,434.213349834,434.069523434
28728000000,688,28728000000,,431.183302725,431.039477368,431.183322933,431.039487726
28790000000,689,28790000000,,430.651722113,430.507937211,430.651798702,430.507923041
28828000000,690,28828000000,,434.166399039,434.022724015,434.16666103,434.02267549
28861000000,691,28861000000,,435.305040789,435.24361155,435.306503952,435.243562921
28914000000,692,28914000000,,434.642128867,434.586104344,434.654380685,434.586034938
28930000000,693,28930000000,,433.714167183,433.647740837,433.705505933,433.647562009
28989000000,694,28989000000,,431.27684156,431.218373273,431.282956635,431.217054651
29039000000,695,29039000000,,433.136097546,433.068203399,433.1405949,433.054914294
29082000000,696,29082000000,,432.782643949,432.699448497,432.782081445,432.711702145
29105000000,697,29105000000,,431.405520041,431.328598133,431.403699289,431.327046444
29155000000,698,29155000000,,432.754165821,432.679783817,432.754328327,432.675135579
29204000000,699,29204000000,,432.280325551,432.341526158,432.280890182,432.338454245
29240000000,700,29240000000,,432.639090404,432.698477372,432.638738693,432.698116396
29279000000,701,29279000000,,432.087963945,432.146893417,432.088067372,432.147902569
29312000000,702,29312000000,,430.81587568,430.875058553,430.815886688,430.875468485
29352000000,703,29352000000,,431.565006894,431.564141864,431.564963683,431.563765449
29387000000,704,29387000000,,433.399029496,433.398021283,433.399026073,433.397971023
29427000000,705,29427000000,,432.972025793,432.970938163,432.972077909,432.971102276
29466000000,706,29466000000,,431.773176086,431.772189419,431.773170795,431.772094199
29508000000,707,29508000000,,429.600252875,429.556705983,429.600223214,429.556728657
29546000000,708,29546000000,,431.1028033,431.059261958,431.102743264,431.059243157
29588000000,709,29588000000,,431.742206389,431.69859327,431.742060849,431.698632519
29626000000,710,29626000000,,429.866160477,429.822355461,429.86558265,429.822346217
29674000000,711,29674000000,,430.453323816,430.468200864,430.449426331,430.468177126
29716000000,712,29716000000,,429.528991484,429.535925253,429.509197734,429.535891809
29764000000,713,29764000000,,431.995699191,432.015083449,432.000824875,432.01506846
29818000000,714,29818000000,,431.429558798,431.449436767,431.435708694,431.449458568
29862000000,715,29862000000,,430.663302898,430.71586775,430.662619949,430.716055608
29916000000,716,29916000000,,430.23185315,430.283042917,430.229455915,430.284266659
29973000000,717,29973000000,,431.58650111,431.633934572,431.586873027,431.645440076
30029000000,718,30029000000,,433.084923846,433.142480415,433.085670128,433.134114069
30079000000,719,30079000000,,431.351737007,431.571590982,431.35123863,431.577213736
30127000000,720,30127000000,,432.681227806,432.901496232,432.68137071,432.906931365
30171000000,721,30171000000,,430.465835221,430.687867411,430.465787206,430.689584097
30214000000,722,30214000000,,426.852552597,427.075994245,426.852566794,427.074954227
30265000000,723,30265000000,,434.764124069,434.607687107,434.764140311,434.606584708
30305000000,724,30305000000,,433.115834863,432.95877689,433.115877188,432.958942595
30326000000,725,30326000000,,433.426558339,433.269344965,433.42648978,433.269710589
30357000000,726,30357000000,,433.069911586,432.912983602,433.069869962,432.912805381
30386000000,727,30386000000,,431.402021989,431.350387775,431.402006534,431.350396413
30427000000,728,30427000000,,435.266867185,435.215219206,435.266869831,435.215273476
30462000000,729,30462000000,,432.462057476,432.410511544,432.462134779,432.410436377
30505000000,730,30505000000,,433.609445076,433.558067078,433.609971292,433.558104955
30538000000,731,30538000000,,431.440369387,431.490664783,431.445686079,431.490673407
30586000000,732,30586000000,,433.195773961,433.251337677,433.211622279,433.251341288
30629000000,733,30629000000,,432.613121924,432.665986357,432.623549893,432.665968185
30660000000,734,30660000000,,435.708783312,435.757936233,435.711771508,435.757901312
30693000000,735,30693000000,,432.711690179,432.648585248,432.711052548,432.648561011
30727000000,736,30727000000,,433.158771549,433.095057682,433.156914972,433.095032371
30768000000,737,30768000000,,431.470320738,431.406822315,431.468859756,431.406761711
30805000000,738,30805000000,,430.360407953,430.297679215,430.360064449,430.297196718
30835000000,739,30835000000,,431.758598534,431.708969943,431.759004865,431.703576058
30857000000,740,30857000000,,434.899273794,434.854496603,434.899533906,434.839253699
30880000000,741,30880000000,,433.614593909,433.567721012,433.614449599,433.556265098
30912000000,742,30912000000,,433.691481022,433.64135441,433.691417291,433.636486506
30945000000,743,30945000000,,431.540612852,431.474949144,431.540681615,431.473766871
31005000000,744,31005000000,,434.583879161,434.517221393,434.583851209,434.517930525
31057000000,745,31057000000,,434.691028006,434.624118942,434.691051635,434.625382246
31091000000,746,31091000000,,432.615931973,432.549213762,432.615915225,432.550054983
31140000000,747,31140000000,,433.143154012,433.272869778,433.14314311,433.272955585
31188000000,748,31188000000,,430.610655755,430.740558264,430.610654449,430.740280181
31231000000,749,31231000000,,432.095159539,432.224991158,432.095194028,432.224890651
31269000000,750,31269000000,,432.754802708,432.884532103,432.754827072,432.884625919
31314000000,751,31314000000,,434.028394428,434.025902179,434.028374472,434.025904177
31359000000,752,31359000000,,431.684096827,431.681575601,431.683995148,431.681553831
31384000000,753,31384000000,,432.899611029,432.896906982,432.899193933,432.896935435
31430000000,754,31430000000,,433.847492401,433.843767288,433.844983344,433.843745913
31459000000,755,31459000000,,432.280666559,432.188309865,432.263219161,432.188307719
31500000000,756,31500000000,,431.324198835,431.246758648,431.336592488,431.24676454
31539000000,757,31539000000,,431.929761999,431.845959587,431.929441804,431.84597608
31591000000,758,31591000000,,431.868004179,431.782200294,431.863658827,431.782194578
31632000000,759,31632000000,,431.774092514,431.831629224,431.773953204,431.831601411
31678000000,760,31678000000,,432.433377562,432.491768646,432.434928249,432.491722082
31720000000,761,31720000000,,432.325120931,432.382508443,432.324631739,432.382429145
31751000000,762,31751000000,,433.475749297,433.533356831,433.475556174,433.533133557
31791000000,763,31791000000,,430.53944679,430.624593446,430.539759967,430.623170166
31830000000,764,31830000000,,430.877170106,430.967768045,430.876930441,430.954889358
31869000000,765,31869000000,,430.535215109,430.614471061,430.535340613,430.624641515
31916000000,766,31916000000,,431.706108338,431.792788111,431.706043398,431.78792048
31964000000,767,31964000000,,432.832063738,432.736537561,432.832118173,432.731322842
32004000000,768,32004000000,,428.940627882,428.84294072,428.940641904,428.842007556
32038000000,769,32038000000,,427.138927315,427.03992626,427.138863952,427.041543499
32087000000,770,32087000000,,431.857513929,431.758950713,431.85741542,431.759657128
32125000000,771,32125000000,,432.102382586,432.138677007,432.102196363,432.13804882
32156000000,772,32156000000,,430.962306145,430.998093044,430.961651432,430.998011411
32186000000,773,32186000000,,430.998073801,431.031935061,430.993900732,431.032186351
32237000000,774,32237000000,,431.221220342,431.247827699,431.202151343,431.247690864
32280000000,775,32280000000,,432.280473553,432.281835266,432.286364096,432.281901336
32341000000,776,32341000000,,432.80809574,432.809128104,432.81319618,432.809062769
32373000000,777,32373000000,,431.699616756,431.696886455,431.697285224,431.696914478
32419000000,778,32419000000,,430.966577857,430.964229895,430.964985999,430.964232914
32475000000,779,32475000000,,431.773168825,431.946908931,431.77446653,431.946938452
32523000000,780,32523000000,,433.332774146,433.50581595,433.332649654,433.505819878
32574000000,781,32574000000,,433.747851029,433.920840254,433.747569497,433.920792301
32605000000,782,32605000000,,430.988667781,431.16197673,430.988920476,431.161823556
32649000000,783,32649000000,,432.997339792,432.876471498,432.997144632,432.875964534
32680000000,784,32680000000,,432.589073562,432.469536231,432.589199474,432.466688413
32747000000,785,32747000000,,432.778303869,432.666249998,432.778288521,432.648294
32792000000,786,32792000000,,433.924743002,433.797816676,433.924725676,433.809603611
32819000000,787,32819000000,,431.610886545,431.564909145,431.610869684,431.56463241
32871000000,788,32871000000,,432.902434323,432.858385799,432.902402507,432.854236358
32922000000,789,32922000000,,433.493295364,433.446851353,433.493211788,433.447441125
32966000000,790,32966000000,,432.060718238,432.013880627,432.060504139,432.015127076
33002000000,791,33002000000,,432.928667422,432.915881248,432.927569093,432.915043336
33042000000,792,33042000000,,431.011587891,430.994270062,431.002514294,430.994520193
33076000000,793,33076000000,,432.66072275,432.647512074,432.65962819,432.647526935
33110000000,794,33110000000,,432.749999507,432.732759195,432.740759355,432.732687736
33138000000,795,33138000000,,430.426988949,430.337550759,430.425946498,430.337563187
33161000000,796,33161000000,,430.888468212,430.80102958,430.891466115,430.801083246
33194000000,797,33194000000,,433.836761311,433.748377694,433.837771996,433.748334113
33234000000,798,33234000000,,433.499182394,433.409732502,433.498100829,433.409729219
33270000000,799,33270000000,,436.055147332,436.025228563,436.055052683,436.025226038
33324000000,800,33324000000,,433.606345953,433.576677311,433.60673818,433.576661409
33363000000,801,33363000000,,432.764892852,432.734915602,432.764640413,432.73487225
33403000000,802,33403000000,,432.443033665,432.413304915,432.443155078,432.413138415
33444000000,803,33444000000,,433.294202641,433.252763199,433.294155556,433.251345752
33471000000,804,33471000000,,431.934658985,431.900276398,431.934683824,431.884817165
33523000000,805,33523000000,,429.911778417,429.861999232,429.911734663,429.877264601
33560000000,806,33560000000,,431.932870956,431.888952576,431.932902318,431.892571452
33597000000,807,33597000000,,431.973762484,431.937400732,431.973788128,431.936106762
33653000000,808,33653000000,,430.762562108,430.726842744,430.762573113,430.72424936
33702000000,809,33702000000,,431.234039782,431.197986418,431.234027571,431.196037817
33747000000,810,33747000000,,433.034997318,432.998205126,433.03491097,432.997660045
33798000000,811,33798000000,,431.178842161,431.192576623,431.178381112,431.193002104
33853000000,812,33853000000,,428.614417229,428.626637899,428.610883778,428.627018561
33891000000,813,33891000000,,433.589601383,433.592938326,433.567837009,433.592855519
33908000000,814,33908000000,,430.265282129,430.281862741,430.269970363,430.281745204
33925000000,815,33925000000,,432.539129553,432.663101882,432.546307444,432.663167349
33972000000,816,33972000000,,431.744805407,431.866327867,431.747001245,431.866311018
34020000000,817,34020000000,,428.602666587,428.722315004,428.601125266,428.722309081
34056000000,818,34056000000,,432.89674687,433.016423696,432.895300947,433.016456355
34082000000,819,34082000000,,433.266121444,433.212609424,433.266463247,433.212594586
34140000000,820,34140000000,,429.78313508,429.729707931,429.783642477,429.729688947
34160000000,821,34160000000,,430.054928004,430.001092329,430.054633292,430.001088286
34199000000,822,34199000000,,432.107320474,432.053593871,432.10730526,432.053651184
34233000000,823,34233000000,,431.863663607,431.658652283,431.863758339,431.658627587
34299000000,824,34299000000,,429.664133642,429.459072032,429.664081282,429.459000817
34348000000,825,34348000000,,431.661413639,431.456443014,431.661457003,431.456285552
34394000000,826,34394000000,,429.997398277,429.792598229,429.99734363,429.792001602
34442000000,827,34442000000,,431.436547964,431.02478755,431.436543068,431.02113879
34473000000,828,34473000000,,431.062862099,430.659037601,431.062877868,430.639537674
34504000000,829,34504000000,,433.423270189,433.005292262,433.423309375,433.014122611
34552000000,830,34552000000,,431.208280989,430.792860634,431.208345236,430.796600899
34592000000,831,34592000000,,432.276126409,432.478311229,432.276205195,432.474991311
34651000000,832,34651000000,,436.667275256,436.868374554,436.667453007,436.867324645
34693000000,833,34693000000,,432.553776976,432.754008088,432.554723613,432.755463437
34717000000,834,34717000000,,433.632877903,433.837660239,433.641130741,433.837319341
34760000000,835,34760000000,,434.420235541,433.910136456,434.424196421,433.909960223
34807000000,836,34807000000,,432.870038591,432.362581727,432.879686935,432.362808517
34828000000,837,34828000000,,433.998350648,433.486936482,433.999662558,433.486741441
34849000000,838,34849000000,,432.698466297,432.184809675,432.695609685,432.184931025
34874000000,839,34874000000,,433.103004886,433.493414074,433.101399748,433.493396418
34919000000,840,34919000000,,433.829083292,434.22067416,433.829830309,434.220645299
34946000000,841,34946000000,,432.539673699,432.931153342,432.54023527,432.931161485
35004000000,842,35004000000,,431.330462561,431.72146182,431.330051893,431.721458492
35026000000,843,35026000000,,435.465973456,435.410256929,435.466006833,435.410250874
35060000000,844,35060000000,,434.637889838,434.582185571,434.637965401,434.582197182
35086000000,845,35086000000,,432.925713884,432.869888701,432.925625021,432.869977718
35129000000,846,35129000000,,436.384750443,436.328742354,436.384835901,436.329371503
35170000000,847,35170000000,,435.185315641,435.152115018,435.185281695,435.159009931
35206000000,848,35206000000,,430.219142372,430.185557209,430.219127815,430.193240591
35251000000,849,35251000000,,432.11886347,432.083468332,432.118854862,432.094777613
35294000000,850,35294000000,,432.896960262,432.864131997,432.896963689,432.870319566
35351000000,851,35351000000,,431.701160149,431.545262327,431.701206177,431.547641207
35397000000,852,35397000000,,431.304808553,431.150136738,431.304923117,431.15013214
35442000000,853,35442000000,,430.689930054,430.535875736,430.690241727,430.534833253
35492000000,854,35492000000,,431.686926215,431.533406902,431.688476714,431.532533236
35544000000,855,35544000000,,430.089595597,429.977914135,430.101194889,429.977792608
35593000000,856,35593000000,,432.78858552,432.668232485,432.783260895,432.668530187
35643000000,857,35643000000,,431.24488256,431.131365672,431.253014952,431.131448097
35685000000,858,35685000000,,429.134631992,429.017811168,429.135945376,429.017682456
35721000000,859,35721000000,,431.488304236,431.329310715,431.485439054,431.329328455
35769000000,860,35769000000,,432.063256003,431.905634645,432.063159691,431.90567693
35822000000,861,35822000000,,429.211229775,429.054195796,429.212238161,429.05416802
35873000000,862,35873000000,,431.033470444,430.875636268,431.032909274,430.875639331
35920000000,863,35920000000,,432.222362588,432.225217144,432.222481602,432.225198949
35970000000,864,35970000000,,430.845959636,430.848769032,430.846027605,430.848790112
36019000000,865,36019000000,,433.114695814,433.117449825,433.114650727,433.117468619
36072000000,866,36072000000,,433.708311443,433.711089512,433.708293911,433.711087745
36111000000,867,36111000000,,432.582975519,432.573834135,432.58298418,432.573788133
36140000000,868,36140000000,,430.761712139,430.75257188,430.761688379,430.752491207
36192000000,869,36192000000,,432.318811917,432.309716302,432.318825525,432.309583709
36242000000,870,36242000000,,432.909553248,432.900659335,432.90970969,432.900266172
36314000000,871,36314000000,,431.076302507,431.12090039,431.076607525,431.118691233
36376000000,872,36376000000,,430.888983269,430.94090837,430.890011288,430.924767778
36420000000,873,36420000000,,432.17497691,432.214850281,432.180224124,432.227032344
36464000000,874,36464000000,,430.843223352,430.895959828,430.859060322,430.893005437
36500000000,875,36500000000,,431.771205377,433.156717838,431.76507637,433.152377904
36537000000,876,36537000000,,429.310848353,430.696099464,429.309396201,430.696959086
36568000000,877,36568000000,,433.981422938,435.368645418,433.984513922,435.370105437
36603000000,878,36603000000,,431.672786463,433.058661527,431.670963762,433.057902692
36655000000,879,36655000000,,432.821391456,431.655116445,432.822083491,431.655081876
36696000000,880,36696000000,,433.656216818,432.489356247,433.656008802,432.489592747
36736000000,881,36736000000,,432.003963464,430.837501522,432.004096691,430.837282007
36778000000,882,36778000000,,432.356684141,431.189863176,432.356472396,431.190016735
36819000000,883,36819000000,,431.384606468,431.42096578,431.384803011,431.420898557
36841000000,884,36841000000,,431.748078941,431.78428398,431.748053129,431.784302948
36901000000,885,36901000000,,435.247861649,435.28405927,435.24779052,435.284047758
36952000000,886,36952000000,,429.906655306,429.942875317,429.906607983,429.94284283
37023000000,887,37023000000,,432.453451514,432.473388481,432.453336408,432.473398336
37076000000,888,37076000000,,432.779549354,432.799226911,432.779006614,432.799327953
37122000000,889,37122000000,,434.471318524,434.489333452,434.467715465,434.489699434
37170000000,890,37170000000,,431.417922737,431.426871306,431.397728651,431.428778978
37217000000,891,37217000000,,431.313580025,431.486368449,431.321864454,431.499940268
37261000000,892,37261000000,,432.689299472,432.87172578,432.694362223,432.862800154
37299000000,893,37299000000,,430.941030376,431.111943423,430.938718534,431.118669727
37333000000,894,37333000000,,433.924465393,434.097743268,433.922431185,434.100017549
37371000000,895,37371000000,,433.886597106,433.814981609,433.887609528,433.812399586
37417000000,896,37417000000,,435.985544889,435.912395837,435.985917671,435.912241284
37455000000,897,37455000000,,433.437284586,433.363141942,433.436765852,433.364083057
37498000000,898,37498000000,,432.073231162,432.000261023,432.073522138,431.999666837
37540000000,899,37540000000,,431.185889515,431.163539256,431.185754765,431.163747861
37582000000,900,37582000000,,430.675150969,430.653015245,430.675197561,430.652976122
37606000000,901,37606000000,,433.040512607,433.01829502,433.040483312,433.018343736
37649000000,902,37649000000,,431.052432414,431.030325189,431.052497289,431.030247351
37712000000,903,37712000000,,429.048813131,428.97443105,429.048774738,428.974471094
37752000000,904,37752000000,,430.992664459,430.91830403,430.992617234,430.918291938
37803000000,905,37803000000,,434.958630713,434.88426148,434.958605156,434.884288663
37828000000,906,37828000000,,431.388460404,431.314073312,431.388457439,431.314158807
37858000000,907,37858000000,,430.047966161,430.432844267,430.048002681,430.433008344
37904000000,908,37904000000,,430.623066154,431.007818714,430.62330208,431.008433291
37928000000,909,37928000000,,433.805951582,434.189821199,433.807792303,434.193806455
37944000000,910,37944000000,,432.31858422,432.702706811,432.336657531,432.72241871
37961000000,911,37961000000,,435.026993772,434.653639596,435.012020802,434.646785724
37993000000,912,37993000000,,432.93208766,432.562626655,432.926684759,432.55755651
38022000000,913,38022000000,,433.422230778,433.05201022,433.42278029,433.054411593
38079000000,914,38079000000,,432.74786319,432.378967484,432.750373587,432.380680039
38118000000,915,38118000000,,434.419815844,434.340645988,434.421596113,434.339395572
38156000000,916,38156000000,,434.210241829,434.129627634,434.210357099,434.129600897
38196000000,917,38196000000,,432.861547962,432.780335206,432.860907256,432.780749614
38239000000,918,38239000000,,432.528236322,432.447635054,432.528087383,432.447318254
38280000000,919,38280000000,,432.502920963,432.522948305,432.503167199,432.523135867
38315000000,920,38315000000,,431.956579538,431.976626465,431.956545076,431.976494159
38353000000,921,38353000000,,431.664973892,431.684893086,431.664902623,431.684979439
38385000000,922,38385000000,,431.770378671,431.790415591,431.770441802,431.790400893
38413000000,923,38413000000,,434.506906229,434.535225694,434.50688369,434.535203681
38447000000,924,38447000000,,429.973961773,430.002292405,429.973978021,430.002286845
38491000000,925,38491000000,,429.312952628,429.341265409,429.312926438,429.341253113
38534000000,926,38534000000,,428.63181875,428.660156175,428.631826679,428.66012871
38577000000,927,38577000000,,431.947114893,431.894411642,431.94712725,431.894350601
38613000000,928,38613000000,,430.181285738,430.128741804,430.181302597,430.128366631
38666000000,929,38666000000,,429.874918251,429.824082291,429.874923074,429.820279133
38716000000,930,38716000000,,434.016159221,433.975024258,434.016119934,433.951774996
38757000000,931,38757000000,,436.014355554,436.043517019,436.014173803,436.040001996
38787000000,932,38787000000,,433.939908014,433.96533749,433.938986192,433.968546374
38834000000,933,38834000000,,431.280212766,431.302112263,431.272959178,431.306049338
38865000000,934,38865000000,,432.114130783,432.135796752,432.105142043,432.138465732
38907000000,935,38907000000,,432.482219421,432.523563487,432.474317406,432.524404281
38955000000,936,38955000000,,430.437886965,430.484958495,430.440135107,430.484494518
38995000000,937,38995000000,,428.394898664,428.442644446,428.398356638,428.442041797
39036000000,938,39036000000,,433.126894321,433.172555675,433.126775352,433.172544938
39073000000,939,39073000000,,431.449434798,431.502369155,431.448177213,431.502601925
39115000000,940,39115000000,,430.301355029,430.355224035,430.30169358,430.355183643
39175000000,941,39175000000,,432.347972416,432.401826187,432.348247682,432.401752979
39234000000,942,39234000000,,432.1825594,432.236055955,432.182250009,432.236112522
39298000000,943,39298000000,,431.96996907,432.006227654,431.970123615,432.00621661
39358000000,944,39358000000,,435.162397104,435.198534142,435.162333495,435.198548036
39396000000,945,39396000000,,435.001349651,435.037574676,435.001427788,435.037554342
39451000000,946,39451000000,,435.59424235,435.630405147,435.594197877,435.630386659
39501000000,947,39501000000,,433.281788603,433.598062078,433.281785582,433.598055891
39548000000,948,39548000000,,431.542155528,431.858401104,431.542134818,431.858433025
39616000000,949,39616000000,,432.61297905,432.929223648,432.612963939,432.929263125
39668000000,950,39668000000,,432.644796538,432.96106106,432.644845127,432.961124389
39718000000,951,39718000000,,432.26699738,432.220772693,432.267197945,432.220850683
39760000000,952,39760000000,,432.107683392,432.061727947,432.108497429,432.061880926
39798000000,953,39798000000,,431.878147149,431.834000814,431.883404949,431.834979336
39835000000,954,39835000000,,430.636468928,430.594109261,430.653469233,430.603256952
39874000000,955,39874000000,,432.24908689,432.16840743,432.247317978,432.168505753
39916000000,956,39916000000,,433.068583975,432.981072553,433.062763715,432.990783452
39965000000,957,39965000000,,432.189711432,432.108607696,432.1909371,432.11254915
40001000000,958,40001000000,,431.937922712,431.859662971,431.939790405,431.858558461
40041000000,959,40041000000,,432.900749581,432.906845805,432.899648107,432.904707876
40081000000,960,40081000000,,430.742308489,430.748090546,430.742332631,430.747706567
40124000000,961,40124000000,,433.254753611,433.260087751,433.255027254,433.260849107
40172000000,962,40172000000,,431.547035668,431.552451791,431.54678715,431.55252702
40216000000,963,40216000000,,431.084562994,430.957509585,431.084758265,430.95721191
40258000000,964,40258000000,,433.145218932,433.017806519,433.145119078,433.017931726
40299000000,965,40299000000,,432.527013063,432.399719721,432.527010278,432.399703854
40345000000,966,40345000000,,430.805663866,430.678366623,430.805679411,430.678376889
40375000000,967,40375000000,,429.859554687,429.937732377,429.859548509,429.937740858
40411000000,968,40411000000,,433.967466911,434.045681278,433.967496411,434.045652083
40455000000,969,40455000000,,433.279872522,433.35810022,433.279945172,433.358087512
40495000000,970,40495000000,,431.091626519,431.169897018,431.09183087,431.16993041
40532000000,971,40532000000,,430.488833797,430.460673883,430.489859557,430.460701302
40616000000,972,40616000000,,430.972377298,430.947848106,430.98064122,430.947852243
40672000000,973,40672000000,,434.661776924,434.635536799,434.666570013,434.635491969
40727000000,974,40727000000,,430.335667683,430.311563081,430.344560581,430.311347013
40771000000,975,40771000000,,434.448479549,434.516024123,434.447729835,434.514880711
40805000000,976,40805000000,,432.097432643,432.167629386,432.094087955,432.158586663
40844000000,977,40844000000,,433.536987688,433.60517568,433.536691431,433.60319889
40882000000,978,40882000000,,433.189175238,433.261678752,433.190381494,433.25257343
40923000000,979,40923000000,,431.628958357,431.390894123,431.628725888,431.390821854
40966000000,980,40966000000,,430.893291109,430.653547734,430.893005424,430.656780531
41016000000,981,41016000000,,433.924185431,433.686136379,433.92448517,433.686565953
41051000000,982,41051000000,,431.348247265,431.110784925,431.348091451,431.109585522
41099000000,983,41099000000,,431.135119996,431.159380154,431.135175285,431.159615833
41137000000,984,41137000000,,431.241081642,431.265257702,431.241017096,431.265541741
41183000000,985,41183000000,,432.452722373,432.477249527,432.452786803,432.476960354
41228000000,986,41228000000,,433.951063439,433.97534281,433.951069,433.975490335
41272000000,987,41272000000,,430.628037986,430.516682455,430.628025542,430.516608593
41314000000,988,41314000000,,430.527243299,430.415793522,430.527198866,430.415876162
41366000000,989,41366000000,,429.455733993,429.344330652,429.455648044,429.344278904
41421000000,990,41421000000,,431.176430314,431.064954929,431.176227673,431.064930577
41480000000,991,41480000000,,429.569043371,429.535405829,429.568243688,429.53539946
41531000000,992,41531000000,,432.364546244,432.328513687,432.358986782,432.328537569
41582000000,993,41582000000,,430.082689215,430.041330043,430.06653967,430.041417072
41634000000,994,41634000000,,432.595039965,432.561197289,432.594150869,432.561511776
41689000000,995,41689000000,,430.890322755,430.833192866,430.896331235,430.834706803
41744000000,996,41744000000,,431.948240712,431.883845601,431.948764314,431.894405105
41786000000,997,41786000000,,433.207463592,433.147877543,433.205246076,433.146077804
41823000000,998,41823000000,,432.694527834,432.631214248,432.694859942,432.639419207
41871000000,999,41871000000,,431.914683917,431.831709451,431.915308054,431.830331884
41915000000,1000,41915000000,,433.63147378,433.548599698,433.630980997,433.545904442
41960000000,1001,41960000000,,433.332435371,433.247920616,433.332654099,433.249218218
42006000000,1002,42006000000,,433.97713088,433.892952779,433.977005734,433.893233198
42061000000,1003,42061000000,,437.187630365,437.20448474,437.18772118,437.203874768
42106000000,1004,42106000000,,434.172595402,434.188880303,434.172560201,434.189283262
42147000000,1005,42147000000,,435.259366162,435.276002985,435.259404071,435.275775212
42191000000,1006,42191000000,,430.297501338,430.313888526,430.297444899,430.314065675
42244000000,1007,42244000000,,431.746343727,431.66285472,431.746284407,431.662742553
42273000000,1008,42273000000,,434.032396271,433.948869896,434.032377171,433.948872684
42322000000,1009,42322000000,,434.572097632,434.488578183,434.572111897,434.488600485
42359000000,1010,42359000000,,433.806563792,433.723118371,433.806718122,433.723132682
42405000000,1011,42405000000,,430.216282295,430.135554125,430.217222239,430.135596136
42448000000,1012,42448000000,,432.374029164,432.297172872,432.382781213,432.297283232
42497000000,1013,42497000000,,433.445562487,433.364870292,433.446940393,433.365278315
42549000000,1014,42549000000,,431.443509962,431.365962458,431.453484939,431.36867817
42588000000,1015,42588000000,,431.738258568,431.665767054,431.742391983,431.685305995
42630000000,1016,42630000000,,430.500342768,430.441238252,430.499593534,430.429120549
42674000000,1017,42674000000,,430.675035031,430.610980901,430.672985597,430.607462226
42728000000,1018,42728000000,,429.41170153,429.344953104,429.411020101,429.348191026
42764000000,1019,42764000000,,431.364634002,431.32729656,431.365213336,431.329502853
42809000000,1020,42809000000,,428.682187364,428.64625533,428.682436386,428.645320495
42846000000,1021,42846000000,,429.63352345,429.597242195,429.633278612,429.596511942
42896000000,1022,42896000000,,431.009610231,430.972832912,431.009669745,430.973399138
42935000000,1023,42935000000,,432.840126355,432.746313051,432.840156278,432.746252776
42984000000,1024,42984000000,,430.411373602,430.317533379,430.41130233,430.317425748
43027000000,1025,43027000000,,429.303015769,429.209135963,429.303061408,429.209224409
43071000000,1026,43071000000,,432.619035024,432.525218487,432.619040943,432.525140674
43105000000,1027,43105000000,,430.657047669,430.570037922,430.657059278,430.570098453
43158000000,1028,43158000000,,431.260018832,431.17301569,431.259985934,431.173018504
43190000000,1029,43190000000,,431.982050611,431.895060567,431.982015696,431.895035169
43230000000,1030,43230000000,,433.250142906,433.163175976,433.250161621,433.163157979
43273000000,1031,43273000000,,434.145914115,434.187272465,434.145987276,434.187252173
43310000000,1032,43310000000,,434.019268236,434.060699395,434.019496881,434.060688967
43349000000,1033,43349000000,,431.293812261,431.335610115,431.294806873,431.335632265
43388000000,1034,43388000000,,432.383598478,432.428213431,432.390343258,432.428351551
43432000000,1035,43432000000,,433.69635466,433.617281267,433.708113507,433.618309728
43484000000,1036,43484000000,,432.802771127,432.714404681,432.806256334,432.725745608
43520000000,1037,43520000000,,434.023705599,433.941236132,434.018304718,433.931897013
43553000000,1038,43553000000,,431.403301407,431.316656943,431.402664369,431.320431662
43589000000,1039,43589000000,,432.911869283,432.822837508,432.913938009,432.827896457
43634000000,1040,43634000000,,434.107256255,434.017592239,434.106636605,434.021227294
43679000000,1041,43679000000,,433.666720701,433.578253624,433.666419265,433.579813014
43719000000,1042,43719000000,,433.905071883,433.817809482,433.905467963,433.817657036
43760000000,1043,43760000000,,433.305800997,433.302059708,433.305539334,433.301316217
43800000000,1044,43800000000,,433.135803545,433.132060265,433.135989305,433.131768179
43844000000,1045,43844000000,,432.903087141,432.898933666,432.902960128,432.899149197
43885000000,1046,43885000000,,433.250069702,433.246049969,433.250092302,433.246147629
43917000000,1047,43917000000,,437.453988468,437.428168232,437.454024715,437.428055302
43959000000,1048,43959000000,,432.026216107,432.000316822,432.026227939,432.000337575
43991000000,1049,43991000000,,430.381849188,430.355945089,430.38186677,430.355981219
44022000000,1050,44022000000,,431.993913555,431.968032907,431.99391812,431.968009118
44076000000,1051,44076000000,,431.23130702,431.168235823,431.23127139,431.168232627
44119000000,1052,44119000000,,432.505859167,432.442691093,432.505622068,432.442680181
44158000000,1053,44158000000,,431.676672149,431.612626558,431.674718893,431.612654523
44202000000,1054,44202000000,,435.644632588,435.571740342,435.624974847,435.571757132
44246000000,1055,44246000000,,430.921267935,430.770214249,430.935596815,430.770192539
44276000000,1056,44276000000,,431.858638646,431.704236682,431.86624141,431.704185412
44319000000,1057,44319000000,,430.194951944,430.03775152,430.196937937,430.037680398
44362000000,1058,44362000000,,432.804470491,432.64580555,432.803467228,432.645674208
44408000000,1059,44408000000,,428.753367048,428.705739095,428.751629298,428.705258758
44448000000,1060,44448000000,,428.652178595,428.606483365,428.651263755,428.602960492
44479000000,1061,44479000000,,430.242920617,430.206292194,430.243085555,430.185715484
44522000000,1062,44522000000,,428.126543286,428.075635219,428.126934992,428.083844566
44558000000,1063,44558000000,,431.352775109,431.460039872,431.352743512,431.465612103
44607000000,1064,44607000000,,432.764465545,432.875344785,432.764338226,432.87359234
44645000000,1065,44645000000,,429.194491792,429.305766385,429.194567819,429.30342658
44686000000,1066,44686000000,,430.421172113,430.53091852,430.421170126,430.531557073
44723000000,1067,44723000000,,428.786319714,428.647370347,428.786281644,428.648051412
44762000000,1068,44762000000,,431.684255953,431.545942973,431.684272814,431.545406195
44801000000,1069,44801000000,,432.760026054,432.621374567,432.760036479,432.621508366
44837000000,1070,44837000000,,432.852499734,432.713890546,432.852511813,432.713941401
44868000000,1071,44868000000,,432.611222866,432.620693734,432.611199825,432.620642329
44934000000,1072,44934000000,,432.940328039,432.949763999,432.940301933,432.949779344
