%time,field.header.seq,field.header.stamp,field.header.frame_id,field.pose.position.x,field.pose.position.y,field.pose.position.z,field.pose.orientation.x,field.pose.orientation.y,field.pose.orientation.z,field.pose.orientation.w
15472000000,1213,15472000000,world,0.00506992390716,-0.00126929802339,2.90554238186,1.32502974522e-06,-5.59065530072e-05,-3.65377404853e-05,0.999999997769
15482000000,1214,15482000000,world,0.00507512204261,-0.00126561737842,2.90557761358,-9.43901680241e-07,-6.60049746037e-05,-3.60738061053e-05,0.999999997171
15492000000,1215,15492000000,world,0.00508115346723,-0.00126211120691,2.90561407448,-3.20483705664e-06,-7.61637835222e-05,-3.56096153916e-05,0.99999999646
15502000000,1216,15502000000,world,0.00508503832757,-0.0012581595164,2.90565177915,-5.52916565304e-06,-8.65897139429e-05,-3.51453220067e-05,0.999999995618
15512000000,1217,15512000000,world,0.00508973547777,-0.00125438488333,2.9056910904,-7.8829545922e-06,-9.68694227169e-05,-3.4681240651e-05,0.999999994676
15522000000,1218,15522000000,world,0.00509516509408,-0.00125077443348,2.90573244145,-1.02932783769e-05,-0.000106854593728,-3.42173445266e-05,0.999999993653
15532000000,1219,15532000000,world,0.00510123929127,-0.00124731171909,2.90577624861,-1.27336814887e-05,-0.000116487382581,-3.37534282249e-05,0.999999992565
15542000000,1220,15542000000,world,0.00507104984771,-0.00123579769398,2.90582284992,-1.60236536407e-05,-0.000129859171154,-3.32902314787e-05,0.999999990886
15552000000,1221,15552000000,world,0.00503925158514,-0.00122383969581,2.90587230201,-1.93172752718e-05,-0.000143335186523,-3.28272205392e-05,0.999999989002
15562000000,1222,15562000000,world,0.00500788531227,-0.00121117609594,2.90592452313,-2.26076417731e-05,-0.000156591618654,-3.23645207477e-05,0.99999998696
15572000000,1223,15572000000,world,0.00497996607208,-0.00119934657354,2.90597932818,-2.57315226062e-05,-0.000169091069819,-3.19020054999e-05,0.999999984864
15582000000,1224,15582000000,world,0.00495032238908,-0.0011871421895,2.9060365188,-2.88156415559e-05,-0.000181177724849,-3.14403425212e-05,0.999999982678
15592000000,1225,15592000000,world,0.00491256984156,-0.00117306669836,2.90609605687,-3.20263038614e-05,-0.00019327977381,-3.09798785574e-05,0.999999980329
15602000000,1226,15602000000,world,0.00487915426008,-0.00116005753111,2.90615817299,-3.50124418292e-05,-0.000203837558389,-3.05203079679e-05,0.999999978146
15612000000,1227,15612000000,world,0.00485239038854,-0.00114818948647,2.90622307786,-3.76780864964e-05,-0.000212803760203,-3.0061949467e-05,0.999999976196
15622000000,1228,15622000000,world,0.00482983756382,-0.00113733650581,2.90629080049,-3.99993206669e-05,-0.000220429156924,-2.96047030031e-05,0.999999974467
15632000000,1229,15632000000,world,0.00481096408612,-0.00112743223725,2.90636131297,-4.19576062732e-05,-0.000226669314801,-2.91485456129e-05,0.999999973005
15642000000,1230,15642000000,world,0.00479597246895,-0.00111829837874,2.90643458899,-4.35709520804e-05,-0.000231376696007,-2.86936594795e-05,0.999999971872
15652000000,1231,15652000000,world,0.0047859615051,-0.00110954419979,2.90651062002,-4.48702193883e-05,-0.000234337776281,-2.82410845879e-05,0.999999971137
15662000000,1232,15662000000,world,0.00477852876665,-0.00110155280059,2.90658942316,-4.5834105742e-05,-0.000235761179315,-2.77900987738e-05,0.999999970772
15672000000,1233,15672000000,world,0.00477332541675,-0.00109424772891,2.90667101846,-4.64625257239e-05,-0.000235665566359,-2.73405340338e-05,0.999999970778
15682000000,1234,15682000000,world,0.00480375531451,-0.00109725799504,2.90675538325,-4.56938331849e-05,-0.000230684326927,-2.68902484706e-05,0.999999971987
15692000000,1235,15692000000,world,0.00483372023049,-0.00110020991503,2.90684225876,-4.46392536901e-05,-0.000224537381858,-2.6441199398e-05,0.999999973446
15702000000,1236,15702000000,world,0.00486155737795,-0.0011025199281,2.90693141252,-4.33764432194e-05,-0.000217436428778,-2.59935271217e-05,0.999999975082
15712000000,1237,15712000000,world,0.00488774594008,-0.00110442588515,2.90702282177,-4.18941698698e-05,-0.000209391912737,-2.55470189592e-05,0.999999976874
15722000000,1238,15722000000,world,0.00491227659864,-0.00110595864849,2.90711653554,-4.01892220697e-05,-0.00020054034647,-2.51018396451e-05,0.999999978769
15732000000,1239,15732000000,world,0.00493587822263,-0.00110716941741,2.90721256115,-3.82910565654e-05,-0.000190944101083,-2.46583494765e-05,0.999999980733
15742000000,1240,15742000000,world,0.00495745204284,-0.00110791115267,2.90731078522,-3.62360231649e-05,-0.00018092566511,-2.42163456594e-05,0.999999982683
15752000000,1241,15752000000,world,0.00497693651679,-0.00110816543952,2.90741107794,-3.40435269631e-05,-0.0001704718167,-2.37756200011e-05,0.999999984608
15762000000,1242,15762000000,world,0.00499647925017,-0.00110832156773,2.90751338224,-3.16890974452e-05,-0.000159214783696,-2.33362407753e-05,0.999999986551
15772000000,1243,15772000000,world,0.00501383423546,-0.00110796967436,2.90761790961,-2.92259356486e-05,-0.000147384105781,-2.28979576254e-05,0.99999998845
15782000000,1244,15782000000,world,0.00507020587996,-0.00111573889218,2.90772488305,-2.57659964221e-05,-0.000130664849737,-2.24607520727e-05,0.999999990879
15792000000,1245,15792000000,world,0.00512204769397,-0.00112251081385,2.90783424573,-2.22581818708e-05,-0.00011394709036,-2.2024144051e-05,0.999999993018
15802000000,1246,15802000000,world,0.00517269576103,-0.00112886590417,2.90794590297,-1.86763067219e-05,-9.7154059452e-05,-2.15884007085e-05,0.999999994873
15812000000,1247,15812000000,world,0.00522352724063,-0.00113526327245,2.90805982635,-1.50097280816e-05,-8.04894482591e-05,-2.11533132671e-05,0.999999996424
15822000000,1248,15822000000,world,0.00526907622459,-0.00114052061959,2.90817609464,-1.14304469772e-05,-6.46812106673e-05,-2.07184925276e-05,0.999999997628
15832000000,1249,15832000000,world,0.0053115724906,-0.00114513785655,2.90829479532,-7.9364596554e-06,-4.92395194114e-05,-2.02837968169e-05,0.999999998551
15842000000,1250,15842000000,world,0.00536761003283,-0.00115279703013,2.9084158262,-4.17145237361e-06,-3.24773977413e-05,-1.98492152915e-05,0.999999999267
15852000000,1251,15852000000,world,0.00541782459375,-0.00115936872697,2.90853853501,-5.86237058848e-07,-1.65567826295e-05,-1.94143911021e-05,0.999999999674
15862000000,1252,15862000000,world,0.00546285529342,-0.00116546005138,2.90866239331,2.87719478755e-06,-1.67038411267e-06,-1.89793908859e-05,0.999999999814
15872000000,1253,15872000000,world,0.00550227127199,-0.00117029314066,2.90878732784,6.12111115926e-06,1.18936715776e-05,-1.85445073457e-05,0.999999999739
15882000000,1254,15882000000,world,0.0055424155828,-0.00117519011752,2.90891331776,9.24246256194e-06,2.45798024944e-05,-1.81099781523e-05,0.999999999491
15892000000,1255,15892000000,world,0.00557730080514,-0.00117890068656,2.90904031648,1.20733150558e-05,3.55918706243e-05,-1.7675792764e-05,0.999999999138
15902000000,1256,15902000000,world,0.00560729015767,-0.00118150515501,2.90916827193,1.45728686086e-05,4.51337935532e-05,-1.724200726e-05,0.999999998727
15912000000,1257,15912000000,world,0.00562889271904,-0.00118275122737,2.90929712601,1.66949301094e-05,5.28154506425e-05,-1.68092590338e-05,0.999999998325
15922000000,1258,15922000000,world,0.0056441279037,-0.00118287246743,2.90942668754,1.84647731426e-05,5.87901676321e-05,-1.63774001885e-05,0.999999997967
15932000000,1259,15932000000,world,0.0056561456415,-0.0011822029425,2.90955667011,1.99224908943e-05,6.33060288753e-05,-1.594610816e-05,0.999999997671
15942000000,1260,15942000000,world,0.00564072022671,-0.00117597173769,2.9096867863,2.05706078205e-05,6.37362056511e-05,-1.5516607632e-05,0.999999997637
15952000000,1261,15952000000,world,0.00560474063503,-0.00116363028844,2.90981651028,2.03370669748e-05,6.09248099526e-05,-1.50872141169e-05,0.999999997823
15962000000,1262,15962000000,world,0.00556972229779,-0.00115147048359,2.90994514915,1.98901171818e-05,5.73744036935e-05,-1.46591634657e-05,0.999999998049
15972000000,1263,15972000000,world,0.00553719043161,-0.00113991239227,2.91007204512,1.93007560743e-05,5.33150250992e-05,-1.42324427649e-05,0.999999998291
15982000000,1264,15982000000,world,0.00550796533538,-0.00112917559201,2.9101968653,1.86213426501e-05,4.87802111364e-05,-1.38071282024e-05,0.999999998542
15992000000,1265,15992000000,world,0.00548094627068,-0.00111891624252,2.91031967517,1.78442157312e-05,4.37276630536e-05,-1.33829266209e-05,0.999999998795
16002000000,1266,16002000000,world,0.00545589351472,-0.00110916222622,2.91044055128,1.69932893287e-05,3.82204493313e-05,-1.29595245593e-05,0.999999999041
16012000000,1267,16012000000,world,0.00543292753239,-0.00109993987996,2.91055930676,1.60882421997e-05,3.23956490718e-05,-1.25369334746e-05,0.999999999267
16022000000,1268,16022000000,world,0.00541249436325,-0.00109127631045,2.91067550432,1.51144955457e-05,2.64158654005e-05,-1.21152683601e-05,0.999999999463
16032000000,1269,16032000000,world,0.0053941104558,-0.00108310502154,2.91078871335,1.40588472212e-05,2.0393322128e-05,-1.16943145705e-05,0.999999999625
16042000000,1270,16042000000,world,0.00537715100743,-0.00107533443102,2.91089851395,1.29436823764e-05,1.43355118687e-05,-1.12737467029e-05,0.99999999975
16052000000,1271,16052000000,world,0.00536255638257,-0.00106808676959,2.91100448872,1.18143394625e-05,8.19179031948e-06,-1.08534236502e-05,0.999999999838
16062000000,1272,16062000000,world,0.00534829214061,-0.00106104367031,2.91110631225,1.06544730524e-05,1.76476848359e-06,-1.04332411222e-05,0.999999999887
16072000000,1273,16072000000,world,0.00533599499063,-0.00105444530412,2.91120409221,9.50433097697e-06,-4.72293183081e-06,-1.0012858026e-05,0.999999999894
16082000000,1274,16082000000,world,0.00532571950184,-0.00104829007388,2.91129807107,8.36708516487e-06,-1.11718515941e-05,-9.59215714658e-06,0.999999999857
16092000000,1275,16092000000,world,0.00531680093291,-0.00104247033949,2.91138848149,7.21720539594e-06,-1.7570518091e-05,-9.17141843264e-06,0.999999999778
16102000000,1276,16102000000,world,0.00530845986617,-0.00103681610967,2.91147547928,6.01413377123e-06,-2.38924158342e-05,-8.75058750465e-06,0.999999999658
16112000000,1277,16112000000,world,0.00530169835141,-0.00103150926218,2.91155906315,4.79161747371e-06,-2.99254266425e-05,-8.32945129805e-06,0.999999999506
16122000000,1278,16122000000,world,0.00529433895087,-0.00102616809889,2.9116392326,3.55080659087e-06,-3.60804148193e-05,-7.90789040123e-06,0.999999999312
16132000000,1279,16132000000,world,0.00528813000369,-0.00102108434168,2.9117161955,2.35980253169e-06,-4.22619550129e-05,-7.48564974145e-06,0.999999999076
16142000000,1280,16142000000,world,0.0052831540317,-0.00101626584908,2.91179029412,1.23247248596e-06,-4.8441253515e-05,-7.06262065689e-06,0.999999998801
16152000000,1281,16152000000,world,0.00527766453234,-0.00101139117762,2.91186184104,1.31286115139e-07,-5.47417049065e-05,-6.63874558148e-06,0.99999999848
16162000000,1282,16162000000,world,0.00527282101683,-0.00100666810551,2.91193098604,-9.2845589175e-07,-6.09659775228e-05,-6.21441292632e-06,0.999999998122
16172000000,1283,16172000000,world,0.00526891009165,-0.00100214682633,2.91199780646,-1.97410419131e-06,-6.70068332515e-05,-5.7897767872e-06,0.999999997736
16182000000,1284,16182000000,world,0.00526537429314,-0.000997742097909,2.91206237628,-3.01669233425e-06,-7.28020596137e-05,-5.36470364935e-06,0.999999997331
16192000000,1285,16192000000,world,0.00526086950691,-0.000993159152289,2.91212478954,-4.05402247608e-06,-7.86015160848e-05,-4.93912312876e-06,0.99999999689
16202000000,1286,16202000000,world,0.00525707404661,-0.000988729847017,2.91218520624,-5.03846650653e-06,-8.43324786228e-05,-4.51309246823e-06,0.999999996421
16212000000,1287,16212000000,world,0.00525311110398,-0.000984307305318,2.91224378728,-5.97630827432e-06,-9.0075469639e-05,-4.08655766615e-06,0.999999995917
16222000000,1288,16222000000,world,0.00524895271415,-0.000979884462239,2.91230057433,-6.87012282773e-06,-9.57935547177e-05,-3.65936499386e-06,0.999999995382
16232000000,1289,16232000000,world,0.00524532399871,-0.000975578006339,2.91235549561,-7.7064607752e-06,-0.000101342882731,-3.23179634202e-06,0.99999999483
16242000000,1290,16242000000,world,0.00524214642857,-0.000971373902363,2.9124084774,-8.52009912052e-06,-0.000106678135629,-2.80413222184e-06,0.99999999427
16252000000,1291,16252000000,world,0.00523680402446,-0.000966850905581,2.91245942737,-9.36821539859e-06,-0.000111969389467,-2.37631968013e-06,0.999999993685
16262000000,1292,16262000000,world,0.0052314727814,-0.000962326588412,2.91250810178,-1.01906667198e-05,-0.000117009894556,-1.94816692637e-06,0.999999993101
16272000000,1293,16272000000,world,0.00522656734653,-0.000957895900596,2.91255419734,-1.09600452412e-05,-0.000121893915658,-1.51973503168e-06,0.99999999251
16282000000,1294,16282000000,world,0.00522192304989,-0.000953532305213,2.9125974225,-1.16716324773e-05,-0.000126634618749,-1.09099680926e-06,0.999999991913
16292000000,1295,16292000000,world,0.0052155612805,-0.00094893821473,2.91263751718,-1.23521567757e-05,-0.000131415699533,-6.61816550824e-07,0.999999991288
16302000000,1296,16302000000,world,0.00520932833544,-0.000944387415593,2.91267431912,-1.2971135798e-05,-0.000135983459367,-2.3229003217e-07,0.99999999067
16312000000,1297,16312000000,world,0.00520122743929,-0.00093957311357,2.91270774215,-1.35837344252e-05,-0.000140498235507,1.97175297698e-07,0.999999990038
16322000000,1298,16322000000,world,0.00519317316921,-0.000934796268815,2.91273781761,-1.41781347084e-05,-0.000144680467377,6.26628382137e-07,0.999999989433
16332000000,1299,16332000000,world,0.00518465151775,-0.00092998618442,2.9127646335,-1.47464123661e-05,-0.00014853714044,1.05631304957e-06,0.999999988859
16342000000,1300,16342000000,world,0.0051765784278,-0.000925263140062,2.91278836523,-1.52532571012e-05,-0.000152101092639,1.48624286054e-06,0.999999988315
16352000000,1301,16352000000,world,0.00516880056312,-0.00092060531663,2.91280919217,-1.56937950125e-05,-0.000155393536903,1.91639530419e-06,0.999999987801
16362000000,1302,16362000000,world,0.00516040355407,-0.000915892849128,2.9128273075,-1.60719243138e-05,-0.000158486898107,2.34689761347e-06,0.999999987309
16372000000,1303,16372000000,world,0.00515221577523,-0.000911229685992,2.91284296036,-1.63764607625e-05,-0.000161251344104,2.77778962708e-06,0.999999986861
16382000000,1304,16382000000,world,0.00514294946827,-0.000906438949063,2.91285637857,-1.66342166247e-05,-0.000163786720393,3.20864519075e-06,0.999999986443
16392000000,1305,16392000000,world,0.00513404762923,-0.000901717349523,2.91286771655,-1.68509896617e-05,-0.00016590337828,3.6393935546e-06,0.999999986089
16402000000,1306,16402000000,world,0.00512546591873,-0.000897057993454,2.91287711029,-1.70246114759e-05,-0.000167552887527,4.07021030534e-06,0.99999998581
16412000000,1307,16412000000,world,0.0051167737677,-0.000892408664846,2.91288469337,-1.71387875848e-05,-0.000168837771941,4.50116024471e-06,0.99999998559
16422000000,1308,16422000000,world,0.00510786898482,-0.0008877554979,2.91289066647,-1.71880919214e-05,-0.000169786651523,4.93218202783e-06,0.999999985426
16432000000,1309,16432000000,world,0.00509918523658,-0.000883146478165,2.91289529411,-1.71583213226e-05,-0.00017033262277,5.36337835559e-06,0.999999985332
16442000000,1310,16442000000,world,0.00509067461409,-0.000878574515515,2.91289883328,-1.7050047235e-05,-0.000170459981194,5.79488959504e-06,0.99999998531
16452000000,1311,16452000000,world,0.00508132864635,-0.000873933804034,2.91290147415,-1.68702434121e-05,-0.000170266688815,6.22636510691e-06,0.999999985343
16462000000,1312,16462000000,world,0.00507201375991,-0.000869312308376,2.91290309318,-1.66390762274e-05,-0.000169658562276,6.65760354181e-06,0.999999985447
16472000000,1313,16472000000,world,0.00506280236787,-0.000864716030445,2.91290347004,-1.6362016862e-05,-0.000168622461115,7.08874061883e-06,0.999999985624
16482000000,1314,16482000000,world,0.00505319460599,-0.000860111716781,2.91290239743,-1.60274337928e-05,-0.000167191016006,7.51992842972e-06,0.999999985867
16492000000,1315,16492000000,world,0.00504352963439,-0.000855516422164,2.91289971066,-1.56266601627e-05,-0.000165333506283,7.95108781234e-06,0.999999986179
16502000000,1316,16502000000,world,0.0050338940975,-0.000850932521941,2.91289526649,-1.51525648512e-05,-0.0001630173314,8.38228112618e-06,0.999999986563
16512000000,1317,16512000000,world,0.00502422070195,-0.000846388857204,2.91288892797,-1.45982004032e-05,-0.000160239965159,8.81369868478e-06,0.999999987016
16522000000,1318,16522000000,world,0.00501449439479,-0.000841867825373,2.91288057384,-1.39558819513e-05,-0.000157022213556,9.24512787608e-06,0.999999987532
16532000000,1319,16532000000,world,0.00500471253532,-0.000837343522377,2.91287009546,-1.32532686549e-05,-0.000153390590037,9.67624326654e-06,0.999999988101
16542000000,1320,16542000000,world,0.00499485084044,-0.000832813110752,2.9128573886,-1.25028082614e-05,-0.000149397736971,1.01071194829e-05,0.999999988711
16552000000,1321,16552000000,world,0.00498532089869,-0.000828393529179,2.91284244166,-1.16865530576e-05,-0.000144966809743,1.05379759913e-05,0.999999989368
16562000000,1322,16562000000,world,0.00497568749834,-0.000823968760973,2.91282559832,-1.08113909962e-05,-0.000140086176972,1.0968742222e-05,0.999999990069
16572000000,1323,16572000000,world,0.00496587971462,-0.000819522632059,2.91280727565,-9.87518005873e-06,-0.000134734412373,1.13994345197e-05,0.99999999081
16582000000,1324,16582000000,world,0.00495679916083,-0.000815254848812,2.91278779077,-8.84932777969e-06,-0.000128807846431,1.18302579364e-05,0.999999991595
16592000000,1325,16592000000,world,0.00494756160755,-0.000810972960918,2.91276699103,-7.74577045931e-06,-0.000122447936536,1.22611352747e-05,0.999999992398
16602000000,1326,16602000000,world,0.00493804743864,-0.000806652679362,2.91274457919,-6.57956544406e-06,-0.000115724102011,1.26916684552e-05,0.999999993202
16612000000,1327,16612000000,world,0.00492954209256,-0.000802543799827,2.91272030395,-5.34255315747e-06,-0.000108590589408,1.31218909147e-05,0.999999994004
16622000000,1328,16622000000,world,0.0049209899842,-0.000798443704378,2.91269417601,-4.05960364841e-06,-0.000101188678113,1.35519656637e-05,0.99999999478
16632000000,1329,16632000000,world,0.00491204635734,-0.000794287603108,2.91266631744,-2.7365992739e-06,-9.34126750981e-05,1.39819011171e-05,0.999999995536
16642000000,1330,16642000000,world,0.00490271016731,-0.00079007665447,2.91263684596,-1.37229987106e-06,-8.52155743992e-05,1.44116674018e-05,0.999999996264
16652000000,1331,16652000000,world,0.00489406986881,-0.000786012606496,2.91260587348,6.32072923289e-08,-7.64700802088e-05,1.48414314814e-05,0.999999996966
16662000000,1332,16662000000,world,0.00488569905489,-0.000782017467953,2.91257347372,1.56724635513e-06,-6.72798317376e-05,1.52712769516e-05,0.999999997619
16672000000,1333,16672000000,world,0.00487686473835,-0.000777956666594,2.91253968433,3.12822655825e-06,-5.78121608546e-05,1.57007913338e-05,0.999999998201
16682000000,1334,16682000000,world,0.00486978764561,-0.000774225550086,2.9125045333,4.76444662639e-06,-4.79379512256e-05,1.61299241237e-05,0.99999999871
16692000000,1335,16692000000,world,0.00486307898803,-0.000770578178473,2.91246797095,6.44196713616e-06,-3.79285072265e-05,1.65588043438e-05,0.999999999123
16702000000,1336,16702000000,world,0.00485576824005,-0.000766843858283,2.91242990558,8.13690900506e-06,-2.77008041695e-05,1.69875090713e-05,0.999999999439
16712000000,1337,16712000000,world,0.00485068589007,-0.000763505770805,2.91239027752,9.8982590548e-06,-1.68643456518e-05,1.74160541109e-05,0.999999999657
16722000000,1338,16722000000,world,0.00484518306065,-0.000760113588448,2.91234918538,1.16838888419e-05,-5.68778330426e-06,1.78444587052e-05,0.999999999756
16732000000,1339,16732000000,world,0.00483895425718,-0.000756615738024,2.91230677578,1.34930452115e-05,5.74055912949e-06,1.82728853151e-05,0.999999999726
16742000000,1340,16742000000,world,0.00487344963738,-0.000759859010488,2.91226317984,1.60365296285e-05,2.1660463517e-05,1.87021534204e-05,0.999999999462
16752000000,1341,16752000000,world,0.00490478690857,-0.000762596387658,2.91221848824,1.85268479785e-05,3.71576453268e-05,1.91308353688e-05,0.999999998955
16762000000,1342,16762000000,world,0.00493269600413,-0.000764783463179,2.91217278173,2.09362272322e-05,5.18844037323e-05,1.95590410471e-05,0.999999998244
16772000000,1343,16772000000,world,0.00496268056673,-0.000767109817463,2.91212613801,2.33059696518e-05,6.65022739278e-05,1.99871161588e-05,0.999999997317
16782000000,1344,16782000000,world,0.00499012077581,-0.000768994807952,2.91207872153,2.55512800582e-05,8.06578854308e-05,2.04148589082e-05,0.999999996212
16792000000,1345,16792000000,world,0.00501358697488,-0.000770262060703,2.91203083991,2.76440654603e-05,9.41318715892e-05,2.08422764776e-05,0.99999999497
16802000000,1346,16802000000,world,0.00503319073554,-0.000770931541266,2.91198280258,2.95862130538e-05,0.00010680968269,2.12695488414e-05,0.999999993632
16812000000,1347,16812000000,world,0.00506124322257,-0.000773213154116,2.91193488012,3.16079902674e-05,0.000119787156684,2.16967622302e-05,0.999999992091
16822000000,1348,16822000000,world,0.0050901917137,-0.000775747350458,2.91188709467,3.3532063719e-05,0.000132058379375,2.21234250899e-05,0.999999990473
16832000000,1349,16832000000,world,0.00511482278936,-0.000777593290675,2.91183932648,3.52326673286e-05,0.000142839391404,2.254948749e-05,0.999999988924
16842000000,1350,16842000000,world,0.0051353322527,-0.000778781875062,2.9117914574,3.66878344757e-05,0.000152150139254,2.29751647056e-05,0.999999987488
16852000000,1351,16852000000,world,0.00515164567401,-0.000779079085455,2.91174337676,3.78556560236e-05,0.000160076259082,2.340062163e-05,0.999999986197
16862000000,1352,16862000000,world,0.00516392861009,-0.000778421952846,2.91169522183,3.87259635485e-05,0.000166579284365,2.38258815907e-05,0.999999985092
16872000000,1353,16872000000,world,0.00517301528129,-0.000777291609712,2.91164753464,3.93569571914e-05,0.000171671522814,2.42506992846e-05,0.999999984196
16882000000,1354,16882000000,world,0.0051792463945,-0.000775746862489,2.91160087479,3.97549911253e-05,0.000175287662458,2.46749500203e-05,0.999999983542
16892000000,1355,16892000000,world,0.00517872636019,-0.000773201144951,2.91155578071,3.98374284397e-05,0.00017694213043,2.50979956725e-05,0.999999983237
16902000000,1356,16902000000,world,0.0051392525907,-0.00076476123814,2.91151265124,3.90671101694e-05,0.000173345868682,2.55184555119e-05,0.999999983887
16912000000,1357,16912000000,world,0.00510043893284,-0.00075645685988,2.91147142518,3.80879485584e-05,0.000168874832934,2.59378800586e-05,0.999999984679
16922000000,1358,16922000000,world,0.00506291089922,-0.000748384480002,2.91143199364,3.69432836252e-05,0.00016354870798,2.6356159426e-05,0.999999985596
16932000000,1359,16932000000,world,0.00502804659018,-0.000740745185858,2.91139425084,3.56775053562e-05,0.000157508761064,2.67731803263e-05,0.999999986601
16942000000,1360,16942000000,world,0.00499728857293,-0.000733747469064,2.91135814278,3.43360091823e-05,0.000150973067446,2.71890064421e-05,0.999999987644
16952000000,1361,16952000000,world,0.00496861561694,-0.000727106616205,2.9113236991,3.28941658613e-05,0.000143829640168,2.76035802083e-05,0.999999988735
16962000000,1362,16962000000,world,0.00494212553909,-0.00072083754832,2.91129095498,3.13530420486e-05,0.000136213595565,2.80164349641e-05,0.999999989839
16972000000,1363,16972000000,world,0.00491734493133,-0.000714821973941,2.91125994002,2.96708418687e-05,0.000128210586748,2.8427344896e-05,0.999999990937
16982000000,1364,16982000000,world,0.00489429041507,-0.000709065904113,2.91123057792,2.78499802586e-05,0.000120030924058,2.88363836993e-05,0.999999991993
16992000000,1365,16992000000,world,0.00487342599993,-0.000703685410453,2.9112026919,2.59487690596e-05,0.000111614488539,2.92435643118e-05,0.999999993007
17002000000,1366,17002000000,world,0.00485466468514,-0.000698664775282,2.91117610799,2.39886481558e-05,0.00010282124406,2.96487223094e-05,0.999999993987
17012000000,1367,17012000000,world,0.00483577519435,-0.000693555496612,2.91115073304,2.19391552377e-05,9.34375345489e-05,3.00518612638e-05,0.999999994942
17022000000,1368,17022000000,world,0.00481834605039,-0.000688684606079,2.91112702476,1.98359907163e-05,8.36999641544e-05,3.04532944532e-05,0.999999995837
17032000000,1369,17032000000,world,0.00480279279568,-0.000684141831274,2.91110566531,1.76851773673e-05,7.37768351663e-05,3.08529626677e-05,0.999999996646
17042000000,1370,17042000000,world,0.00478827759259,-0.00067975267784,2.91108731079,1.54329310839e-05,6.36898159978e-05,3.12507828518e-05,0.999999997364
17052000000,1371,17052000000,world,0.00477267186451,-0.000675060967917,2.91107240195,1.30170294777e-05,5.34203330141e-05,3.16470323518e-05,0.999999997988
17062000000,1372,17062000000,world,0.00475870189666,-0.000670668726808,2.91106093964,1.05461053462e-05,4.3217062771e-05,3.20420788198e-05,0.999999998497
17072000000,1373,17072000000,world,0.00474624175112,-0.00066655338376,2.91105286977,8.05171512649e-06,3.28212187921e-05,3.24360234653e-05,0.999999998903
17082000000,1374,17082000000,world,0.00471058450352,-0.000657306305502,2.91104815195,4.98225601055e-06,1.96091677053e-05,3.2828861644e-05,0.999999999256
17092000000,1375,17092000000,world,0.0046616535178,-0.000645108907566,2.91104689605,1.59028058379e-06,4.7318824258e-06,3.32210044224e-05,0.999999999436
17102000000,1376,17102000000,world,0.0046164722643,-0.000633699170717,2.91104932575,-1.7275948497e-06,-9.75372650045e-06,3.36126387225e-05,0.999999999386
17112000000,1377,17112000000,world,0.00457299356451,-0.000622235566341,2.91105565574,-5.07184070981e-06,-2.38436853291e-05,3.40034824974e-05,0.999999999125
17122000000,1378,17122000000,world,0.00452958814897,-0.000610370414132,2.91106591058,-8.48514834267e-06,-3.74148472909e-05,3.43936917734e-05,0.999999998673
17132000000,1379,17132000000,world,0.00449028691838,-0.000599440440187,2.91107988033,-1.17662349621e-05,-4.99061990372e-05,3.47836766312e-05,0.999999998081
17142000000,1380,17142000000,world,0.00445496688184,-0.000589424092454,2.91109734816,-1.48424294943e-05,-6.16058391374e-05,3.51735599349e-05,0.999999997374
17152000000,1381,17152000000,world,0.00440481726168,-0.000576446034366,2.91111819942,-1.80904417841e-05,-7.4463810296e-05,3.55634316574e-05,0.999999996432
17162000000,1382,17162000000,world,0.00435933321263,-0.00056432741616,2.91114272158,-2.10762928261e-05,-8.62916167318e-05,3.59532433825e-05,0.999999995408
17172000000,1383,17172000000,world,0.00431838197586,-0.000553249192493,2.91117128398,-2.37789414894e-05,-9.68923033584e-05,3.63429624518e-05,0.999999994363
17182000000,1384,17182000000,world,0.00428174969443,-0.000543164998678,2.91120424149,-2.62019763712e-05,-0.000106111734322,3.67320379038e-05,0.999999993352
17192000000,1385,17192000000,world,0.00425217581411,-0.000533533574501,2.91124190409,-2.84165646429e-05,-0.000113506944727,3.71194027966e-05,0.999999992465
17202000000,1386,17202000000,world,0.00422688878329,-0.000524677013811,2.91128433051,-3.0358646627e-05,-0.000119262822386,3.75058285426e-05,0.999999991724
17212000000,1387,17212000000,world,0.00420475239027,-0.000516645885111,2.9113314725,-3.19549919963e-05,-0.000123633346963,3.78914877703e-05,0.999999991129
17222000000,1388,17222000000,world,0.0042049002426,-0.000514515785451,2.91138329192,-3.26485804236e-05,-0.000124593622903,3.82767275948e-05,0.999999990973
17232000000,1389,17232000000,world,0.00422532367655,-0.000517771535331,2.91143978333,-3.25003283162e-05,-0.000122353861318,3.86615431115e-05,0.999999991239
17242000000,1390,17242000000,world,0.00424533144129,-0.000520956723432,2.91150097584,-3.21061807101e-05,-0.000119158203346,3.90454468747e-05,0.999999991623
17252000000,1391,17252000000,world,0.00426436712464,-0.000523931878865,2.91156690615,-3.149467232e-05,-0.000115172017808,3.94279663155e-05,0.999999992094
17262000000,1392,17262000000,world,0.00427974350396,-0.000525892984612,2.91163760633,-3.07946967453e-05,-0.000110796146964,3.98087131637e-05,0.999999992596
17272000000,1393,17272000000,world,0.0042930127962,-0.000527333549831,2.91171308975,-2.99731279963e-05,-0.000105990145434,4.0187833002e-05,0.999999993126
17282000000,1394,17282000000,world,0.00430457824155,-0.000528387240755,2.91179336067,-2.90186556e-05,-0.000100691835141,4.05653938184e-05,0.999999993687
17292000000,1395,17292000000,world,0.00431439450593,-0.000529023537238,2.91187842298,-2.794369031e-05,-9.49024131583e-05,4.09412286324e-05,0.999999994268
17302000000,1396,17302000000,world,0.0043228749554,-0.000529208930411,2.91196818335,-2.67569309325e-05,-8.8602498374e-05,4.13153155794e-05,0.999999994863
17312000000,1397,17312000000,world,0.00432947571752,-0.00052896607662,2.91206226315,-2.54613447397e-05,-8.19055106858e-05,4.1688067248e-05,0.999999995453
17322000000,1398,17322000000,world,0.00433423874472,-0.000528302793037,2.91216024683,-2.40509006741e-05,-7.49102050931e-05,4.20594090867e-05,0.999999996021
17332000000,1399,17332000000,world,0.00433906750429,-0.000527530539896,2.91226175006,-2.25244165069e-05,-6.75127630746e-05,4.24291627435e-05,0.999999996567
17342000000,1400,17342000000,world,0.00434212116889,-0.000526356979365,2.91236646114,-2.09286966756e-05,-6.00469749461e-05,4.27976472582e-05,0.999999997062
17352000000,1401,17352000000,world,0.00434349819399,-0.00052480454137,2.91247409532,-1.92699080306e-05,-5.24567881687e-05,4.3165198926e-05,0.999999997507
17362000000,1402,17362000000,world,0.00434432930178,-0.000523085854553,2.91258440485,-1.75328699982e-05,-4.45315673919e-05,4.35318858513e-05,0.999999997907
17372000000,1403,17372000000,world,0.00434465614923,-0.00052121339663,2.91269754359,-1.57184183479e-05,-3.62601134224e-05,4.38978845621e-05,0.999999998256
17382000000,1404,17382000000,world,0.00434355303265,-0.000519021816534,2.91281395769,-1.38394965851e-05,-2.77659663178e-05,4.4263525836e-05,0.999999998539
17392000000,1405,17392000000,world,0.00434114542026,-0.000516538488846,2.91293408316,-1.18799901216e-05,-1.91305223154e-05,4.46288538693e-05,0.999999998751
17402000000,1406,17402000000,world,0.00433865980412,-0.000514017944038,2.91305833339,-9.8285870943e-06,-1.03109176559e-05,4.49936023473e-05,0.999999998886
17412000000,1407,17412000000,world,0.00433667119969,-0.000511580195394,2.91318687268,-7.68839321484e-06,-1.37803739788e-06,4.53579091479e-05,0.999999998941
17422000000,1408,17422000000,world,0.0043335993972,-0.000508901847977,2.91331955897,-5.50386275438e-06,7.49055574392e-06,4.57221179904e-05,0.999999998912
17432000000,1409,17432000000,world,0.0043295496415,-0.000506007148677,2.91345623661,-3.28422900138e-06,1.64704224071e-05,4.60863342e-05,0.999999998797
17442000000,1410,17442000000,world,0.00432543335548,-0.000503095661836,2.9135967561,-1.01022640501e-06,2.56945413722e-05,4.64506430377e-05,0.999999998591
17452000000,1411,17452000000,world,0.00432363367775,-0.000500688092994,2.91374099129,1.37952336927e-06,3.54107378861e-05,4.68152341299e-05,0.999999998276
17462000000,1412,17462000000,world,0.00432094583117,-0.00049808295568,2.91388886046,3.82514673549e-06,4.51932048292e-05,4.71801903463e-05,0.999999997858
17472000000,1413,17472000000,world,0.00431744858495,-0.000495297100825,2.91404029018,6.32933720642e-06,5.49511897698e-05,4.75450889169e-05,0.99999999734
17482000000,1414,17482000000,world,0.00431534315367,-0.000492854972845,2.91419520953,8.92807596907e-06,6.47999332698e-05,4.79098209231e-05,0.999999996713
17492000000,1415,17492000000,world,0.00431454299565,-0.000490733657763,2.91435354744,1.1608686632e-05,7.4634726238e-05,4.82745612961e-05,0.999999995982
17502000000,1416,17502000000,world,0.00431292988323,-0.000488426377285,2.91451523295,1.42954730471e-05,8.4425152034e-05,4.86393896842e-05,0.999999995151
17512000000,1417,17512000000,world,0.00431056824914,-0.00048594740539,2.91468019754,1.69829337118e-05,9.42385924147e-05,4.90042393431e-05,0.999999994215
17522000000,1418,17522000000,world,0.00434566074596,-0.000493181365158,2.91484835886,2.07034245831e-05,0.00010811252437,4.936883952e-05,0.999999992723
17532000000,1419,17532000000,world,0.00437981575803,-0.000500187704784,2.91501962016,2.44058628888e-05,0.000121813799951,4.97337000595e-05,0.999999991046
17542000000,1420,17542000000,world,0.0044107314229,-0.000506366684354,2.91519387545,2.80245741019e-05,0.00013485812612,5.00984656404e-05,0.999999989259
17552000000,1421,17552000000,world,0.00443830596967,-0.000511689328173,2.91537102259,3.15103851322e-05,0.000147027395179,5.04629436726e-05,0.999999987422
17562000000,1422,17562000000,world,0.00446645561053,-0.000517643821349,2.91555091582,3.49909835327e-05,0.000158507268186,5.08270602878e-05,0.999999985534
17572000000,1423,17572000000,world,0.00449154196343,-0.000522833382599,2.91573316602,3.82593495819e-05,0.00016904628823,5.11911607974e-05,0.99999998367
17582000000,1424,17582000000,world,0.00451323271358,-0.000527112339328,2.91591731544,4.12653535387e-05,0.000178644345584,5.15551951829e-05,0.999999981863
17592000000,1425,17592000000,world,0.00453170632472,-0.000530522512156,2.91610292421,4.40019971608e-05,0.000187256769631,5.19192261242e-05,0.999999980152
17602000000,1426,17602000000,world,0.0045600662505,-0.000537204280715,2.91628958037,4.68918450905e-05,0.000196170349337,5.22828579796e-05,0.999999978292
17612000000,1427,17612000000,world,0.00458630284389,-0.000543331461211,2.91647699142,4.9545361612e-05,0.000203935486685,5.2646267985e-05,0.999999976592
17622000000,1428,17622000000,world,0.00460909868515,-0.000548470984722,2.91666490236,5.18705876711e-05,0.000210280447197,5.30090824595e-05,0.999999975141
17632000000,1429,17632000000,world,0.00462866230055,-0.000552673936825,2.91685306751,5.38412958158e-05,0.000215122386459,5.33712602882e-05,0.999999973987
17642000000,1430,17642000000,world,0.00461139716008,-0.00054632422822,2.91704129581,5.44051487074e-05,0.000215108256417,5.37335916746e-05,0.999999973941
17652000000,1431,17652000000,world,0.0045876293364,-0.000538092152425,2.91722956643,5.44900467725e-05,0.000213356120537,5.40952689395e-05,0.999999974292
17662000000,1432,17662000000,world,0.00456411167422,-0.000529905760391,2.91741795906,5.43285707864e-05,0.000210603716932,5.4456072157e-05,0.999999974865
17672000000,1433,17672000000,world,0.00454133171086,-0.000521902239693,2.91760655355,5.39627914189e-05,0.000206953974654,5.48160491299e-05,0.999999975627
17682000000,1434,17682000000,world,0.00452222132738,-0.000514930527012,2.9177953934,5.34992611955e-05,0.000202800939406,5.51749802175e-05,0.999999976483
17692000000,1435,17692000000,world,0.00450541578801,-0.000508766049388,2.91798403521,5.29034229229e-05,0.000198083936923,5.55322969191e-05,0.99999997744
17702000000,1436,17702000000,world,0.00448994810904,-0.000502946239125,2.91817168194,5.21138006716e-05,0.000192824769396,5.58880712181e-05,0.99999997849
17712000000,1437,17712000000,world,0.00447591797739,-0.000497500057231,2.91835755871,5.11517840278e-05,0.000187162787228,5.62424180587e-05,0.999999979595
17722000000,1438,17722000000,world,0.00446315520021,-0.000492562448617,2.91854097284,5.00635340604e-05,0.000180925310884,5.65951389712e-05,0.999999980778
17732000000,1439,17732000000,world,0.00445182159439,-0.000488062470306,2.91872179447,4.88585580474e-05,0.000174099555246,5.6946189719e-05,0.99999998203
17742000000,1440,17742000000,world,0.00444200199838,-0.000483943328517,2.91890021078,4.75485652201e-05,0.000166718728807,5.72956706179e-05,0.999999983331
17752000000,1441,17752000000,world,0.00443365402517,-0.000480194865361,2.91907640518,4.61340512266e-05,0.000158854051609,5.76435897845e-05,0.999999984657
17762000000,1442,17762000000,world,0.00442512258254,-0.00047661063047,2.91925051753,4.45845163396e-05,0.000150422319317,5.79893940719e-05,0.999999986011
17772000000,1443,17772000000,world,0.00441762938702,-0.000473329665942,2.91942240544,4.28840572275e-05,0.000141674160691,5.83331943944e-05,0.999999987343
17782000000,1444,17782000000,world,0.00441150842742,-0.000470382363973,2.91959181085,4.10395935823e-05,0.000132823474233,5.86753728602e-05,0.999999988615
17792000000,1445,17792000000,world,0.00440641164795,-0.000467701759385,2.91975848575,3.90864297091e-05,0.000123640090389,5.90161555192e-05,0.999999989851
17802000000,1446,17802000000,world,0.00440019317767,-0.000464922331048,2.91992224323,3.70041885015e-05,0.0001137711994,5.93555225184e-05,0.999999991082
17812000000,1447,17812000000,world,0.0043952365437,-0.000462433581778,2.92008310619,3.48490256749e-05,0.000103471431149,5.9693840631e-05,0.999999992258
17822000000,1448,17822000000,world,0.00439145890792,-0.000460215275028,2.92024114727,3.26149971838e-05,9.27953930945e-05,6.00314144361e-05,0.999999993361
17832000000,1449,17832000000,world,0.00438804278271,-0.000458108007748,2.92039643561,3.0277028273e-05,8.17699516141e-05,6.03680472757e-05,0.999999994376
17842000000,1450,17842000000,world,0.00438283316365,-0.000455699107538,2.92054882907,2.77533157209e-05,7.02835714949e-05,6.07035831199e-05,0.999999995303
17852000000,1451,17852000000,world,0.00437872945321,-0.00045353825328,2.9206977261,2.50900656938e-05,5.88636271421e-05,6.10383936642e-05,0.99999999609
17862000000,1452,17862000000,world,0.0043756591314,-0.000451606976043,2.92084248873,2.23338154352e-05,4.73879928405e-05,6.13727517824e-05,0.999999996744
17872000000,1453,17872000000,world,0.00433391251506,-0.000441583525506,2.92098253845,1.86382358231e-05,3.14597844525e-05,6.17055143821e-05,0.999999997428
17882000000,1454,17882000000,world,0.00429113215768,-0.000431352000161,2.92111747334,1.48795168487e-05,1.51040905678e-05,6.20379794167e-05,0.999999997851
17892000000,1455,17892000000,world,0.00425210933503,-0.000421916143069,2.92124696805,1.11820009787e-05,-1.02981832302e-06,6.23705725381e-05,0.999999997992
17902000000,1456,17902000000,world,0.00421696358637,-0.000413301678765,2.92137071058,7.55010755265e-06,-1.66646878981e-05,6.27032537989e-05,0.999999997867
17912000000,1457,17912000000,world,0.00417965242235,-0.000403032451909,2.92148849341,3.70553126214e-06,-3.22172626171e-05,6.30354368831e-05,0.999999997487
17922000000,1458,17922000000,world,0.00414583639864,-0.000393449402138,2.92160062157,-1.08952891911e-07,-4.67740493005e-05,6.33673973063e-05,0.999999996898
17932000000,1459,17932000000,world,0.00411609730211,-0.000384822889769,2.92170755486,-3.79907257392e-06,-6.01898445252e-05,6.36992361557e-05,0.999999996153
17942000000,1460,17942000000,world,0.00407454197418,-0.000373769397278,2.92180968876,-7.64823497039e-06,-7.44157672341e-05,6.40304353918e-05,0.999999995152
17952000000,1461,17952000000,world,0.00403102624505,-0.0003623925324,2.92190695547,-1.13923084674e-05,-8.83494468455e-05,6.43611175665e-05,0.999999993961
17962000000,1462,17962000000,world,0.00399238270909,-0.000352149611208,2.92199902795,-1.48490488151e-05,-0.000101139273046,6.46914837102e-05,0.999999992683
17972000000,1463,17972000000,world,0.00396025922983,-0.000342254125872,2.92208559204,-1.81009693038e-05,-0.000112386166212,6.502064906e-05,0.999999991407
17982000000,1464,17982000000,world,0.00393424845292,-0.000332712958738,2.92216642782,-2.11474462261e-05,-0.000121963351442,6.53481712241e-05,0.999999990204
17992000000,1465,17992000000,world,0.00391213712484,-0.000324237833555,2.92224140495,-2.39277747119e-05,-0.000129955192761,6.56746864614e-05,0.999999989113
18002000000,1466,18002000000,world,0.00389356064672,-0.000316759145538,2.9223104019,-2.64138311401e-05,-0.000136295481805,6.60002873265e-05,0.999999988185
18012000000,1467,18012000000,world,0.00387770389487,-0.000310156709473,2.92237329975,-2.85421128788e-05,-0.000141220222808,6.63250047642e-05,0.999999987422
18022000000,1468,18022000000,world,0.00386423512889,-0.000304349395335,2.9224299437,-3.02963796534e-05,-0.000144756679757,6.66486978016e-05,0.999999986843
18032000000,1469,18032000000,world,0.00385325988543,-0.000299292254408,2.92248014488,-3.16652383072e-05,-0.000146834170976,6.69713336049e-05,0.999999986476
18042000000,1470,18042000000,world,0.00384443903538,-0.000294899832437,2.92252371995,-3.26637248783e-05,-0.000147426481829,6.72929494778e-05,0.999999986335
18052000000,1471,18052000000,world,0.00384578186966,-0.00029332994283,2.92256049558,-3.30591813986e-05,-0.000145659476408,6.76133915352e-05,0.999999986559
18062000000,1472,18062000000,world,0.00388062399652,-0.000300862993556,2.92259024827,-3.22285988808e-05,-0.000139175691577,6.7933374216e-05,0.999999987488
18072000000,1473,18072000000,world,0.0039141836835,-0.000308135468085,2.92261259543,-3.11823146105e-05,-0.00013187869802,6.82518594711e-05,0.999999988489
18082000000,1474,18082000000,world,0.00394591431839,-0.00031499624899,2.92262716662,-2.99370312774e-05,-0.00012381010109,6.85691195773e-05,0.999999989537
18092000000,1475,18092000000,world,0.00397494630374,-0.000321091447784,2.92263360775,-2.85488789627e-05,-0.000115037864559,6.88850972617e-05,0.999999990603
18102000000,1476,18102000000,world,0.00400043893232,-0.000326048784524,2.92263178386,-2.70725873274e-05,-0.000105697332351,6.91998589357e-05,0.999999991653
18112000000,1477,18112000000,world,0.00402341192699,-0.000330415217421,2.92262191132,-2.54628145613e-05,-9.5770251847e-05,6.9513946975e-05,0.999999992674
18122000000,1478,18122000000,world,0.00404382007953,-0.000334173647568,2.92260423012,-2.37218865722e-05,-8.54196637324e-05,6.98272644622e-05,0.999999993632
18132000000,1479,18132000000,world,0.00406275125105,-0.000337445247172,2.92257897118,-2.18717181363e-05,-7.46767908892e-05,7.01395704291e-05,0.999999994513
18142000000,1480,18142000000,world,0.00408071259572,-0.000340292304345,2.92254635868,-1.99270952796e-05,-6.37013516049e-05,7.04510396282e-05,0.999999995291
18152000000,1481,18152000000,world,0.00409615536496,-0.000342550587551,2.922506611,-1.79231714576e-05,-5.26312386431e-05,7.07620637874e-05,0.999999995951
18162000000,1482,18162000000,world,0.00410920363643,-0.000344249835758,2.92245993861,-1.5871377184e-05,-4.1294446435e-05,7.10726980998e-05,0.999999996496
18172000000,1483,18172000000,world,0.00415417567497,-0.000351193398938,2.92240656369,-1.31702232671e-05,-2.60628136703e-05,7.13824045036e-05,0.999999997026
18182000000,1484,18182000000,world,0.00420335804789,-0.000358712597213,2.92234681699,-1.03265595041e-05,-9.98749502571e-06,7.16920032917e-05,0.999999997327
18192000000,1485,18192000000,world,0.00424780940163,-0.000365307887979,2.9222810764,-7.50061396543e-06,5.7149253167e-06,7.20017223516e-05,0.999999997363
18202000000,1486,18202000000,world,0.00428829043837,-0.000371168990127,2.9222097063,-4.69988990624e-06,2.08795823059e-05,7.23112665351e-05,0.999999997157
18212000000,1487,18212000000,world,0.0043309426624,-0.000377729284339,2.92213299506,-1.80775035799e-06,3.58553946421e-05,7.26205534943e-05,0.999999996719
18222000000,1488,18222000000,world,0.00436864357962,-0.000383331218634,2.92205103877,9.66809721477e-07,4.97520916851e-05,7.29298241808e-05,0.999999996103
18232000000,1489,18232000000,world,0.00440157601193,-0.000388013809458,2.92196389687,3.58936095768e-06,6.28014431757e-05,7.32389709836e-05,0.99999999534
18242000000,1490,18242000000,world,0.00444048899795,-0.000393777927308,2.92187162736,6.25378325706e-06,7.61160496853e-05,7.35476884228e-05,0.999999994379
18252000000,1491,18252000000,world,0.00448481064131,-0.000400519915732,2.92177435763,8.93946941615e-06,8.95254241497e-05,7.38560067623e-05,0.999999993225
18262000000,1492,18262000000,world,0.00452394705254,-0.000406273274925,2.92167228291,1.14360128851e-05,0.000101692722903,7.41640669004e-05,0.999999992014
18272000000,1493,18272000000,world,0.00455813878599,-0.000411084894289,2.92156559203,1.37363148142e-05,0.000112432247946,7.44713706848e-05,0.999999990812
18282000000,1494,18282000000,world,0.00458403948836,-0.000415241139962,2.92145452402,1.58308445517e-05,0.000121226494377,7.47770890051e-05,0.999999989731
18292000000,1495,18292000000,world,0.00460588010237,-0.000418569941114,2.92133953358,1.76776215666e-05,0.000128430215564,7.50819378828e-05,0.999999988778
18302000000,1496,18302000000,world,0.00462406779943,-0.000421142720351,2.92122111384,1.9255963499e-05,0.000134194541137,7.53859319417e-05,0.999999987969
18312000000,1497,18312000000,world,0.00463901380455,-0.000423033666586,2.92109973869,2.05628450013e-05,0.00013853048882,7.56889137207e-05,0.999999987329
18322000000,1498,18322000000,world,0.00465065565846,-0.000424588441478,2.92097584654,2.16373314609e-05,0.000141383075142,7.59905511547e-05,0.999999986884
18332000000,1499,18332000000,world,0.00465982402606,-0.000425622211596,2.92084976513,2.24634222254e-05,0.000142781793052,7.62912440765e-05,0.999999986644
18342000000,1500,18342000000,world,0.00466694113707,-0.000426172256804,2.92072177869,2.30489770474e-05,0.000142732941051,7.6590652038e-05,0.999999986615
18352000000,1501,18352000000,world,0.00467234831688,-0.000426305100055,2.9205921603,2.33634503522e-05,0.000141276149556,7.68884635464e-05,0.999999986792
18362000000,1502,18362000000,world,0.00464219881392,-0.000418971789183,2.92046117763,2.26457158487e-05,0.0001350244182,7.71854792974e-05,0.999999987649
18372000000,1503,18372000000,world,0.00460929177754,-0.000411000400523,2.92032900648,2.16455035836e-05,0.000127518791765,7.74812387992e-05,0.999999988634
18382000000,1504,18382000000,world,0.00457809291807,-0.000403320266783,2.92019580299,2.04917271913e-05,0.000119108582952,7.77757135633e-05,0.999999989672
18392000000,1505,18392000000,world,0.00454900789288,-0.000396017655043,2.92006171825,1.92212113677e-05,0.000109893727296,7.80690673982e-05,0.99999999073
18402000000,1506,18402000000,world,0.00452325726004,-0.000389577690938,2.91992687488,1.79044306362e-05,0.000100098227506,7.83614148788e-05,0.99999999176
18412000000,1507,18412000000,world,0.00449999555646,-0.000383587061992,2.91979130148,1.65117286714e-05,8.97971011185e-05,7.86529304619e-05,0.999999992739
18422000000,1508,18422000000,world,0.00447928471481,-0.000378062306433,2.91965500336,1.50258012683e-05,7.91496463694e-05,7.89433793363e-05,0.999999993639
18432000000,1509,18432000000,world,0.00445935309588,-0.0003728056994,2.91951798717,1.34131927467e-05,6.81990482385e-05,7.92328605233e-05,0.999999994446
18442000000,1510,18442000000,world,0.00444126357747,-0.000367936526771,2.91938027101,1.17190059009e-05,5.71707967864e-05,7.95217232361e-05,0.999999995135
18452000000,1511,18452000000,world,0.00442571071348,-0.000363527208743,2.91924187978,9.98950932021e-06,4.58652491948e-05,7.98100684382e-05,0.999999995713
18462000000,1512,18462000000,world,0.00437741558213,-0.000354594292796,2.91910285587,7.71943768213e-06,3.05463198617e-05,8.00973774796e-05,0.999999996296
18472000000,1513,18472000000,world,0.00432492166292,-0.000345160315504,2.91896334151,5.36293644206e-06,1.4362363154e-05,8.0384410178e-05,0.999999996652
18482000000,1514,18482000000,world,0.00427744710018,-0.000336520529051,2.91882352719,3.06701288294e-06,-1.43927209774e-06,8.06714477686e-05,0.99999999674
18492000000,1515,18492000000,world,0.00423470311774,-0.000328674313614,2.91868359784,8.30005401609e-07,-1.66284203479e-05,8.09581830933e-05,0.999999996584
18502000000,1516,18502000000,world,0.00419121493219,-0.000320370676644,2.9185437288,-1.49663189551e-06,-3.14892866236e-05,8.1244511547e-05,0.999999996203
18512000000,1517,18512000000,world,0.00415256054272,-0.000312749351699,2.91840409548,-3.76093420402e-06,-4.51638610812e-05,8.15306731048e-05,0.999999995649
18522000000,1518,18522000000,world,0.00411886693357,-0.000305917329742,2.91826486492,-5.88767532976e-06,-5.79080782426e-05,8.18166220095e-05,0.999999994959
18532000000,1519,18532000000,world,0.00408985421844,-0.000299830093488,2.9181261981,-7.85567683688e-06,-6.97808396599e-05,8.21022035319e-05,0.999999994164
18542000000,1520,18542000000,world,0.00404512035708,-0.000291719394493,2.91798835513,-9.93361942648e-06,-8.28436997385e-05,8.2387334999e-05,0.999999993125
18552000000,1521,18552000000,world,0.00400558264358,-0.000284408408887,2.91785191948,-1.18193701839e-05,-9.46755419099e-05,8.26721471497e-05,0.999999992031
18562000000,1522,18562000000,world,0.00397101627898,-0.000277858540813,2.91771750766,-1.35097915066e-05,-0.000105083953438,8.29561727534e-05,0.999999990947
18572000000,1523,18572000000,world,0.00394342467928,-0.00027197789377,2.9175857071,-1.50364050158e-05,-0.000113690099658,8.32388736646e-05,0.99999998996
18582000000,1524,18582000000,world,0.00392338701493,-0.000266693488972,2.91745684799,-1.63984727125e-05,-0.000120280146682,8.35202032914e-05,0.999999989144
18592000000,1525,18592000000,world,0.00390693945832,-0.000262013330919,2.91733094438,-1.75432806565e-05,-0.0001253739941,8.38006407868e-05,0.999999988476
18602000000,1526,18602000000,world,0.00389365675032,-0.000257876540757,2.91720799124,-1.84546033635e-05,-0.000129065495939,8.40800376574e-05,0.999999987966
18612000000,1527,18612000000,world,0.0039071322793,-0.000257565340059,2.91708799329,-1.87779592569e-05,-0.000128797220457,8.43582531945e-05,0.999999987971
18622000000,1528,18622000000,world,0.00393713502855,-0.000260741538958,2.91697098537,-1.85594263248e-05,-0.000125660881414,8.46364609898e-05,0.999999988351
18632000000,1529,18632000000,world,0.0039665210446,-0.000263853618451,2.91685705298,-1.81750520439e-05,-0.000121582467066,8.49133522704e-05,0.999999988839
18642000000,1530,18642000000,world,0.00399472105768,-0.000266807335235,2.9167462875,-1.76750454228e-05,-0.000116748510199,8.51885739149e-05,0.9999999894
18652000000,1531,18652000000,world,0.00401940253973,-0.000269144826578,2.91663878437,-1.71310934014e-05,-0.000111560547618,8.54620863294e-05,0.999999989979
18662000000,1532,18662000000,world,0.00404149010498,-0.000271062431471,2.91653472255,-1.6522877456e-05,-0.000105941658342,8.57341830588e-05,0.999999990577
18672000000,1533,18672000000,world,0.00406164969969,-0.000272700043062,2.91643432399,-1.58369065415e-05,-9.97995357335e-05,8.60049642676e-05,0.999999991196
18682000000,1534,18682000000,world,0.00408028750954,-0.000274056816317,2.91633778839,-1.50766625633e-05,-9.31158633777e-05,8.62745580865e-05,0.999999991829
18692000000,1535,18692000000,world,0.00409733165843,-0.00027512366228,2.91624497361,-1.42437154249e-05,-8.59499566143e-05,8.65432601684e-05,0.99999999246
18702000000,1536,18702000000,world,0.00411228223224,-0.000275883491848,2.91615541242,-1.33391696775e-05,-7.84658669812e-05,8.68111212039e-05,0.999999993065
18712000000,1537,18712000000,world,0.00412519573373,-0.000276343695649,2.91606864253,-1.23857876806e-05,-7.07639058163e-05,8.70778764515e-05,0.999999993628
18722000000,1538,18722000000,world,0.00413774800766,-0.000276682223033,2.9159842512,-1.13813950659e-05,-6.28086192104e-05,8.73437008189e-05,0.999999994148
18732000000,1539,18732000000,world,0.0041487605587,-0.000276779497553,2.91590208993,-1.0331978693e-05,-5.47577502612e-05,8.76090726926e-05,0.99999999461
18742000000,1540,18742000000,world,0.00415793847004,-0.000276609640603,2.91582213424,-9.2396627399e-06,-4.65174750957e-05,8.78740865344e-05,0.999999995014
18752000000,1541,18752000000,world,0.00416541367477,-0.000276191861056,2.91574436134,-8.10368288968e-06,-3.80566661122e-05,8.81388164618e-05,0.999999995359
18762000000,1542,18762000000,world,0.00417397319256,-0.000275838287494,2.91566875225,-6.88552591337e-06,-2.90954640422e-05,8.84034692096e-05,0.999999995645
18772000000,1543,18772000000,world,0.0041811014752,-0.000275292895136,2.91559529985,-5.60941389777e-06,-1.99902651533e-05,8.86681959054e-05,0.999999995853
18782000000,1544,18782000000,world,0.00418678582511,-0.000274541709552,2.91552400066,-4.28281803671e-06,-1.08440274937e-05,8.89326678357e-05,0.999999995978
18792000000,1545,18792000000,world,0.00419266953191,-0.000273797487478,2.91545484093,-2.90720487722e-06,-1.60056484397e-06,8.91968843703e-05,0.999999996016
18802000000,1546,18802000000,world,0.00419876812415,-0.000273064503822,2.91538755823,-1.48971037186e-06,7.64773966936e-06,8.94610637282e-05,0.999999995968
18812000000,1547,18812000000,world,0.00420364844202,-0.000272162454568,2.91532165399,-5.21519356989e-08,1.69247133133e-05,8.97252657156e-05,0.999999995831
18822000000,1548,18822000000,world,0.0042074284391,-0.00027110872712,2.91525663913,1.40634178365e-06,2.6299935996e-05,8.99894207398e-05,0.999999995604
18832000000,1549,18832000000,world,0.00421315651106,-0.000270322858846,2.91519209755,2.93704162221e-06,3.60996161157e-05,9.02536219024e-05,0.999999995271
18842000000,1550,18842000000,world,0.00421856945747,-0.000269494121213,2.91512803127,4.51069614779e-06,4.60174109918e-05,9.05180067652e-05,0.999999994834
18852000000,1551,18852000000,world,0.004223008326,-0.000268532087097,2.91506461949,6.12622411318e-06,5.58737754308e-05,9.07822115115e-05,0.9999999943
18862000000,1552,18862000000,world,0.00422657353683,-0.000267451450875,2.91500203501,7.75885631453e-06,6.55792890849e-05,9.10460410336e-05,0.999999993675
18872000000,1553,18872000000,world,0.00423228135878,-0.000266706745103,2.91494040725,9.44856592297e-06,7.53153499258e-05,9.13096269038e-05,0.99999999295
18882000000,1554,18882000000,world,0.00423785953733,-0.000265954115793,2.91487959159,1.11514530875e-05,8.49919747028e-05,9.15731074187e-05,0.999999992133
18892000000,1555,18892000000,world,0.00424263328046,-0.000265090996248,2.91481933002,1.28530096748e-05,9.46386334308e-05,9.18364033964e-05,0.999999991222
18902000000,1556,18902000000,world,0.0042466865366,-0.000264128947464,2.91475937418,1.45591159201e-05,0.00010427495568,9.20995750984e-05,0.999999990216
18912000000,1557,18912000000,world,0.00425360819406,-0.000263599855223,2.91469950447,1.63308929799e-05,0.000114244578961,9.2362790856e-05,0.999999989075
18922000000,1558,18922000000,world,0.00426092175102,-0.000263183142322,2.91463965913,1.81493504133e-05,0.000124170941683,9.26258258477e-05,0.999999987836
18932000000,1559,18932000000,world,0.00426748462802,-0.000262657820052,2.91457984392,1.99678905569e-05,0.000133835478772,9.28883712876e-05,0.999999986531
18942000000,1560,18942000000,world,0.0042755046823,-0.000262403812803,2.9145200646,2.18151322135e-05,0.000143328151249,9.31504963013e-05,0.999999985152
18952000000,1561,18952000000,world,0.00428487802137,-0.00026240117575,2.91446034741,2.36782889088e-05,0.000152702354102,9.3412391439e-05,0.999999983698
18962000000,1562,18962000000,world,0.00429345575357,-0.000262276098556,2.91440073824,2.55092240318e-05,0.000161868057823,9.36740124382e-05,0.999999982187
18972000000,1563,18972000000,world,0.00430130004574,-0.00026203729317,2.9143412814,2.73094151541e-05,0.000170843062154,9.39353772364e-05,0.999999980621
18982000000,1564,18982000000,world,0.0043104623155,-0.00026205022245,2.91428202268,2.91245222253e-05,0.0001798218691,9.41966285547e-05,0.999999978971
18992000000,1565,18992000000,world,0.00432086139014,-0.000262297554103,2.91422307257,3.09649980311e-05,0.000188700053305,9.44576529566e-05,0.999999977256
19002000000,1566,19002000000,world,0.00433052765313,-0.000262423862534,2.9141645916,3.2780247477e-05,0.00019717663714,9.47180609159e-05,0.999999975538
19012000000,1567,19012000000,world,0.00433953232943,-0.000262440193313,2.91410673485,3.455283693e-05,0.000205150046265,9.49778524625e-05,0.999999973849
19022000000,1568,19022000000,world,0.00435180778523,-0.000263111123276,2.91404963406,3.63542056846e-05,0.000213014149322,9.5237201908e-05,0.999999972117
19032000000,1569,19032000000,world,0.00436377310733,-0.000263735989796,2.9139932572,3.80987663314e-05,0.000220531036023,9.54961588337e-05,0.999999970398
19042000000,1570,19042000000,world,0.00437504562927,-0.000264237707661,2.91393747805,3.97759452177e-05,0.00022766994576,9.57547019526e-05,0.999999968708
19052000000,1571,19052000000,world,0.00438691038858,-0.000264835309856,2.91388217385,4.14158901887e-05,0.000234550400881,9.60129645699e-05,0.999999967026
19062000000,1572,19062000000,world,0.00440092634157,-0.000265929607889,2.91382731689,4.30673135583e-05,0.000241266303359,9.6270984302e-05,0.999999965334
19072000000,1573,19072000000,world,0.00441424572913,-0.000266890774982,2.91377308497,4.46641076869e-05,0.000247433392373,9.65284077462e-05,0.999999963732
19082000000,1574,19082000000,world,0.00442693526289,-0.000267730312659,2.91371967375,4.6180134027e-05,0.000252987580573,9.67851386702e-05,0.999999962249
19092000000,1575,19092000000,world,0.00444089103088,-0.000268872316089,2.91366727507,4.76511269336e-05,0.000258090056903,9.704132124e-05,0.999999960851
19102000000,1576,19102000000,world,0.00445604406775,-0.000270298047698,2.9136161888,4.90654232555e-05,0.000262815921383,9.72970609065e-05,0.999999959527
19112000000,1577,19112000000,world,0.00447058962967,-0.000271596700686,2.91356681762,5.03752708905e-05,0.000266971685668,9.7552332701e-05,0.999999958336
19122000000,1578,19122000000,world,0.00448459872239,-0.000272780790393,2.91351955215,5.15877362424e-05,0.00027054807945,9.78072345524e-05,0.999999957288
19132000000,1579,19132000000,world,0.00449815206079,-0.000273865323857,2.91347476777,5.27096546985e-05,0.000273515327677,9.80619287389e-05,0.999999956397
19142000000,1580,19142000000,world,0.00457175742257,-0.000337119984649,2.91343278221,6.03368069435e-05,0.000282249684508,9.82930221747e-05,0.999999953517
19152000000,1581,19152000000,world,0.0048769385614,-0.000639194659225,2.91339358991,9.25651895973e-05,0.000314200123805,9.84302924078e-05,0.999999941511
19162000000,1582,19162000000,world,0.0051634447631,-0.000922166989089,2.91335713714,0.000121564138823,0.000341623767269,9.85753678258e-05,0.999999929399
19172000000,1583,19172000000,world,0.00542919378232,-0.00118383354235,2.91332318158,0.000146218368765,0.000364086003778,9.8728005067e-05,0.999999918157
19182000000,1584,19182000000,world,0.00563910670068,-0.00138743672607,2.91329153984,0.000161799241594,0.000377542745592,9.89042614633e-05,0.99999991075
19192000000,1585,19192000000,world,0.00569649038909,-0.00143169331664,2.91326229947,0.000157346215427,0.000371281214503,9.9151165298e-05,0.999999913781
19202000000,1586,19202000000,world,0.00574222279619,-0.00146401511552,2.91323535786,0.000148407271215,0.00035987468322,9.94011410116e-05,0.999999919292
19212000000,1587,19212000000,world,0.00577819056888,-0.0014863223603,2.91321088902,0.000135023008601,0.000343517145365,9.96544296938e-05,0.999999926917
19222000000,1588,19222000000,world,0.00580608734599,-0.00150033303181,2.91318904768,0.000117193631393,0.000322508608577,9.99101761697e-05,0.999999936136
19232000000,1589,19232000000,world,0.00582742315831,-0.00150758253281,2.9131699817,9.49337283057e-05,0.00029743881139,0.000100168123051,0.999999946242
19242000000,1590,19242000000,world,0.00557043825618,-0.00123387882667,2.91315414355,3.93146809663e-05,0.000240924138963,0.000100533491808,0.999999965151
19252000000,1591,19252000000,world,0.00529634137874,-0.000942727460661,2.91314121471,-2.05108165007e-05,0.000179295482404,0.000100904135849,0.999999978625
19262000000,1592,19262000000,world,0.0050398171227,-0.000669105237345,2.91313129751,-7.98072324445e-05,0.000116738017742,0.000101267432621,0.999999984874
19272000000,1593,19272000000,world,0.00480320653155,-0.000415370791844,2.91312452394,-0.000137634371364,5.42902392451e-05,0.000101622555868,0.999999983891
19282000000,1594,19282000000,world,0.00440264324877,-8.88229977781e-06,2.9131209601,-0.000211356170412,-2.62348096089e-05,0.000102032715052,0.999999972115
19292000000,1595,19292000000,world,0.00409571794043,0.000293608146163,2.91312078667,-0.000273883364205,-9.57576828913e-05,0.000102412644916,0.999999952665
19302000000,1596,19302000000,world,0.00384499314682,0.000536697757509,2.91312399927,-0.000329335092021,-0.000156671624898,0.000102772762492,0.999999928215
19312000000,1597,19312000000,world,0.00362339639862,0.000752514156882,2.91313040194,-0.000380021483379,-0.000210932301676,0.000103120326989,0.999999900229
19322000000,1598,19322000000,world,0.00350507445572,0.000862184685959,2.91313997576,-0.000416109663479,-0.000251717580865,0.000103452856149,0.999999876394
19332000000,1599,19332000000,world,0.00345776320139,0.000900051493129,2.91315275057,-0.000440978053667,-0.000282320597789,0.000103772799434,0.999999857532
