%time,field.header.seq,field.header.stamp,field.header.frame_id,field.twist.linear.x,field.twist.linear.y,field.twist.linear.z,field.twist.angular.x,field.twist.angular.y,field.twist.angular.z
16302000000,1615,16302000000,,-0.0112322276485,-0.00949239390503,0.0196074967658,0.0,0.0,0.0
16312000000,1616,16312000000,,-0.0269219048211,0.0188544653616,-0.012771495823,0.0,0.0,0.0
16322000000,1617,16322000000,,-0.0116624777753,-0.0020922051824,0.0205130830272,0.0,0.0,0.0
16332000000,1618,16332000000,,-0.0565408842734,-0.0206143295386,0.0118354827193,0.0,0.0,0.0
16342000000,1619,16342000000,,-0.0254581808895,-0.019417901727,-0.00535755701779,0.0,0.0,0.0
16352000000,1620,16352000000,,0.00960778306721,-0.0563401871219,0.0113994158885,0.0,0.0,0.0
16361000000,1621,16361000000,,0.0114858797612,-0.0450659656766,-0.0165788670037,0.0,0.0,0.0
16372000000,1622,16372000000,,-0.0226872524855,-0.00953034118757,0.0114094740409,0.0,0.0,0.0
16382000000,1623,16382000000,,0.00615389823387,-0.0036007986214,0.0189891061044,0.0,0.0,0.0
16393000000,1624,16393000000,,-0.0309197063035,-0.0136655289812,0.0362764311411,0.0,0.0,0.0
16402000000,1625,16402000000,,-0.00978579195114,0.0383281552513,0.0182517544364,0.0,0.0,0.0
16412000000,1626,16412000000,,-0.0330067426657,-0.00959633041447,-0.0249690396708,0.0,0.0,0.0
16422000000,1627,16422000000,,-0.0236460579462,-0.00381787929729,0.00920662351205,0.0,0.0,0.0
16432000000,1628,16432000000,,-0.0127021528176,0.00806607702772,0.0142317381835,0.0,0.0,0.0
16443000000,1629,16443000000,,-0.0101849043246,0.0139762150778,0.0131405391337,0.0,0.0,0.0
16452000000,1630,16452000000,,0.0279374535965,-0.0134801781035,-0.00601780260162,0.0,0.0,0.0
16463000000,1631,16463000000,,0.0111404855866,-0.00182788449008,0.0128393107964,0.0,0.0,0.0
16472000000,1632,16472000000,,0.0123759605182,0.0428563567676,0.0184349420505,0.0,0.0,0.0
16482000000,1633,16482000000,,-0.00482466034195,0.0003479326022,0.00344501761957,0.0,0.0,0.0
16493000000,1634,16493000000,,-0.0271686784856,-0.00272637402228,-0.0228887213863,0.0,0.0,0.0
16502000000,1635,16502000000,,-0.0312217505882,0.0117578180325,-0.0268736532464,0.0,0.0,0.0
16512000000,1636,16512000000,,-0.0239728023166,-0.00268447800771,7.17868495295e-05,0.0,0.0,0.0
16522000000,1637,16522000000,,0.000149022692921,-0.0425194515195,0.0247861432573,0.0,0.0,0.0
16533000000,1638,16533000000,,-0.00465484179507,0.0193003961909,0.0250646281177,0.0,0.0,0.0
16543000000,1639,16543000000,,4.07230056685e-05,-0.0273191840909,0.0268926071275,0.0,0.0,0.0
16552000000,1640,16552000000,,0.017180477479,0.0277631009446,0.00294160723745,0.0,0.0,0.0
16562000000,1641,16562000000,,-0.0144748404913,0.04007248311,-0.00473912761222,0.0,0.0,0.0
16572000000,1642,16572000000,,-0.00471713191892,-0.0348499469019,0.00642033144598,0.0,0.0,0.0
16582000000,1643,16582000000,,-0.00666697480766,-0.0213859191096,-0.0124813021706,0.0,0.0,0.0
16592000000,1644,16592000000,,-0.0147759762764,0.00807500054833,0.000581436488294,0.0,0.0,0.0
16602000000,1645,16602000000,,0.00062360935082,0.0207252333252,-0.0228192510847,0.0,0.0,0.0
16613000000,1646,16613000000,,0.00271506386535,-0.0174827989361,-0.00577014191004,0.0,0.0,0.0
16622000000,1647,16622000000,,-0.0263629424257,-0.016426814638,0.0251072350888,0.0,0.0,0.0
16632000000,1648,16632000000,,-0.0125772210269,0.00911199904162,0.0103396173177,0.0,0.0,0.0
16644000000,1649,16644000000,,-0.0157871313535,0.00714765372507,-0.0297380963852,0.0,0.0,0.0
16653000000,1650,16653000000,,0.00462523362786,0.000166974099353,0.0385104546386,0.0,0.0,0.0
16662000000,1651,16662000000,,-0.0460913546456,-0.0231551196181,-0.00725989806843,0.0,0.0,0.0
16672000000,1652,16672000000,,-0.0213060702832,0.00414753651532,0.0062022199863,0.0,0.0,0.0
16683000000,1653,16683000000,,-0.0243217548632,0.0160531347321,-0.0490967489581,0.0,0.0,0.0
16692000000,1654,16692000000,,0.0228175370135,0.0236895225592,-0.00319268128299,0.0,0.0,0.0
16702000000,1655,16702000000,,-0.0103448709554,-0.0221602049601,0.0173002489285,0.0,0.0,0.0
16713000000,1656,16713000000,,-0.0234218747076,-0.00650448208391,-0.00821510679252,0.0,0.0,0.0
16722000000,1657,16722000000,,0.00268715359563,0.00441404007927,-0.0219969705267,0.0,0.0,0.0
16733000000,1658,16733000000,,-0.00404676723163,0.0248526866693,0.0085394768171,0.0,0.0,0.0
16742000000,1659,16742000000,,-0.0171074864759,-0.00766685343257,-0.00384515376799,0.0,0.0,0.0
16752000000,1660,16752000000,,0.0105013077457,0.0124797925649,0.00884716210698,0.0,0.0,0.0
16768000000,1661,16768000000,,-0.0367815576009,0.0156583331138,8.59467700655e-05,0.0,0.0,0.0
16773000000,1662,16773000000,,0.00429307349718,-0.0201872127556,0.0225549638259,0.0,0.0,0.0
16782000000,1663,16782000000,,0.0397141252556,0.00252019205207,-0.0151334028666,0.0,0.0,0.0
16793000000,1664,16793000000,,-0.0130490176093,0.00806905326259,-0.0430020805393,0.0,0.0,0.0
16802000000,1665,16802000000,,0.0268564550103,0.0195966001261,-0.0122054687223,0.0,0.0,0.0
16813000000,1666,16813000000,,-0.0114605312457,-0.00684815271447,0.00299522407745,0.0,0.0,0.0
16823000000,1667,16823000000,,0.0230317431482,0.0243667465901,0.0168900945389,0.0,0.0,0.0
16833000000,1668,16833000000,,0.0129844459317,0.0101410859112,0.00319801090109,0.0,0.0,0.0
16842000000,1669,16842000000,,0.0328763896974,0.0361971525277,-0.0123941823449,0.0,0.0,0.0
16853000000,1670,16853000000,,-0.00156851373828,-0.00165608190364,-0.00840768098759,0.0,0.0,0.0
16863000000,1671,16863000000,,0.0168857475138,-0.0106729105461,0.0484673686854,0.0,0.0,0.0
16873000000,1672,16873000000,,-0.0194653744322,-0.00961643948664,-0.0188727213122,0.0,0.0,0.0
16882000000,1673,16882000000,,-0.0147271013402,0.0133059380684,-0.00664242003194,0.0,0.0,0.0
16892000000,1674,16892000000,,0.00553303883448,-0.0019339365859,0.012849410719,0.0,0.0,0.0
16902000000,1675,16902000000,,-0.0059900538452,-0.0208181305652,-0.0241491151555,0.0,0.0,0.0
16912000000,1676,16912000000,,0.00513764922532,0.0235921547551,0.00979838796744,0.0,0.0,0.0
16923000000,1677,16923000000,,-0.0355560847157,-0.0252195735225,-0.0079799624747,0.0,0.0,0.0
16933000000,1678,16933000000,,0.00541496221611,0.00610961053901,-0.0225984645864,0.0,0.0,0.0
16942000000,1679,16942000000,,-0.0117773063941,-0.00923931568884,-0.00425322141543,0.0,0.0,0.0
16954000000,1680,16954000000,,-0.0141397619455,0.010124511231,-0.0546977778419,0.0,0.0,0.0
16962000000,1681,16962000000,,0.00450684682866,0.00535297437972,-0.00985618683578,0.0,0.0,0.0
16972000000,1682,16972000000,,-0.0159734997817,-0.0293365991475,-0.00153281075305,0.0,0.0,0.0
16983000000,1683,16983000000,,-0.000732543550643,0.0058312374642,-0.00559472928489,0.0,0.0,0.0
16992000000,1684,16992000000,,-0.0118330531915,0.0165010816495,-0.00450353959634,0.0,0.0,0.0
17002000000,1685,17002000000,,-0.0242394714457,0.0207310151332,0.00669575589212,0.0,0.0,0.0
17012000000,1686,17012000000,,-0.0148264245824,0.0276866314153,-0.0229704491007,0.0,0.0,0.0
17022000000,1687,17022000000,,0.0145414171546,0.00666463647659,-0.0282506575088,0.0,0.0,0.0
17033000000,1688,17033000000,,-0.0212623248798,0.0177650538418,-0.0254535924749,0.0,0.0,0.0
17042000000,1689,17042000000,,0.00805918587657,-0.0137415377037,-0.00926436990611,0.0,0.0,0.0
17054000000,1690,17054000000,,-0.0239464727945,-0.00481620264063,0.0112457840106,0.0,0.0,0.0
17062000000,1691,17062000000,,-0.00268505914783,-0.00784972823631,0.00720889326222,0.0,0.0,0.0
17073000000,1692,17073000000,,-0.0222897415767,-0.0256099735273,0.0246033307107,0.0,0.0,0.0
17082000000,1693,17082000000,,-0.00407436918289,0.00875206574749,-0.0169052669448,0.0,0.0,0.0
17093000000,1694,17093000000,,-0.0365423799993,0.0427559880079,-0.00997783948676,0.0,0.0,0.0
17102000000,1695,17102000000,,0.0235365174695,0.00550414240925,-0.0363988932862,0.0,0.0,0.0
17112000000,1696,17112000000,,-0.0137409922146,-0.035310290372,-0.0170187642308,0.0,0.0,0.0
17122000000,1697,17122000000,,-0.010358329493,-2.6171504263e-05,0.0031141368304,0.0,0.0,0.0
17133000000,1698,17133000000,,-0.0107336678096,0.0210473090881,-0.00834896525169,0.0,0.0,0.0
17143000000,1699,17143000000,,0.00564223996017,-0.0314495164504,-0.0123265510642,0.0,0.0,0.0
17154000000,1700,17154000000,,-0.0010275102301,-0.019549297482,-0.023361576053,0.0,0.0,0.0
17163000000,1701,17163000000,,-0.0309836696314,0.00582210029529,0.00295206062411,0.0,0.0,0.0
17173000000,1702,17173000000,,0.00689228511261,-0.00475837187364,-0.0145985416474,0.0,0.0,0.0
17183000000,1703,17183000000,,-0.0177281760445,-0.00555457852054,0.0145502256157,0.0,0.0,0.0
17192000000,1704,17192000000,,-0.000155484188098,-0.00145020800734,0.0144151351065,0.0,0.0,0.0
17203000000,1705,17203000000,,0.00128940214239,-0.00236641759096,-0.0124318203374,0.0,0.0,0.0
17212000000,1706,17212000000,,0.0154725756072,-0.0123142007178,0.0193249308223,0.0,0.0,0.0
17223000000,1707,17223000000,,-0.018072385385,-0.0117474468235,0.0367694257882,0.0,0.0,0.0
17234000000,1708,17234000000,,-0.00241085045948,0.013922268764,0.0235308480259,0.0,0.0,0.0
17243000000,1709,17243000000,,0.013695754954,0.0109741538724,0.0201391059565,0.0,0.0,0.0
17253000000,1710,17253000000,,0.00423761067337,-0.0153773177077,0.00372755341495,0.0,0.0,0.0
17262000000,1711,17262000000,,-0.00925123149187,-0.00852429796761,0.0266408370952,0.0,0.0,0.0
17272000000,1712,17272000000,,0.00787197509171,-0.0171662470616,-0.0107124907276,0.0,0.0,0.0
17283000000,1713,17283000000,,-0.0232070660677,-0.0241192535998,0.0133670969615,0.0,0.0,0.0
17292000000,1714,17292000000,,-0.0197577528285,-0.00596024076025,0.0284950078531,0.0,0.0,0.0
17302000000,1715,17302000000,,0.00726505391583,-0.0338308108138,0.0242448843091,0.0,0.0,0.0
17312000000,1716,17312000000,,0.0332554493116,-0.0246821986727,-0.040995090149,0.0,0.0,0.0
17323000000,1717,17323000000,,-0.00053741621256,0.0241415017052,0.0214075153809,0.0,0.0,0.0
17332000000,1718,17332000000,,0.014842320566,0.0391131920125,0.0125520698034,0.0,0.0,0.0
17344000000,1719,17344000000,,-0.0170091965479,-0.0312024869095,0.000436038990335,0.0,0.0,0.0
17353000000,1720,17353000000,,0.015352941505,-0.0165667386612,0.00232807870471,0.0,0.0,0.0
17363000000,1721,17363000000,,0.0195548252716,0.0116500689802,-0.0337000305833,0.0,0.0,0.0
17373000000,1722,17373000000,,-0.0224884849096,-0.013577015554,0.00735635784218,0.0,0.0,0.0
17383000000,1723,17383000000,,-0.0245038626705,0.0129444387912,0.0114849074906,0.0,0.0,0.0
17393000000,1724,17393000000,,-0.00135737050241,0.0033846193257,-0.00479072980415,0.0,0.0,0.0
17402000000,1725,17402000000,,0.0173757422957,0.0340958390301,0.0290712655024,0.0,0.0,0.0
17412000000,1726,17412000000,,0.0260048126546,0.000947745779722,-0.0189197825066,0.0,0.0,0.0
17423000000,1727,17423000000,,0.0027657399926,0.00365614217285,-0.00484059682262,0.0,0.0,0.0
17433000000,1728,17433000000,,0.000510094884401,-0.019671031132,0.000158514893754,0.0,0.0,0.0
17442000000,1729,17442000000,,-0.00685100895735,0.0343247776038,0.00293155904135,0.0,0.0,0.0
17452000000,1730,17452000000,,-0.00814611283163,-0.0169788671667,0.0617761124449,0.0,0.0,0.0
17463000000,1731,17463000000,,0.0110574279354,0.0351474210859,0.0413204087438,0.0,0.0,0.0
17472000000,1732,17472000000,,0.0177233061632,0.0130416690173,-0.00185461257672,0.0,0.0,0.0
17482000000,1733,17482000000,,-0.0203714164259,0.0323927121128,0.0123098703232,0.0,0.0,0.0
17493000000,1734,17493000000,,-0.0357868276434,-0.0157055236001,0.0397060974274,0.0,0.0,0.0
17503000000,1735,17503000000,,-0.0287390177069,0.00649821461633,0.0261590520401,0.0,0.0,0.0
17512000000,1736,17512000000,,-0.0112717393002,0.022079447467,0.025792773857,0.0,0.0,0.0
17522000000,1737,17522000000,,-0.0179923187021,0.0135156502968,0.0146489879764,0.0,0.0,0.0
17532000000,1738,17532000000,,0.0126397442101,0.0122190917964,-0.0071059476304,0.0,0.0,0.0
17542000000,1739,17542000000,,-0.00418169428159,-0.00374910210465,0.0150225384536,0.0,0.0,0.0
17552000000,1740,17552000000,,-0.0228044369756,0.00954708932621,0.000388474115531,0.0,0.0,0.0
17563000000,1741,17563000000,,-0.013178241059,0.019583406928,-0.00115497987734,0.0,0.0,0.0
17574000000,1742,17574000000,,0.027606107398,-0.0277420293483,0.053324550324,0.0,0.0,0.0
17582000000,1743,17582000000,,0.0218692287595,-0.0128393393839,-0.00909546904562,0.0,0.0,0.0
17592000000,1744,17592000000,,0.0178800634331,-0.00594900845711,0.0530899604153,0.0,0.0,0.0
17602000000,1745,17602000000,,0.00067296029156,-0.0110129567845,0.0202016473189,0.0,0.0,0.0
17613000000,1746,17613000000,,-0.00791910581547,0.00517314321423,0.016367707098,0.0,0.0,0.0
17622000000,1747,17622000000,,0.0121783034992,-0.00225435459379,0.0574894022592,0.0,0.0,0.0
17632000000,1748,17632000000,,0.0182161221484,0.0385410727698,0.0135700347379,0.0,0.0,0.0
17642000000,1749,17642000000,,0.00267303025023,0.0184848485208,0.0366454562219,0.0,0.0,0.0
17652000000,1750,17652000000,,0.00785352803001,-9.44379615821e-05,0.00468910483285,0.0,0.0,0.0
17662000000,1751,17662000000,,0.0196331461936,0.0217973743273,-0.0110538126782,0.0,0.0,0.0
17673000000,1752,17673000000,,0.000552961751715,-0.00663762233966,0.0322531067681,0.0,0.0,0.0
17683000000,1753,17683000000,,0.0182100715162,0.0145015149111,-0.00573869215216,0.0,0.0,0.0
17693000000,1754,17693000000,,-0.00389889944539,-0.028222791335,0.0258425658176,0.0,0.0,0.0
17702000000,1755,17702000000,,-0.0220587846719,0.00516618639665,0.0207421244836,0.0,0.0,0.0
17713000000,1756,17713000000,,-0.0192845024895,-0.00433083114112,0.0308174540921,0.0,0.0,0.0
17722000000,1757,17722000000,,0.0315841297811,-0.0166628124969,0.00858588031148,0.0,0.0,0.0
17732000000,1758,17732000000,,0.00749782529317,0.0241628614776,0.0313729035515,0.0,0.0,0.0
17743000000,1759,17743000000,,0.0135935004198,0.0259635624692,-0.00291924679517,0.0,0.0,0.0
17753000000,1760,17753000000,,-0.0172839535885,0.0104602081693,0.0104525260975,0.0,0.0,0.0
17763000000,1761,17763000000,,-0.00533292279302,0.030052753805,-0.0150523790855,0.0,0.0,0.0
17772000000,1762,17772000000,,-0.0341308044007,0.0166744736536,-0.00903534383373,0.0,0.0,0.0
17782000000,1763,17782000000,,0.00148767731974,-0.0149290205651,0.0514451168032,0.0,0.0,0.0
17793000000,1764,17793000000,,0.00234679065521,-0.0261836237111,0.0632463404359,0.0,0.0,0.0
17803000000,1765,17803000000,,-0.0230118986062,0.0041834134624,0.0273218832639,0.0,0.0,0.0
17813000000,1766,17813000000,,-0.0167048978532,-0.0222063600898,0.0513898639896,0.0,0.0,0.0
17824000000,1767,17824000000,,-0.0192266463143,-0.00377025904845,0.0320028568426,0.0,0.0,0.0
17833000000,1768,17833000000,,-0.0252596825708,0.0129708075484,-0.00384451753349,0.0,0.0,0.0
17842000000,1769,17842000000,,0.0163663952885,0.0208638262846,0.0103845295454,0.0,0.0,0.0
17853000000,1770,17853000000,,-0.0246089940989,-0.000981550757563,-0.025839474162,0.0,0.0,0.0
17862000000,1771,17862000000,,0.00474090470115,-0.0126728455403,-0.00168141651302,0.0,0.0,0.0
17873000000,1772,17873000000,,0.00246984355771,0.0243222292488,-0.00512003119291,0.0,0.0,0.0
17883000000,1773,17883000000,,0.0191925051874,-0.0148105004488,0.0306762088865,0.0,0.0,0.0
17893000000,1774,17893000000,,-0.00590920956639,0.0312177073831,0.0306716700946,0.0,0.0,0.0
17902000000,1775,17902000000,,0.0469628770783,0.0299227712398,0.041893989257,0.0,0.0,0.0
17912000000,1776,17912000000,,0.0506050848095,-0.0368184566828,0.0506293367343,0.0,0.0,0.0
17922000000,1777,17922000000,,0.0117190875339,0.00163802224536,0.0174431297637,0.0,0.0,0.0
17933000000,1778,17933000000,,0.005351005701,-0.000823610304643,0.0236464476147,0.0,0.0,0.0
17943000000,1779,17943000000,,0.0102270539234,0.0333933769271,0.0144110508443,0.0,0.0,0.0
17953000000,1780,17953000000,,-0.0134871021429,-0.0128352575922,-0.00073314386343,0.0,0.0,0.0
17963000000,1781,17963000000,,-0.00364041089335,0.0133922285731,0.0233474115592,0.0,0.0,0.0
17973000000,1782,17973000000,,-0.00398502295578,0.0429768514331,0.00416164943448,0.0,0.0,0.0
17984000000,1783,17984000000,,-0.0450577278087,0.0169234075495,0.0438781260178,0.0,0.0,0.0
17993000000,1784,17993000000,,0.017603990028,-0.0251315382935,0.0400074629503,0.0,0.0,0.0
18002000000,1785,18002000000,,-0.00540101942634,0.00276274441986,-0.00902502680052,0.0,0.0,0.0
18013000000,1786,18013000000,,0.00492931521014,-0.00457632306015,0.0190168892333,0.0,0.0,0.0
18024000000,1787,18024000000,,0.00209385517923,-0.00489898048475,-0.0173327805592,0.0,0.0,0.0
18032000000,1788,18032000000,,0.00270162876805,0.0135848469537,-0.0323935667026,0.0,0.0,0.0
18043000000,1789,18043000000,,-0.0136286837591,-0.0391644694771,-0.00436833950717,0.0,0.0,0.0
18053000000,1790,18053000000,,-0.00152054219436,-0.0294638327024,0.0343466893654,0.0,0.0,0.0
18062000000,1791,18062000000,,-0.0115075005337,-0.00799318271748,-0.0215501828835,0.0,0.0,0.0
18073000000,1792,18073000000,,0.043606091412,-0.0163732208281,0.0197816600951,0.0,0.0,0.0
18083000000,1793,18083000000,,-0.0195107479899,-0.0149480217909,-0.00491785948001,0.0,0.0,0.0
18093000000,1794,18093000000,,0.00577684598502,-0.0354794938161,-0.00112271378159,0.0,0.0,0.0
18102000000,1795,18102000000,,-0.0217826231844,0.013618737403,0.00838828396546,0.0,0.0,0.0
18113000000,1796,18113000000,,-0.0121398076094,-0.00451488254247,-0.0197905145254,0.0,0.0,0.0
18123000000,1797,18123000000,,-0.0253208416001,-0.0173676880446,0.00707608385668,0.0,0.0,0.0
18133000000,1798,18133000000,,-0.028118728612,0.0185304342001,-0.0135467108742,0.0,0.0,0.0
18142000000,1799,18142000000,,-0.0136254043132,-0.0229971102418,0.0191495116366,0.0,0.0,0.0
18153000000,1800,18153000000,,-0.0150214318765,0.00198123171093,0.00108510621796,0.0,0.0,0.0
18163000000,1801,18163000000,,0.0216267497994,-0.0358773823423,0.0207615171581,0.0,0.0,0.0
18172000000,1802,18172000000,,0.0175601959659,0.0242663912696,-0.0038390737305,0.0,0.0,0.0
18183000000,1803,18183000000,,0.0160578900474,0.0163073472518,-0.0319303865687,0.0,0.0,0.0
18192000000,1804,18192000000,,0.0122953318542,-0.00518111071005,-0.00963464489104,0.0,0.0,0.0
18203000000,1805,18203000000,,-0.0152048171213,0.0150539980029,0.0242431023292,0.0,0.0,0.0
18213000000,1806,18213000000,,0.0393306288825,-0.0167511258388,0.00824630971328,0.0,0.0,0.0
18223000000,1807,18223000000,,0.00806732841124,-0.00785360020627,-0.034713876705,0.0,0.0,0.0
18233000000,1808,18233000000,,0.037544254498,-0.00129070544952,-0.010404889343,0.0,0.0,0.0
18242000000,1809,18242000000,,-0.0027001745559,-0.0142153575663,0.0159833447209,0.0,0.0,0.0
18252000000,1810,18252000000,,-0.0124723528242,0.00043115403771,0.00221347887575,0.0,0.0,0.0
18263000000,1811,18263000000,,0.0263922622988,0.00559909898128,-0.0237453353464,0.0,0.0,0.0
18273000000,1812,18273000000,,-0.0015176153528,-0.00575981858191,-0.0364331259114,0.0,0.0,0.0
18283000000,1813,18283000000,,0.0188797172415,-0.00411616204888,-0.0267291463112,0.0,0.0,0.0
18293000000,1814,18293000000,,0.0058407713024,-0.00216236406132,0.0553918362058,0.0,0.0,0.0
18303000000,1815,18303000000,,0.00450074499764,0.0114016090761,-0.0166224970273,0.0,0.0,0.0
18312000000,1816,18312000000,,-0.00849873490749,-0.0307980888133,0.00349109601639,0.0,0.0,0.0
18322000000,1817,18322000000,,-0.00784843580108,0.0205757087982,-0.0131540685327,0.0,0.0,0.0
18333000000,1818,18333000000,,0.0110984914038,-0.0288600399898,0.00502172347826,0.0,0.0,0.0
18343000000,1819,18343000000,,-0.00816152730635,0.0146585468953,-0.00594459140259,0.0,0.0,0.0
18353000000,1820,18353000000,,-0.00497204963132,0.0353580762367,-0.0334880104609,0.0,0.0,0.0
18362000000,1821,18362000000,,0.0387828747943,0.024029374412,0.00820877805386,0.0,0.0,0.0
18372000000,1822,18372000000,,0.0246107651449,0.0305722877491,0.0130412161821,0.0,0.0,0.0
18384000000,1823,18384000000,,0.00313940733703,0.011629692642,-0.00684510234678,0.0,0.0,0.0
18393000000,1824,18393000000,,-0.0122071360139,-0.0135668222774,-0.0211363020747,0.0,0.0,0.0
18402000000,1825,18402000000,,-0.0175035397602,0.00142849814844,-0.0261444087187,0.0,0.0,0.0
18412000000,1826,18412000000,,-0.00490653911513,0.000320694065413,-0.0194154757227,0.0,0.0,0.0
18422000000,1827,18422000000,,-0.0227676558395,-0.0069012373415,0.000163092342883,0.0,0.0,0.0
18432000000,1828,18432000000,,-0.0108337233802,0.0182438477491,-0.0367508552471,0.0,0.0,0.0
18442000000,1829,18442000000,,-0.0213368463808,0.000912721810701,-0.0191977174043,0.0,0.0,0.0
18452000000,1830,18452000000,,-0.0231629002971,-0.0450945324139,-0.034791248752,0.0,0.0,0.0
18462000000,1831,18462000000,,-0.039315728807,0.0450929644013,-0.0142159339609,0.0,0.0,0.0
18473000000,1832,18473000000,,-0.0162620924309,-0.00454194795179,-0.0215920837371,0.0,0.0,0.0
18483000000,1833,18483000000,,0.0070158995913,-0.003860956607,-0.0555265321638,0.0,0.0,0.0
18492000000,1834,18492000000,,-0.0175951324266,0.0284090806816,-0.0152398126491,0.0,0.0,0.0
18503000000,1835,18503000000,,0.0388635698497,0.00281573977067,0.00858139283209,0.0,0.0,0.0
18513000000,1836,18513000000,,0.0208796995109,0.00535027407145,-0.0472372942009,0.0,0.0,0.0
18523000000,1837,18523000000,,-0.0200187653332,0.0123151388214,-0.0128645016541,0.0,0.0,0.0
18533000000,1838,18533000000,,-0.00398037291457,0.0105716007005,0.00269394252402,0.0,0.0,0.0
18543000000,1839,18543000000,,0.000131401347658,-0.0191046351587,-0.0179048973754,0.0,0.0,0.0
18553000000,1840,18553000000,,-0.0367347995475,0.0200213851031,-0.0199288382723,0.0,0.0,0.0
18563000000,1841,18563000000,,-0.012215721812,0.00670329846135,-0.0289036120263,0.0,0.0,0.0
18573000000,1842,18573000000,,-0.00497097376863,-0.0177880510407,0.00128732076869,0.0,0.0,0.0
18582000000,1843,18582000000,,-0.0501057752471,7.04608528815e-06,-0.0068692179747,0.0,0.0,0.0
18592000000,1844,18592000000,,0.00891666862693,-0.0383613116475,-0.0301020682716,0.0,0.0,0.0
18603000000,1845,18603000000,,-0.0144232815212,-0.000805014849174,-0.0229591302792,0.0,0.0,0.0
18612000000,1846,18612000000,,0.0178497407743,-0.0213246891565,-0.0184066211735,0.0,0.0,0.0
18623000000,1847,18623000000,,-0.00206268314635,-0.00761038716216,-0.01010272543,0.0,0.0,0.0
18632000000,1848,18632000000,,-0.0372723468147,0.0060308483088,0.0222910109202,0.0,0.0,0.0
18644000000,1849,18644000000,,0.0176157872871,-0.028667761906,-0.0250151690883,0.0,0.0,0.0
18652000000,1850,18652000000,,-0.00463642917355,0.010787076904,-0.0104828617371,0.0,0.0,0.0
18662000000,1851,18662000000,,-0.00947206748171,0.00216321253358,-0.00805763415442,0.0,0.0,0.0
18673000000,1852,18673000000,,-0.0411621590397,0.0335581119975,-0.00696589832086,0.0,0.0,0.0
18684000000,1853,18684000000,,0.00318696241355,-0.015903158251,0.00592987382685,0.0,0.0,0.0
18693000000,1854,18693000000,,0.0158437803195,0.00889514443362,-0.00372008800332,0.0,0.0,0.0
18703000000,1855,18703000000,,-0.0092907527157,-0.0139424272915,-0.00788449675461,0.0,0.0,0.0
18712000000,1856,18712000000,,-0.0120328201773,0.0298329815744,-0.0374316068344,0.0,0.0,0.0
18723000000,1857,18723000000,,0.00603924930814,-0.0534347957108,0.000901247121944,0.0,0.0,0.0
18734000000,1858,18734000000,,0.00069035810855,-0.0243924698841,-0.0634200869876,0.0,0.0,0.0
18742000000,1859,18742000000,,-0.0229793237431,-0.00529719506997,0.0312163178181,0.0,0.0,0.0
18754000000,1860,18754000000,,0.0119652005181,0.00154835136623,-0.0229881200598,0.0,0.0,0.0
18762000000,1861,18762000000,,-0.00756295173653,0.0447525705244,0.000276585639209,0.0,0.0,0.0
18772000000,1862,18772000000,,0.00133268005847,0.0151926610424,-0.0159197755088,0.0,0.0,0.0
18782000000,1863,18782000000,,0.0418094849383,-0.0131605797459,-0.0369830398085,0.0,0.0,0.0
18792000000,1864,18792000000,,0.0179244964497,-0.0254461224655,0.00707580712413,0.0,0.0,0.0
18804000000,1865,18804000000,,0.0171480077239,0.00627631734579,0.0201152958986,0.0,0.0,0.0
18813000000,1866,18813000000,,0.0316066281491,0.00205016324463,0.0163047172532,0.0,0.0,0.0
18823000000,1867,18823000000,,0.0132623149954,-0.0139798259117,0.00111177245751,0.0,0.0,0.0
18832000000,1868,18832000000,,-0.0088194726068,0.00451910322167,-0.0219563147871,0.0,0.0,0.0
18843000000,1869,18843000000,,-0.00348638406648,0.011560435124,-0.00387037122998,0.0,0.0,0.0
18853000000,1870,18853000000,,0.046988960174,0.0100970676729,-0.00083364452953,0.0,0.0,0.0
18863000000,1871,18863000000,,0.00794817128796,-0.0110113431717,-0.0308800458594,0.0,0.0,0.0
18873000000,1872,18873000000,,-0.00994312147697,0.0166739368029,-0.00459124796709,0.0,0.0,0.0
18885000000,1873,18885000000,,-0.0067486145855,0.0117316882211,-0.00461861154639,0.0,0.0,0.0
18893000000,1874,18893000000,,0.00455165320442,0.0280096256709,-0.003630318953,0.0,0.0,0.0
18904000000,1875,18904000000,,0.0066146292901,0.00943078378251,-0.00773251089271,0.0,0.0,0.0
18913000000,1876,18913000000,,-0.0215261668893,0.00172912892074,-0.00106026193999,0.0,0.0,0.0
18923000000,1877,18923000000,,-0.023820364008,0.0120044170154,-0.012724026658,0.0,0.0,0.0
18934000000,1878,18934000000,,-0.0275150071722,-0.0157864953328,-0.00680362859133,0.0,0.0,0.0
18943000000,1879,18943000000,,0.0212776734674,-0.0129691605475,-0.0295370342209,0.0,0.0,0.0
18953000000,1880,18953000000,,0.017853010426,0.0172745296968,-0.0312195846605,0.0,0.0,0.0
18964000000,1881,18964000000,,0.0053213964731,-0.0505988768438,0.00802534177056,0.0,0.0,0.0
18973000000,1882,18973000000,,-8.18510944774e-05,-0.00554040966135,0.0229167003882,0.0,0.0,0.0
18982000000,1883,18982000000,,-0.00270599043659,0.0102707384558,-0.0030623516035,0.0,0.0,0.0
18993000000,1884,18993000000,,0.0175166176246,0.0125552836432,-0.0103622013073,0.0,0.0,0.0
19004000000,1885,19004000000,,0.00757795639939,0.0176297018417,-0.0155708731927,0.0,0.0,0.0
19012000000,1886,19012000000,,0.0208532047154,-0.0175826045252,-0.0161460801961,0.0,0.0,0.0
19022000000,1887,19022000000,,-0.0293374080623,-0.027967792167,0.0141878195748,0.0,0.0,0.0
19032000000,1888,19032000000,,0.0150874575279,0.00526018217422,-0.026163543897,0.0,0.0,0.0
19044000000,1889,19044000000,,0.00314439305867,-0.0207668242423,-0.0330293068683,0.0,0.0,0.0
19053000000,1890,19053000000,,0.000477377930989,-0.0103904067744,-0.00451219494083,0.0,0.0,0.0
19063000000,1891,19063000000,,0.023656882962,-0.0100410326547,-0.00863688841302,0.0,0.0,0.0
19073000000,1892,19073000000,,0.0084483372211,0.00218719443821,0.0133320267053,0.0,0.0,0.0
19082000000,1893,19082000000,,0.00355910517681,-0.0250320870844,-0.0188302554769,0.0,0.0,0.0
19092000000,1894,19092000000,,-0.00561762838393,0.0172803909241,-0.0214426094829,0.0,0.0,0.0
19102000000,1895,19102000000,,-0.00809875316865,0.00903251593996,0.00711434165156,0.0,0.0,0.0
19112000000,1896,19112000000,,0.017175876806,0.00664993133765,-0.0286340904041,0.0,0.0,0.0
19122000000,1897,19122000000,,0.0186443938291,0.000514221966416,-0.00786892315788,0.0,0.0,0.0
19133000000,1898,19133000000,,0.0268066631218,-0.0101765874071,-0.0171022116861,0.0,0.0,0.0
19144000000,1899,19144000000,,-0.023617851988,0.0110576164133,-0.0254029245456,0.0,0.0,0.0
19155000000,1900,19155000000,,-0.0134676024628,-0.0280827733366,-0.0163015038105,0.0,0.0,0.0
19167000000,1901,19167000000,,0.0126751934516,-0.0261738298514,-0.00453524941692,0.0,0.0,0.0
19174000000,1902,19174000000,,0.0191061040732,-0.0407567482069,0.00422921716432,0.0,0.0,0.0
19182000000,1903,19182000000,,0.023848049906,-0.047855583572,-0.0118029849279,0.0,0.0,0.0
19192000000,1904,19192000000,,0.00177990975526,-0.0340074936586,-0.0162774422114,0.0,0.0,0.0
19202000000,1905,19202000000,,0.0223320455773,-0.0276872050253,-0.0305313302805,0.0,0.0,0.0
19213000000,1906,19213000000,,-0.0209459343523,0.00722167746084,-0.0233763114267,0.0,0.0,0.0
19222000000,1907,19222000000,,0.0173757846671,-0.0267726120422,-0.0212257777892,0.0,0.0,0.0
19232000000,1908,19232000000,,0.0472460982237,0.0275588752267,-0.0273806338445,0.0,0.0,0.0
19243000000,1909,19243000000,,-0.0167185120627,0.00922489776335,0.00800461479005,0.0,0.0,0.0
19252000000,1910,19252000000,,-0.00992482244791,0.0246163997576,-0.0312668265438,0.0,0.0,0.0
19263000000,1911,19263000000,,-0.0372248790996,0.0148646298182,0.00859030653901,0.0,0.0,0.0
19274000000,1912,19274000000,,-0.0167054918631,0.0268948924427,-0.000574396807841,0.0,0.0,0.0
19283000000,1913,19283000000,,-0.0271762719655,0.00866874627146,-0.02073209571,0.0,0.0,0.0
19300000000,1914,19300000000,,-0.0344678848888,0.0267118986625,0.0176189405932,0.0,0.0,0.0
19307000000,1915,19307000000,,-0.0280830648188,0.0439469510263,-0.01628782443,0.0,0.0,0.0
19315000000,1916,19315000000,,-0.0137892561802,0.0404776973556,-0.0144873510997,0.0,0.0,0.0
19323000000,1917,19323000000,,-0.0286818702225,0.0312465863829,-0.0123175132918,0.0,0.0,0.0
19332000000,1918,19332000000,,-0.00843461521818,0.0230049946791,-0.0186034428505,0.0,0.0,0.0
19343000000,1919,19343000000,,-0.0365597324425,-0.00113254183504,0.000994167945517,0.0,0.0,0.0
19353000000,1920,19353000000,,-0.00124992133257,-0.00467721732253,-0.039411166337,0.0,0.0,0.0
19364000000,1921,19364000000,,0.00344610700654,0.000105475845532,-0.0259740620597,0.0,0.0,0.0
19373000000,1922,19373000000,,0.0103250480596,0.000532852679616,-0.000360185970785,0.0,0.0,0.0
19382000000,1923,19382000000,,-0.00316238773787,-0.0287925411844,-0.000395494943874,0.0,0.0,0.0
19393000000,1924,19393000000,,0.0124442573409,-0.00557836634721,0.0147645220059,0.0,0.0,0.0
19403000000,1925,19403000000,,0.0119909774231,0.00492585923981,0.0102091143317,0.0,0.0,0.0
19412000000,1926,19412000000,,0.00756766263891,-0.00730684910642,-0.000993006009566,0.0,0.0,0.0
19424000000,1927,19424000000,,-0.0173841645417,0.0131182068635,0.0051170558422,0.0,0.0,0.0
19433000000,1928,19433000000,,0.0368170209423,0.00309679958499,0.036966590397,0.0,0.0,0.0
19444000000,1929,19444000000,,-0.0068884028371,0.00129663651382,0.00875854080259,0.0,0.0,0.0
19457000000,1930,19457000000,,-0.00394560690362,-0.00964424316739,0.0114338665672,0.0,0.0,0.0
19462000000,1931,19462000000,,-0.00744471626129,-0.0101466965369,0.00296237015912,0.0,0.0,0.0
19474000000,1932,19474000000,,-0.0197595496736,0.0109600841863,0.038568667908,0.0,0.0,0.0
19483000000,1933,19483000000,,0.0200466120592,0.00232221959278,0.00323305184347,0.0,0.0,0.0
19493000000,1934,19493000000,,0.0231840645882,0.0212998553113,0.0158047733601,0.0,0.0,0.0
19504000000,1935,19504000000,,-0.0195312894589,-0.0250132023601,0.0101202164386,0.0,0.0,0.0
19514000000,1936,19514000000,,0.0338702723195,0.0190571074137,0.000529104412588,0.0,0.0,0.0
19524000000,1937,19524000000,,-0.0161982577569,0.0229000755492,0.0352191366865,0.0,0.0,0.0
19532000000,1938,19532000000,,0.0136995198867,-0.0233360024344,-0.00754377595541,0.0,0.0,0.0
19543000000,1939,19543000000,,-0.0228840551279,-0.000526447355161,-0.00285749149426,0.0,0.0,0.0
19553000000,1940,19553000000,,0.00756778432217,0.000337911304597,0.0145977795745,0.0,0.0,0.0
19562000000,1941,19562000000,,0.00777537530015,0.00727916694055,0.0413066396483,0.0,0.0,0.0
19573000000,1942,19573000000,,-0.0152970475819,-0.0183258813475,-0.0166622310575,0.0,0.0,0.0
19583000000,1943,19583000000,,-0.00728485923135,-0.0194011318636,0.0219898885222,0.0,0.0,0.0
19592000000,1944,19592000000,,0.034311970443,-0.00549288863039,0.00129094082838,0.0,0.0,0.0
19603000000,1945,19603000000,,-0.0175803881785,-0.00376109277303,0.011006626469,0.0,0.0,0.0
19613000000,1946,19613000000,,0.0117195695633,-0.00201537647862,-0.0107261645372,0.0,0.0,0.0
19622000000,1947,19622000000,,0.0557461717553,-0.0258236297564,0.00540038700208,0.0,0.0,0.0
19633000000,1948,19633000000,,0.0013036873567,-0.00154465033362,0.0339312799569,0.0,0.0,0.0
19643000000,1949,19643000000,,0.0182457591611,0.023042120062,0.0588744516944,0.0,0.0,0.0
19653000000,1950,19653000000,,0.000667123387305,0.0187791616056,-0.0198870391174,0.0,0.0,0.0
19663000000,1951,19663000000,,0.0288087655718,-0.00834922983277,0.0042199344178,0.0,0.0,0.0
19673000000,1952,19673000000,,0.0138917767653,0.00296203756236,0.0092526929845,0.0,0.0,0.0
19682000000,1953,19682000000,,-0.0125752510403,-0.00394500715177,0.0104426113273,0.0,0.0,0.0
19695000000,1954,19695000000,,-0.046366205116,-0.0057552997709,0.00718992951089,0.0,0.0,0.0
19702000000,1955,19702000000,,0.0113118676536,0.00375946398609,-0.0451653987188,0.0,0.0,0.0
19712000000,1956,19712000000,,0.0241159600198,0.0243226314555,-0.00396459732136,0.0,0.0,0.0
19723000000,1957,19723000000,,0.00256655431726,0.0356559422716,0.00294831410252,0.0,0.0,0.0
19732000000,1958,19732000000,,-0.0263508348581,-0.0114526643013,0.0394637166956,0.0,0.0,0.0
19743000000,1959,19743000000,,-0.00767562738716,-0.00708443882734,-0.00297940865732,0.0,0.0,0.0
19753000000,1960,19753000000,,-0.0169786688368,-0.00587078170362,0.00814060983644,0.0,0.0,0.0
19763000000,1961,19763000000,,-0.01954200369,0.0193223118746,0.00938060949434,0.0,0.0,0.0
19772000000,1962,19772000000,,0.000292319503574,0.0217745218028,-0.0102984921055,0.0,0.0,0.0
19782000000,1963,19782000000,,0.00856852011874,-0.0568382162268,0.0312771876045,0.0,0.0,0.0
19792000000,1964,19792000000,,-0.0136853195029,0.00516243165814,-0.0183923835339,0.0,0.0,0.0
19803000000,1965,19803000000,,0.0116053560466,-0.00471104870556,0.0099946245549,0.0,0.0,0.0
19812000000,1966,19812000000,,0.00764011063464,-0.0206400293445,0.00880005732954,0.0,0.0,0.0
19822000000,1967,19822000000,,0.016568352596,0.00845087640165,0.0299092837156,0.0,0.0,0.0
19832000000,1968,19832000000,,0.0244981300954,-0.0189689252233,-0.0250580213325,0.0,0.0,0.0
19843000000,1969,19843000000,,0.0131272446488,-0.0151278390948,0.0554038986734,0.0,0.0,0.0
19853000000,1970,19853000000,,0.0422578209681,-0.0245020809748,0.0207684586923,0.0,0.0,0.0
19862000000,1971,19862000000,,0.00317828662739,0.0050568787733,0.0258662652103,0.0,0.0,0.0
19872000000,1972,19872000000,,0.0172311013919,-0.00708760529557,0.024837420539,0.0,0.0,0.0
19882000000,1973,19882000000,,-0.000946921738749,0.0031990172529,-0.000297456006771,0.0,0.0,0.0
19893000000,1974,19893000000,,0.0304738686568,0.0177792931046,0.00239980253723,0.0,0.0,0.0
19903000000,1975,19903000000,,-0.0402548579298,-0.00256628974037,-0.0153000884636,0.0,0.0,0.0
19913000000,1976,19913000000,,-0.00401432619315,0.0375086671619,0.0417749105564,0.0,0.0,0.0
19923000000,1977,19923000000,,-0.0245143714575,0.0131531968995,-0.0337916463658,0.0,0.0,0.0
19932000000,1978,19932000000,,-0.00550151742705,0.00292827509898,0.000436392657036,0.0,0.0,0.0
19943000000,1979,19943000000,,0.00446207437432,-0.0073763469532,0.00902700637147,0.0,0.0,0.0
19952000000,1980,19952000000,,-0.0157977243574,-0.00636149158351,0.00578143122555,0.0,0.0,0.0
19963000000,1981,19963000000,,0.0320826185145,-0.00260094871517,-0.00903754552377,0.0,0.0,0.0
19973000000,1982,19973000000,,-0.000334667569417,-0.0386581235236,0.00185610501191,0.0,0.0,0.0
19983000000,1983,19983000000,,0.0158131599775,-0.0292244735493,-0.00362804666866,0.0,0.0,0.0
19994000000,1984,19994000000,,-0.0269112977568,0.000577361670311,0.00831088858581,0.0,0.0,0.0
20003000000,1985,20003000000,,-0.025084114156,0.0114223034984,-0.0233544595921,0.0,0.0,0.0
20012000000,1986,20012000000,,0.00108967901996,-0.0198529087329,0.0163353646007,0.0,0.0,0.0
20022000000,1987,20022000000,,0.00297520264635,0.0172189922835,-0.0152609956638,0.0,0.0,0.0
20032000000,1988,20032000000,,0.0244086567532,0.00195134685123,0.0024293252206,0.0,0.0,0.0
20044000000,1989,20044000000,,0.0139547931678,-0.00552749814472,0.0322171992907,0.0,0.0,0.0
20052000000,1990,20052000000,,0.00622644521555,-0.0190932425572,0.028289561597,0.0,0.0,0.0
20063000000,1991,20063000000,,-0.00174872944823,0.0228096949761,-0.0438518049434,0.0,0.0,0.0
20074000000,1992,20074000000,,-0.00578464532001,0.0169990891794,0.0236913065859,0.0,0.0,0.0
20084000000,1993,20084000000,,0.023753074416,0.0206069941091,-0.0251913705912,0.0,0.0,0.0
20094000000,1994,20094000000,,-0.00829361990292,0.0310155913241,-0.0126466392283,0.0,0.0,0.0
20102000000,1995,20102000000,,0.00763999797345,0.0139995589565,0.0124735100772,0.0,0.0,0.0
20114000000,1996,20114000000,,-0.0126546122052,-0.00844510566475,-0.0286739859701,0.0,0.0,0.0
20123000000,1997,20123000000,,-0.0115775703093,-0.037389028284,-0.00347739572369,0.0,0.0,0.0
20132000000,1998,20132000000,,0.017694349283,-0.0202902229924,-0.0452267077384,0.0,0.0,0.0
20143000000,1999,20143000000,,0.0355443340734,-0.000999056931288,0.000313359777197,0.0,0.0,0.0
20154000000,2000,20154000000,,0.0326526207816,0.0160227422058,-0.0054313165951,0.0,0.0,0.0
20163000000,2001,20163000000,,0.0428229652172,-0.021208318624,0.01082602661,0.0,0.0,0.0
20175000000,2002,20175000000,,0.0215436337037,0.000378822883228,-0.0186388177143,0.0,0.0,0.0
20182000000,2003,20182000000,,0.0249360560255,-0.0228238997784,-0.0178001393919,0.0,0.0,0.0
20193000000,2004,20193000000,,0.0161923306618,0.0312183976048,0.00781253134931,0.0,0.0,0.0
20202000000,2005,20202000000,,0.0185559639172,0.0533539519706,-0.0282688264902,0.0,0.0,0.0
20212000000,2006,20212000000,,0.0162478741083,0.0347690443338,-0.0254863449412,0.0,0.0,0.0
20223000000,2007,20223000000,,0.0021102459171,-0.000502825272589,-0.0132035557678,0.0,0.0,0.0
20232000000,2008,20232000000,,-0.0100838242118,0.0134620622579,-0.00339381188484,0.0,0.0,0.0
20242000000,2009,20242000000,,-0.0277131656305,-0.00685799125353,-0.0125604781167,0.0,0.0,0.0
20252000000,2010,20252000000,,0.0186430568142,0.0293153410382,-0.0352003047094,0.0,0.0,0.0
20263000000,2011,20263000000,,-0.0306546180103,-5.82610697275e-05,-0.0490899776886,0.0,0.0,0.0
20273000000,2012,20273000000,,-0.0217088853236,0.00355106855249,0.00381169526649,0.0,0.0,0.0
20283000000,2013,20283000000,,0.00195069600846,0.0398597224914,-0.0324624330222,0.0,0.0,0.0
20293000000,2014,20293000000,,-0.00479937464462,0.0330614178731,-0.00484552532099,0.0,0.0,0.0
20302000000,2015,20302000000,,0.00647760415166,0.0103588459521,0.00851169024595,0.0,0.0,0.0
20313000000,2016,20313000000,,-0.00471448987699,0.0037079386278,-0.0187992280675,0.0,0.0,0.0
20322000000,2017,20322000000,,-0.0109101185969,-0.03227431714,-0.0035201072044,0.0,0.0,0.0
20332000000,2018,20332000000,,-0.003945947376,-0.00262623701448,-0.0262699354021,0.0,0.0,0.0
20342000000,2019,20342000000,,0.0345640108394,-0.0311093660414,-0.0204992059427,0.0,0.0,0.0
20352000000,2020,20352000000,,0.0401469794032,0.00614315705291,-0.0372993680669,0.0,0.0,0.0
20362000000,2021,20362000000,,0.00742166196465,-0.014977310543,0.00787520297868,0.0,0.0,0.0
20372000000,2022,20372000000,,-0.00323131111642,-0.0640533307638,-0.0261013510397,0.0,0.0,0.0
20382000000,2023,20382000000,,0.0388085661178,-0.0179124460871,-0.0101051463567,0.0,0.0,0.0
20392000000,2024,20392000000,,0.00313854993794,-0.00868656679553,0.0284281071408,0.0,0.0,0.0
20402000000,2025,20402000000,,-0.00449395695958,-0.0137322448884,0.000578933503969,0.0,0.0,0.0
20412000000,2026,20412000000,,0.0178584163424,-0.0187304722341,-0.0209214927944,0.0,0.0,0.0
20423000000,2027,20423000000,,0.0117838560895,-0.0121160222509,-0.0244839115456,0.0,0.0,0.0
20432000000,2028,20432000000,,-0.0215045988554,0.0303747114475,0.0054918655628,0.0,0.0,0.0
20442000000,2029,20442000000,,-0.0130101647478,0.048959501851,-0.0118762311133,0.0,0.0,0.0
20453000000,2030,20453000000,,0.00179113081652,0.0246799188489,-0.0381002980569,0.0,0.0,0.0
20462000000,2031,20462000000,,-0.0344022029799,-0.0298217927357,0.000863777589025,0.0,0.0,0.0
20473000000,2032,20473000000,,-0.0497972484029,0.0244448378161,-0.00184142552004,0.0,0.0,0.0
20482000000,2033,20482000000,,-0.0158193358988,0.0170739188137,-0.0312704991334,0.0,0.0,0.0
20494000000,2034,20494000000,,-0.0135253512958,0.0164578589121,-0.019904693549,0.0,0.0,0.0
20502000000,2035,20502000000,,0.0161007473766,-0.00492732697638,-0.0144658379224,0.0,0.0,0.0
20512000000,2036,20512000000,,0.0345250427312,0.0138343963779,0.0147078685183,0.0,0.0,0.0
20522000000,2037,20522000000,,0.0144207233318,-0.0267678174397,-0.0235685816388,0.0,0.0,0.0
20536000000,2038,20536000000,,0.0297782323586,-0.015046383262,0.0140203781935,0.0,0.0,0.0
20543000000,2039,20543000000,,-0.0203584677452,-0.023583527194,0.000469121864155,0.0,0.0,0.0
20553000000,2040,20553000000,,0.0131529837776,-0.0048868935378,0.0120572739257,0.0,0.0,0.0
20563000000,2041,20563000000,,0.0183171805391,0.00765158727109,-0.00533268170421,0.0,0.0,0.0
20573000000,2042,20573000000,,0.0257748538843,-0.00944457786176,-0.00889123676056,0.0,0.0,0.0
20584000000,2043,20584000000,,0.0183531918466,-0.0168540246299,-0.0137022216528,0.0,0.0,0.0
20593000000,2044,20593000000,,0.0154539493765,0.022971224395,-0.0176297980129,0.0,0.0,0.0
20603000000,2045,20603000000,,0.0466981364505,0.00940443030862,-0.0351646751148,0.0,0.0,0.0
20614000000,2046,20614000000,,0.00445557900523,0.0505410050986,0.0211782217597,0.0,0.0,0.0
20624000000,2047,20624000000,,-0.027142101816,0.011029066062,-0.0159888616733,0.0,0.0,0.0
20635000000,2048,20635000000,,-0.021617188773,0.0210494929052,-0.0153829169531,0.0,0.0,0.0
20644000000,2049,20644000000,,-0.048095148548,0.0421020583417,0.00147172685437,0.0,0.0,0.0
20653000000,2050,20653000000,,-0.030467569471,0.0389337773166,-0.0246397490038,0.0,0.0,0.0
20662000000,2051,20662000000,,0.00790888261055,0.0123925964993,-0.00765198116259,0.0,0.0,0.0
20674000000,2052,20674000000,,-0.0169172797381,0.01134347368,0.00857112156076,0.0,0.0,0.0
20682000000,2053,20682000000,,0.00617993400488,0.0321095423418,0.00517248943615,0.0,0.0,0.0
20694000000,2054,20694000000,,-0.020990181298,-0.0167926598185,-0.0192514701162,0.0,0.0,0.0
20702000000,2055,20702000000,,-0.0489653739139,0.000480424661767,0.00382534267998,0.0,0.0,0.0
20713000000,2056,20713000000,,-0.0213011702269,-0.00468605518495,-0.0223865698866,0.0,0.0,0.0
20722000000,2057,20722000000,,-0.0165610083028,0.020522369749,0.000799325063994,0.0,0.0,0.0
20732000000,2058,20732000000,,0.0511058248469,-0.0609502237675,-0.0509754886218,0.0,0.0,0.0
20742000000,2059,20742000000,,-0.00949698569975,-0.0431598977333,0.0119925147337,0.0,0.0,0.0
20752000000,2060,20752000000,,0.0185864905329,-0.0318206792342,0.0281295692502,0.0,0.0,0.0
20762000000,2061,20762000000,,0.0313666285781,-0.0317840982279,0.00133164222703,0.0,0.0,0.0
20773000000,2062,20773000000,,0.0639836925526,-0.00959295559707,-0.00191044526339,0.0,0.0,0.0
20783000000,2063,20783000000,,0.00279492053198,-0.00760466956206,0.0445882794144,0.0,0.0,0.0
20792000000,2064,20792000000,,0.0426771013146,0.0208825707604,0.0345533466036,0.0,0.0,0.0
20802000000,2065,20802000000,,0.0200118656324,-0.00497819217969,-0.00239566513721,0.0,0.0,0.0
20813000000,2066,20813000000,,0.0302504307373,-0.00517637036131,-0.000503697950365,0.0,0.0,0.0
20822000000,2067,20822000000,,0.0189379771407,0.0340917175204,0.00256102488726,0.0,0.0,0.0
20832000000,2068,20832000000,,0.00760001184082,0.0167493852115,0.0457699067466,0.0,0.0,0.0
20843000000,2069,20843000000,,0.0232801719087,0.0215557865316,0.0259649934809,0.0,0.0,0.0
20852000000,2070,20852000000,,-0.0226028560867,0.0169526163655,0.0134896662339,0.0,0.0,0.0
20863000000,2071,20863000000,,-0.0684337039024,0.0221320260003,0.000437905564819,0.0,0.0,0.0
20873000000,2072,20873000000,,-0.0564879314157,0.028574662099,0.0142646715501,0.0,0.0,0.0
20884000000,2073,20884000000,,-0.0349847646379,0.0182961972308,0.0416850791054,0.0,0.0,0.0
20891000000,2074,20891000000,,-0.0316518386305,0.00353276997015,-2.66860730098e-05,0.0,0.0,0.0
20903000000,2075,20903000000,,-0.0378089430926,-0.00181756862706,-0.000373779931249,0.0,0.0,0.0
20912000000,2076,20912000000,,-0.0402020224726,-0.0187723924098,-0.0105376426246,0.0,0.0,0.0
20922000000,2077,20922000000,,-0.0425884369899,-0.00785348741587,-0.00418030914952,0.0,0.0,0.0
20934000000,2078,20934000000,,0.0344274858736,-0.000296347370957,-0.0415307962836,0.0,0.0,0.0
20944000000,2079,20944000000,,0.00913611502113,-0.0335578946364,0.0039731892876,0.0,0.0,0.0
20953000000,2080,20953000000,,0.0160281801736,-0.0611422732931,-0.00405757935793,0.0,0.0,0.0
20962000000,2081,20962000000,,0.0368328943207,-0.0425590767421,0.0215743923406,0.0,0.0,0.0
20974000000,2082,20974000000,,0.0238915274654,-0.0614601156982,0.00654441393259,0.0,0.0,0.0
20983000000,2083,20983000000,,-0.00665316399438,-0.00900016303236,0.00872090478107,0.0,0.0,0.0
20993000000,2084,20993000000,,0.0349242009738,-0.0195438494446,-0.0197397597787,0.0,0.0,0.0
21002000000,2085,21002000000,,-0.0045856721024,0.0137013511926,0.0268439827129,0.0,0.0,0.0
21012000000,2086,21012000000,,0.00234919447634,0.0473207630548,0.000783226710136,0.0,0.0,0.0
21022000000,2087,21022000000,,0.0440710934867,0.000973925991427,-0.0221217146911,0.0,0.0,0.0
21033000000,2088,21033000000,,0.022699166959,0.0185214100244,-0.00995514749092,0.0,0.0,0.0
21042000000,2089,21042000000,,0.000212079732822,0.0548757556187,0.00051835597159,0.0,0.0,0.0
21053000000,2090,21053000000,,0.0112807350277,0.0418222595178,-0.0155963241286,0.0,0.0,0.0
21062000000,2091,21062000000,,-0.0426140142006,0.0501532856985,0.0305389955528,0.0,0.0,0.0
21073000000,2092,21073000000,,-0.0149688661986,0.0493637699982,0.0129861929677,0.0,0.0,0.0
21082000000,2093,21082000000,,-0.0624765668961,0.0368487104965,0.00586055983002,0.0,0.0,0.0
21092000000,2094,21092000000,,-0.046264243105,0.0313352917286,-0.00741386233357,0.0,0.0,0.0
21101000000,2095,21101000000,,0.0262343215487,-0.0522558253557,-0.0106838515795,0.0,0.0,0.0
21112000000,2096,21112000000,,0.0253086518624,-0.00413860227793,0.0198156040525,0.0,0.0,0.0
21123000000,2097,21123000000,,0.0246565712199,-0.0160657130869,-0.0225517470823,0.0,0.0,0.0
21133000000,2098,21133000000,,0.000529020666935,-0.0312196831891,-0.0088750013925,0.0,0.0,0.0
21142000000,2099,21142000000,,-0.00812007809364,0.0350159007398,0.00848924729025,0.0,0.0,0.0
21154000000,2100,21154000000,,-0.0101643627671,0.0237909629935,0.000162486102343,0.0,0.0,0.0
21163000000,2101,21163000000,,-0.0172448649197,0.0461966208681,-0.00924456634743,0.0,0.0,0.0
21173000000,2102,21173000000,,-0.0679941575007,0.0225758458965,0.00200780622124,0.0,0.0,0.0
21182000000,2103,21182000000,,-0.0381199300795,0.0245020512989,-0.00575866447606,0.0,0.0,0.0
21194000000,2104,21194000000,,-0.0453751803713,0.0314923565239,-0.00477468186333,0.0,0.0,0.0
21203000000,2105,21203000000,,-0.0104331461185,-0.00717646671439,-0.0033019857973,0.0,0.0,0.0
21213000000,2106,21213000000,,-0.0336920004984,0.0124696074188,0.00991009567462,0.0,0.0,0.0
21223000000,2107,21223000000,,-0.0302660511139,-0.00250966112369,0.00820926070344,0.0,0.0,0.0
21232000000,2108,21232000000,,0.00731065950693,-0.0455655678546,0.01419034534,0.0,0.0,0.0
21242000000,2109,21242000000,,0.00803689481891,-0.0217168431395,-0.00804002754488,0.0,0.0,0.0
21253000000,2110,21253000000,,0.0044228884222,-0.0764305382476,0.0186449804942,0.0,0.0,0.0
21263000000,2111,21263000000,,-0.0134216921949,-0.0479831823256,0.00340739662707,0.0,0.0,0.0
21269000000,2112,21269000000,,0.0246221393076,-0.0222793216868,0.0084293516862,0.0,0.0,0.0
21282000000,2113,21282000000,,0.0189065756897,-0.0159455786383,-0.00972643333691,0.0,0.0,0.0
21293000000,2114,21293000000,,0.00430624016088,-0.0420789104457,-0.0080484031184,0.0,0.0,0.0
21304000000,2115,21304000000,,0.0505012319105,-0.01345118761,0.0270242442428,0.0,0.0,0.0
21313000000,2116,21313000000,,0.0240909088026,-0.0193131673752,0.0126356021031,0.0,0.0,0.0
21323000000,2117,21323000000,,0.0350177041966,-0.0359884865499,0.000830233648494,0.0,0.0,0.0
21333000000,2118,21333000000,,0.0323271777583,-0.0318324327345,0.00552732317883,0.0,0.0,0.0
21343000000,2119,21343000000,,0.015145085447,0.0319426500742,-0.0100058994735,0.0,0.0,0.0
21353000000,2120,21353000000,,1.22469008319e-05,0.058517924643,0.0228835534102,0.0,0.0,0.0
21363000000,2121,21363000000,,-0.0137708173619,0.0254042414329,-0.0141694380567,0.0,0.0,0.0
21372000000,2122,21372000000,,-0.0108005370188,0.0174372507439,0.0552396886578,0.0,0.0,0.0
21383000000,2123,21383000000,,0.0142844939365,0.0534889088755,0.0231759278237,0.0,0.0,0.0
21396000000,2124,21396000000,,-0.0472264429073,0.0458282542332,-0.00797387252685,0.0,0.0,0.0
21402000000,2125,21402000000,,-0.0534784527417,0.0275329953577,0.0231770135255,0.0,0.0,0.0
21412000000,2126,21412000000,,-0.073930966215,0.0534398658269,0.0559049109848,0.0,0.0,0.0
21425000000,2127,21425000000,,-0.0696634678375,0.061631499172,0.010188944893,0.0,0.0,0.0
21433000000,2128,21433000000,,-0.0171688570025,0.018519378023,0.0127089382124,0.0,0.0,0.0
21442000000,2129,21442000000,,-0.067026381493,-0.0282063715871,0.000643287848862,0.0,0.0,0.0
21453000000,2130,21453000000,,-0.0446152791873,0.000979158529182,-0.0104815744636,0.0,0.0,0.0
21463000000,2131,21463000000,,-0.030548142412,-0.0575039374055,0.0293350165345,0.0,0.0,0.0
21472000000,2132,21472000000,,0.0413719483368,-0.0621891603542,0.0315618246165,0.0,0.0,0.0
21484000000,2133,21484000000,,0.027610716058,-0.0760394576193,0.0488274399116,0.0,0.0,0.0
21493000000,2134,21493000000,,0.0498894541546,-0.0324875613112,0.00616104458372,0.0,0.0,0.0
21502000000,2135,21502000000,,0.0379987748998,-0.0179426328079,0.0323851420754,0.0,0.0,0.0
21512000000,2136,21512000000,,0.021513916525,-0.0413802097411,-0.00767065699056,0.0,0.0,0.0
21531000000,2137,21531000000,,-0.0170737029104,0.0266885933819,0.00720798862362,0.0,0.0,0.0
21533000000,2138,21533000000,,-0.0313951505939,0.0211106655397,0.0371465128369,0.0,0.0,0.0
21542000000,2139,21542000000,,-0.0250745405213,0.0528684595238,0.041899034228,0.0,0.0,0.0
21554000000,2140,21554000000,,-0.00137260160545,0.00903387005928,0.0235051424698,0.0,0.0,0.0
21562000000,2141,21562000000,,-0.0550302773231,0.0118127167394,0.00268394551633,0.0,0.0,0.0
21573000000,2142,21573000000,,-0.0187101413744,-0.0152846195536,0.00630034673806,0.0,0.0,0.0
21587000000,2143,21587000000,,-0.0233298736833,-0.0616569910509,0.0301599896267,0.0,0.0,0.0
21593000000,2144,21593000000,,0.00954158450555,-0.0405631430897,-0.00787806833427,0.0,0.0,0.0
21604000000,2145,21604000000,,0.0403726982506,0.00328919347815,0.0247876789375,0.0,0.0,0.0
21613000000,2146,21613000000,,0.025584307567,-0.0261395084434,0.0643711958987,0.0,0.0,0.0
21625000000,2147,21625000000,,0.00388714247292,0.000983642722308,0.0309463535877,0.0,0.0,0.0
21632000000,2148,21632000000,,0.0139326442733,0.0200614360915,0.0580304612874,0.0,0.0,0.0
21643000000,2149,21643000000,,-0.0006883978368,0.000772870001051,0.000997130874878,0.0,0.0,0.0
21653000000,2150,21653000000,,0.00701142009479,0.0357054978386,0.00620475834822,0.0,0.0,0.0
21663000000,2151,21663000000,,-0.0274781552984,0.0121905467035,0.0320416304256,0.0,0.0,0.0
21673000000,2152,21673000000,,-0.0144070867193,0.033038425011,0.02137987072,0.0,0.0,0.0
21680000000,2153,21680000000,,-0.0231022618228,0.0449903491383,-0.00402898337149,0.0,0.0,0.0
21695000000,2154,21695000000,,-0.0373319264391,0.0419276998605,0.0234360131437,0.0,0.0,0.0
21703000000,2155,21703000000,,-0.0188464570535,-0.0113357300264,0.00336712932486,0.0,0.0,0.0
21713000000,2156,21713000000,,0.00667848948532,-0.0445896204274,0.00868026910881,0.0,0.0,0.0
21725000000,2157,21725000000,,0.0567189642832,0.00457564347444,0.0372411768891,0.0,0.0,0.0
21733000000,2158,21733000000,,0.03388299286,-0.0168835111187,-0.0075998087744,0.0,0.0,0.0
21742000000,2159,21742000000,,0.0545998788651,-0.00121004572829,0.0171749035648,0.0,0.0,0.0
21753000000,2160,21753000000,,0.0357150126605,-0.00871603573728,-0.00258617414851,0.0,0.0,0.0
21764000000,2161,21764000000,,0.0216961159895,0.0173637215067,0.0404690065181,0.0,0.0,0.0
21772000000,2162,21772000000,,-0.00573065344529,0.0237762582551,-0.00419658142696,0.0,0.0,0.0
21782000000,2163,21782000000,,-0.00690888613301,0.00265860341204,0.00467338495901,0.0,0.0,0.0
21797000000,2164,21797000000,,0.0224752108756,0.0669700924113,0.0168871131831,0.0,0.0,0.0
21806000000,2165,21806000000,,-0.0447757836544,0.0209081553289,0.0364889473985,0.0,0.0,0.0
21815000000,2166,21815000000,,-0.0197121041241,0.00333021877058,-0.00712000722129,0.0,0.0,0.0
21823000000,2167,21823000000,,-0.0528022882049,0.0168669562385,0.0172055486066,0.0,0.0,0.0
21832000000,2168,21832000000,,-0.0278118137404,0.00277388347776,-0.0072553790564,0.0,0.0,0.0
21842000000,2169,21842000000,,-0.0243293772698,-0.0154875102176,0.00767537907926,0.0,0.0,0.0
21852000000,2170,21852000000,,0.00667812362889,-0.0226541949052,0.00257891758815,0.0,0.0,0.0
21863000000,2171,21863000000,,0.0129185512238,-0.0379682447383,-0.0052656945115,0.0,0.0,0.0
21874000000,2172,21874000000,,0.0513714037334,-0.0343576857248,0.0112660408154,0.0,0.0,0.0
21883000000,2173,21883000000,,0.0416142946526,0.0118585689463,0.020202291609,0.0,0.0,0.0
21892000000,2174,21892000000,,0.0328661273806,-0.0100847417905,0.0208796937385,0.0,0.0,0.0
21902000000,2175,21902000000,,0.0275252756159,0.0318860444221,0.0144305236905,0.0,0.0,0.0
21913000000,2176,21913000000,,0.0236162080408,-0.00801011520323,0.0174118637403,0.0,0.0,0.0
21923000000,2177,21923000000,,-0.0210544584949,0.0156598120597,0.00966844184812,0.0,0.0,0.0
21933000000,2178,21933000000,,-0.070733682328,0.0478092942358,-0.0051887889622,0.0,0.0,0.0
21942000000,2179,21942000000,,-0.0453098462084,0.04704565648,-0.0484737451747,0.0,0.0,0.0
21952000000,2180,21952000000,,-0.00101897543914,0.0208570395128,0.0208325452482,0.0,0.0,0.0
21963000000,2181,21963000000,,-0.0735045993564,0.0252396675294,-0.0010785202192,0.0,0.0,0.0
21973000000,2182,21973000000,,-0.0453689507504,0.014397237581,-0.0206782637749,0.0,0.0,0.0
21984000000,2183,21984000000,,-0.0161650000999,0.0066835771125,-0.0361588208008,0.0,0.0,0.0
21992000000,2184,21992000000,,-0.0490839195247,0.00695376061,0.00707557866725,0.0,0.0,0.0
22004000000,2185,22004000000,,0.00897084882682,-0.0767123270695,-0.0151666811872,0.0,0.0,0.0
22013000000,2186,22013000000,,0.0130444311951,-0.0139765227056,-0.000238108818361,0.0,0.0,0.0
22023000000,2187,22023000000,,-0.0042101070369,-0.0164526822788,0.0260407118085,0.0,0.0,0.0
22034000000,2188,22034000000,,0.025308624755,-0.0164314209614,0.0286251136354,0.0,0.0,0.0
22043000000,2189,22043000000,,0.00634948568934,-0.0322184162218,-0.00707098280662,0.0,0.0,0.0
22053000000,2190,22053000000,,0.0221110613675,-0.00250949041772,-0.0382357521965,0.0,0.0,0.0
22062000000,2191,22062000000,,-0.0215716724551,0.0136254768434,-0.000558263701933,0.0,0.0,0.0
22073000000,2192,22073000000,,0.0287699673708,0.037161934045,0.0337966365773,0.0,0.0,0.0
22082000000,2193,22082000000,,0.0260734521093,0.00707962333791,0.00861692924625,0.0,0.0,0.0
22093000000,2194,22093000000,,0.0479491279572,-0.0211382093792,-0.00102295305373,0.0,0.0,0.0
22103000000,2195,22103000000,,-0.0034861406158,0.0525648830963,-0.00252117539111,0.0,0.0,0.0
22112000000,2196,22112000000,,0.00114016433442,0.0281126045147,-0.0164661517134,0.0,0.0,0.0
22123000000,2197,22123000000,,0.00691293082123,0.0238006908443,-0.0148811871873,0.0,0.0,0.0
22133000000,2198,22133000000,,-0.0580461778365,0.0361480117947,0.00234529970746,0.0,0.0,0.0
22143000000,2199,22143000000,,-0.059153806209,0.0123746778105,0.0357584379985,0.0,0.0,0.0
22153000000,2200,22153000000,,-0.0513277248718,0.0128881027349,-0.00886108880313,0.0,0.0,0.0
22162000000,2201,22162000000,,-0.047760747327,0.020232889071,-0.018700686743,0.0,0.0,0.0
22172000000,2202,22172000000,,-0.00382952418913,0.00735219006809,-0.0597866795476,0.0,0.0,0.0
22183000000,2203,22183000000,,-0.019887580609,-0.019732178127,-0.0543734735719,0.0,0.0,0.0
22193000000,2204,22193000000,,0.00705674862944,0.00581382560997,-0.0182287657288,0.0,0.0,0.0
22202000000,2205,22202000000,,-0.0119198158199,-0.0439060948467,-0.00580265209736,0.0,0.0,0.0
22211000000,2206,22211000000,,-0.00318377745414,-0.049089140092,-0.00798893998966,0.0,0.0,0.0
22222000000,2207,22222000000,,0.0566702303382,-0.00643370599922,0.0103170306125,0.0,0.0,0.0
22233000000,2208,22233000000,,0.0221027011968,-0.0244339585438,-0.0291762661488,0.0,0.0,0.0
22242000000,2209,22242000000,,0.0316283767344,0.00932938425905,-0.0135710243732,0.0,0.0,0.0
22252000000,2210,22252000000,,0.0288410493867,0.0139001573054,0.00667018857113,0.0,0.0,0.0
22262000000,2211,22262000000,,0.0402133631497,0.025647180734,0.0191638709302,0.0,0.0,0.0
22272000000,2212,22272000000,,-0.0261004898571,0.0235497634211,-0.0375341555321,0.0,0.0,0.0
22283000000,2213,22283000000,,-0.0347273292753,0.0288154585409,0.000482790323143,0.0,0.0,0.0
22292000000,2214,22292000000,,-0.0199700764002,0.0154177067141,0.0107398205007,0.0,0.0,0.0
22302000000,2215,22302000000,,-0.0290893108006,0.025444353891,-0.0152051842503,0.0,0.0,0.0
22312000000,2216,22312000000,,-0.0611673298761,0.0276556907344,-0.0391806420581,0.0,0.0,0.0
22323000000,2217,22323000000,,-0.0714553662994,-0.000921643678805,0.00498617784379,0.0,0.0,0.0
22333000000,2218,22333000000,,0.000736552660347,-0.0192231347505,0.0105615167722,0.0,0.0,0.0
22342000000,2219,22342000000,,-0.0546772203762,-0.0322133783785,0.00645109740067,0.0,0.0,0.0
22353000000,2220,22353000000,,-0.0172334386219,-0.0077740999975,0.0176740846023,0.0,0.0,0.0
22362000000,2221,22362000000,,-0.0157905761819,-0.0435814639949,0.0177433921351,0.0,0.0,0.0
22371000000,2222,22371000000,,0.0684265102322,-0.0555467046506,-0.000345064587203,0.0,0.0,0.0
22383000000,2223,22383000000,,0.0462178988468,-0.0448781898816,-0.0210637184226,0.0,0.0,0.0
22392000000,2224,22392000000,,0.0329379117584,-0.0164398222758,-0.00202541020199,0.0,0.0,0.0
22402000000,2225,22402000000,,0.0619521700259,-0.0162003334957,-0.0187954423742,0.0,0.0,0.0
22411000000,2226,22411000000,,0.0748823571173,0.00407452844624,-0.0403612501425,0.0,0.0,0.0
22422000000,2227,22422000000,,0.0856489770906,0.00247615063453,-0.00888561315239,0.0,0.0,0.0
22432000000,2228,22432000000,,0.0404994458731,-0.0303724872379,-0.0126574967075,0.0,0.0,0.0
22443000000,2229,22443000000,,-0.00497631650411,0.0190868965132,-0.00619740504556,0.0,0.0,0.0
22453000000,2230,22453000000,,0.00582339792174,0.0654013305252,-0.0013449325954,0.0,0.0,0.0
22462000000,2231,22462000000,,-0.0031593550884,0.0335775339011,0.0327301647009,0.0,0.0,0.0
22473000000,2232,22473000000,,0.00643257190534,0.0185129193591,-0.0158619050551,0.0,0.0,0.0
22482000000,2233,22482000000,,-0.0245488093117,0.0345064135314,0.030492914491,0.0,0.0,0.0
22493000000,2234,22493000000,,-0.0362937993546,0.0789348126796,0.0268352353775,0.0,0.0,0.0
22502000000,2235,22502000000,,-0.0832769571588,0.0158940253028,0.0305302253547,0.0,0.0,0.0
22512000000,2236,22512000000,,-0.0649782445055,0.0297054279219,-0.0103725430015,0.0,0.0,0.0
22522000000,2237,22522000000,,-0.0765814789264,0.00192397262396,-0.00252624069262,0.0,0.0,0.0
22532000000,2238,22532000000,,-0.0317059687269,0.0289344318805,0.00183404536755,0.0,0.0,0.0
22542000000,2239,22542000000,,0.055087401075,-0.0252315827385,-0.00449011182258,0.0,0.0,0.0
22552000000,2240,22552000000,,-0.0103630501912,-0.021822132214,-0.0452381463809,0.0,0.0,0.0
22562000000,2241,22562000000,,-0.00524954818944,-0.0740174656407,-0.0140852164211,0.0,0.0,0.0
22572000000,2242,22572000000,,0.0146209918431,-0.0289236305687,-0.0176871764611,0.0,0.0,0.0
22583000000,2243,22583000000,,0.0823969073561,-0.044089374278,-0.0328291009524,0.0,0.0,0.0
22588000000,2244,22588000000,,0.0711576457759,-0.0424815340503,-0.0257697241886,0.0,0.0,0.0
22603000000,2245,22603000000,,0.0304997672005,-0.0275807388515,0.0153295341706,0.0,0.0,0.0
22612000000,2246,22612000000,,0.0115934254651,0.0148129093896,-0.0309103897857,0.0,0.0,0.0
22622000000,2247,22622000000,,0.0237944708267,0.0442571847009,-0.0206288710823,0.0,0.0,0.0
22632000000,2248,22632000000,,0.015632428232,-0.00131105681555,0.00111694483434,0.0,0.0,0.0
22642000000,2249,22642000000,,-0.0265993117649,0.07485117112,-0.01788863562,0.0,0.0,0.0
22651000000,2250,22651000000,,-0.014893287678,0.0376694666006,-0.00831936347153,0.0,0.0,0.0
22663000000,2251,22663000000,,-0.0741912205978,0.0243441332302,-0.004635297875,0.0,0.0,0.0
22673000000,2252,22673000000,,-0.0499150605724,0.0409618797976,-0.028057010936,0.0,0.0,0.0
22682000000,2253,22682000000,,-0.0637599871766,-0.00602380686046,-0.0247886223983,0.0,0.0,0.0
22691000000,2254,22691000000,,-0.0155680177482,-0.050977285714,0.0027064526493,0.0,0.0,0.0
22702000000,2255,22702000000,,-0.0204776570581,0.0218267034295,0.00108642811074,0.0,0.0,0.0
22712000000,2256,22712000000,,0.0102724692524,5.71511847724e-05,0.00669011614247,0.0,0.0,0.0
22722000000,2257,22722000000,,0.0141799308721,-0.0882016590655,0.000274188007149,0.0,0.0,0.0
22733000000,2258,22733000000,,0.0156946907521,-0.0671088145477,-0.00386586845923,0.0,0.0,0.0
22743000000,2259,22743000000,,0.021112721837,-0.0574710073177,-0.0407258903042,0.0,0.0,0.0
22753000000,2260,22753000000,,0.0413211793329,-0.0297649433004,0.00573238178737,0.0,0.0,0.0
22763000000,2261,22763000000,,0.0097989524899,0.0051525050361,0.0403894107154,0.0,0.0,0.0
22772000000,2262,22772000000,,0.0517828815988,-0.0318361007114,-0.0209263665319,0.0,0.0,0.0
