%time,field.header.seq,field.header.stamp,field.header.frame_id,field.roll,field.pitch,field.jaw,field.roll_dot,field.pitch_dot,field.jaw_dot
22698000000,1413,22698000000,,4.09364838561e-05,2.32155798585e-05,0.000246649578912,1.57701157688e-10,6.44399811289e-11,7.85771621381e-12
22714000000,1414,22714000000,,4.97109867865e-05,2.67972282018e-05,0.000247078569373,1.6566029104e-10,6.73139391449e-11,7.99453038491e-12
22729000000,1415,22729000000,,5.86445275985e-05,3.03812048514e-05,0.000247504474828,1.69326899724e-10,6.73461425515e-11,8.01553268204e-12
22739000000,1416,22739000000,,6.43068997306e-05,3.26215231325e-05,0.000247769319685,1.7532948704e-10,6.89134235787e-11,8.12781005693e-12
22755000000,1417,22755000000,,7.24606579752e-05,3.57465760317e-05,0.000248138734605,1.85313139833e-10,6.91958990107e-11,8.27431265865e-12
22768000000,1418,22768000000,,8.01681962912e-05,3.85450148315e-05,0.000248478958383,1.87823812059e-10,6.63700483461e-11,8.23124381155e-12
22782000000,1419,22782000000,,8.91256859177e-05,4.16512557422e-05,0.000248868425842,1.89814233775e-10,6.60734106317e-11,8.21932279182e-12
22789000000,1420,22789000000,,9.39156816457e-05,4.32984743384e-05,0.000249075092142,1.88873819362e-10,6.4357637275e-11,8.14221433332e-12
22805000000,1421,22805000000,,0.000103421727545,4.64842523797e-05,0.000249486038228,1.82463905096e-10,6.03058852855e-11,7.93988746278e-12
22817000000,1422,22817000000,,0.000110451845103,4.87713296025e-05,0.000249792821705,1.78578180021e-10,5.69627435498e-11,7.82325853405e-12
22831000000,1423,22831000000,,0.000119217846077,5.14517014381e-05,0.000250173936365,1.77036482696e-10,5.2206079737e-11,7.68545036639e-12
22845000000,1424,22845000000,,0.00012731627794,5.37383493793e-05,0.000250526238233,1.70463421156e-10,4.66458399684e-11,7.46339535312e-12
22859000000,1425,22859000000,,0.000135788577609,5.60642365599e-05,0.000250901037361,1.57729204697e-10,4.21748573565e-11,7.11814374804e-12
22872000000,1426,22872000000,,0.000141781900311,5.7624103647e-05,0.000251174118603,1.47960463326e-10,3.76340000829e-11,6.84502194509e-12
22888000000,1427,22888000000,,0.000149628511281,5.9543086536e-05,0.000251544552157,1.3467404969e-10,3.16046216975e-11,6.48812730972e-12
22899000000,1428,22899000000,,0.000154705005116,6.06776520726e-05,0.000251790479524,1.29592794829e-10,2.7723504048e-11,6.31937471102e-12
22916000000,1429,22916000000,,0.000162959666341,6.22837178526e-05,0.000252204743447,1.12822348686e-10,1.99355514735e-11,5.80064685521e-12
22931000000,1430,22931000000,,0.000169752136571,6.34532334516e-05,0.000252566824201,9.55989037932e-11,1.58081187029e-11,5.30613530544e-12
22946000000,1431,22946000000,,0.000175948560354,6.43403618596e-05,0.000252926227404,7.80377706899e-11,9.58964938708e-12,4.73280225774e-12
22961000000,1432,22961000000,,0.000182225747267,6.49331195746e-05,0.000253330683336,6.07583774959e-11,3.98833353496e-12,4.14010275715e-12
22976000000,1433,22976000000,,0.000187203273526,6.50907531963e-05,0.000253685109783,4.87418161388e-11,-1.19427850855e-13,3.6740948825e-12
22992000000,1434,22992000000,,0.000190985694644,6.4944026235e-05,0.000253989186604,3.69979082093e-11,-2.60450688794e-12,3.16272420579e-12
23007000000,1435,23007000000,,0.000195070228074,6.45101026748e-05,0.000254383485299,2.25487978983e-11,-4.00151786706e-12,2.45801881453e-12
23019000000,1436,23019000000,,0.000197161643882,6.39724894427e-05,0.000254636746831,1.58941592526e-11,-5.32991402749e-12,2.10908590939e-12
23030000000,1437,23030000000,,0.000198990834178,6.31343646091e-05,0.000254911486991,1.00945874923e-11,-6.05111577165e-12,1.73657626907e-12
23042000000,1438,23042000000,,0.000200324182515,6.20447608526e-05,0.000255185121205,6.48153926364e-12,-6.9948660579e-12,1.58891996782e-12
23053000000,1439,23053000000,,0.000201130547794,6.0713460698e-05,0.000255456543528,2.83223986798e-12,-7.76667358898e-12,1.46279451226e-12
23064000000,1440,23064000000,,0.000201319053303,5.93172881054e-05,0.000255703227594,-3.57420121061e-13,-8.24451271142e-12,1.41349421317e-12
23074000000,1441,23074000000,,0.000201115341042,5.82686479902e-05,0.000255881692283,-2.85434393135e-12,-9.61630688273e-12,1.59157485368e-12
23089000000,1442,23089000000,,0.000199886038899,5.58376086701e-05,0.000256236322457,-1.07511811953e-11,-1.64944516379e-11,2.18148199158e-12
23102000000,1443,23102000000,,0.000198268535314,5.36875086254e-05,0.000256500352407,-1.91771234309e-11,-2.32627354879e-11,2.69801433798e-12
23116000000,1444,23116000000,,0.000195424072444,5.06375035911e-05,0.000256828789134,-3.33947314246e-11,-3.27898229402e-11,3.32951895221e-12
23130000000,1445,23130000000,,0.000191547820577,4.72489955428e-05,0.000257153762504,-5.53851131624e-11,-4.3965955876e-11,4.04865594175e-12
23145000000,1446,23145000000,,0.000187588186236,4.44209545094e-05,0.0002574113023,-7.69009994572e-11,-5.05511431326e-11,4.59909714479e-12
23161000000,1447,23161000000,,0.00017994789232,3.96154173359e-05,0.000257815641817,-1.13376773248e-10,-6.95495952496e-11,5.45483406708e-12
23174000000,1448,23174000000,,0.000173867476406,3.59343939635e-05,0.000258089945419,-1.4024199857e-10,-8.38739841469e-11,6.01868685099e-12
23189000000,1449,23189000000,,0.00016762514133,3.22906671499e-05,0.000258342013694,-1.71779049318e-10,-9.8349328681e-11,6.58258430403e-12
23202000000,1450,23202000000,,0.000158816008479,2.74704034382e-05,0.000258654064965,-2.20860829625e-10,-1.15560540304e-10,7.30056726878e-12
23215000000,1451,23215000000,,0.000149474290083,2.29230063269e-05,0.000258942280198,-2.70253264212e-10,-1.23965185339e-10,7.91204688572e-12
23229000000,1452,23229000000,,0.00013997660426,1.85987228178e-05,0.000259207881754,-3.1243607701e-10,-1.42159367611e-10,8.43911399095e-12
23245000000,1453,23245000000,,0.00012665129907,1.25385313368e-05,0.000259552296484,-3.59797469596e-10,-1.63773453132e-10,8.9792201452e-12
23258000000,1454,23258000000,,0.000116635666927,8.03054354037e-06,0.000259794062003,-4.02076982819e-10,-1.78854889232e-10,9.42691237571e-12
23273000000,1455,23273000000,,0.000102256402897,1.83491692951e-06,0.000260113331024,-4.75816719359e-10,-1.97896365961e-10,1.006790918e-11
23289000000,1456,23289000000,,8.75689656823e-05,-3.90171044273e-06,0.00026040917146,-5.42288658423e-10,-2.00841315801e-10,1.05634251346e-11
23304000000,1457,23304000000,,7.30979736545e-05,-9.2591972134e-06,0.000260683009401,-5.88491533282e-10,-2.18608159352e-10,1.09159816603e-11
23320000000,1458,23320000000,,5.49086871615e-05,-1.60480140039e-05,0.000261012610281,-6.27151885979e-10,-2.3487181644e-10,1.11826355467e-11
23337000000,1459,23337000000,,3.7148634874e-05,-2.25985368161e-05,0.000261320732534,-6.81484868537e-10,-2.46697245965e-10,1.15378661486e-11
23350000000,1460,23350000000,,2.20251095016e-05,-2.79156192846e-05,0.000261568289716,-7.50502604507e-10,-2.55766574586e-10,1.19296482415e-11
23366000000,1461,23366000000,,1.19023457046e-06,-3.45572661899e-05,0.000261888490058,-8.09099176546e-10,-2.49484988224e-10,1.22019078869e-11
23380000000,1462,23380000000,,-1.75667464646e-05,-4.03716621804e-05,0.000262168323388,-8.22655943367e-10,-2.55930054927e-10,1.21915819454e-11
23397000000,1463,23397000000,,-3.64469524357e-05,-4.62633943243e-05,0.000262445915723,-8.34510627268e-10,-2.59654825419e-10,1.22024838151e-11
23413000000,1464,23413000000,,-5.81531676289e-05,-5.28706259502e-05,0.000262758083409,-8.6606233296e-10,-2.56553139844e-10,1.22612987472e-11
23426000000,1465,23426000000,,-7.25761710783e-05,-5.70116644667e-05,0.00026295761927,-9.09051001141e-10,-2.52431242576e-10,1.24071525623e-11
23440000000,1466,23440000000,,-9.53082926571e-05,-6.29144342383e-05,0.000263262918452,-9.16507481019e-10,-2.3235283142e-10,1.22878677719e-11
23454000000,1467,23454000000,,-0.000113782363769,-6.75999326631e-05,0.000263511872618,-8.81488659843e-10,-2.23480983719e-10,1.19417973773e-11
23469000000,1468,23469000000,,-0.000131943714223,-7.21915421309e-05,0.000263758876827,-8.53107584575e-10,-2.1374334247e-10,1.16764471356e-11
23481000000,1469,23481000000,,-0.000147298662341,-7.59579415899e-05,0.000263969355728,-8.42494185527e-10,-2.02478644962e-10,1.14941441781e-11
23495000000,1470,23495000000,,-0.000163956647157,-7.98127002781e-05,0.000264194735792,-8.40600256069e-10,-1.86729479101e-10,1.13124197509e-11
23508000000,1471,23508000000,,-0.000183103955351,-8.37226471049e-05,0.000264451693511,-8.0750717224e-10,-1.54457960311e-10,1.09327833245e-11
23521000000,1472,23521000000,,-0.000196638909983,-8.62873057486e-05,0.000264638510998,-7.61558649476e-10,-1.4354452349e-10,1.05313839247e-11
23533000000,1473,23533000000,,-0.000212145343539,-8.91601594049e-05,0.000264857371803,-6.94611035357e-10,-1.26702870418e-10,9.96947056159e-12
23546000000,1474,23546000000,,-0.000228064440307,-9.19675003388e-05,0.000265091483016,-6.23181506398e-10,-1.05408355655e-10,9.37551859065e-12
23563000000,1475,23563000000,,-0.000244266382651,-9.45274732658e-05,0.000265339622274,-5.6575233387e-10,-8.2996214068e-11,8.78042864111e-12
23576000000,1476,23576000000,,-0.000259816559264,-9.65235158219e-05,0.000265584007138,-5.14747744429e-10,-5.56933908713e-11,8.24242930852e-12
23590000000,1477,23590000000,,-0.000273464451311,-9.78279931587e-05,0.000265809532721,-4.34488389711e-10,-3.76266483249e-11,7.4844531614e-12
23604000000,1478,23604000000,,-0.000285820919089,-9.87449820968e-05,0.000266032613581,-3.51675272237e-10,-2.16795453117e-11,6.65638247646e-12
23620000000,1479,23620000000,,-0.000298337108688,-9.92543355096e-05,0.000266285380349,-2.67594946202e-10,-4.91228845795e-12,5.75115259235e-12
23635000000,1480,23635000000,,-0.000307979265926,-9.91892229649e-05,0.000266503746388,-2.10976819348e-10,6.82319261855e-12,5.02751356171e-12
23648000000,1481,23648000000,,-0.00031593334279,-9.86699233181e-05,0.000266703485977,-1.67874728008e-10,1.70054820919e-11,4.43829001329e-12
23658000000,1482,23658000000,,-0.000321298342897,-9.79112664936e-05,0.000266855640803,-1.29336874544e-10,2.22398696681e-11,3.88589681266e-12
23666000000,1483,23666000000,,-0.000325494766003,-9.70257460722e-05,0.000266991410172,-9.63542787225e-11,2.40627621995e-11,3.34516095379e-12
23680000000,1484,23680000000,,-0.000330335926265,-9.53608687269e-05,0.000267185474513,-5.53292099637e-11,2.55680563527e-11,2.58716290578e-12
23693000000,1485,23693000000,,-0.000333867326844,-9.29772650125e-05,0.000267391762463,-2.65984300557e-11,2.61141074043e-11,2.01074573658e-12
23708000000,1486,23708000000,,-0.000335759017617,-8.97738573258e-05,0.000267608527793,-8.12007232287e-12,2.84115456856e-11,1.74256594397e-12
23724000000,1487,23724000000,,-0.000335749122314,-8.59434876475e-05,0.000267820345471,9.00997939451e-12,3.99384067484e-11,2.01139842629e-12
23736000000,1488,23736000000,,-0.000334280368406,-8.23572190711e-05,0.000267986906692,3.15672522844e-11,5.65176447309e-11,2.48174462751e-12
23749000000,1489,23749000000,,-0.000331128452672,-7.7989177953e-05,0.000268164498266,6.96962140778e-11,8.25289905859e-11,3.15001822369e-12
23763000000,1490,23763000000,,-0.000325909757521,-7.26733851479e-05,0.000268353003776,1.28890467743e-10,1.17717155468e-10,3.9563716886e-12
23778000000,1491,23778000000,,-0.000317512138281,-6.5943444497e-05,0.000268564675935,2.22833682062e-10,1.62607538545e-10,4.85333735006e-12
23791000000,1492,23791000000,,-0.000308789371047,-6.00879247941e-05,0.000268732750556,3.17850995524e-10,2.00156113905e-10,5.55613888231e-12
23801000000,1493,23801000000,,-0.000302555999951,-5.62867426197e-05,0.000268834788585,3.89971249737e-10,2.3324464582e-10,6.04550307384e-12
23811000000,1494,23811000000,,-0.000292910088319,-5.07317490701e-05,0.000268973293714,4.91801099844e-10,2.75733158528e-10,6.63918703001e-12
23824000000,1495,23824000000,,-0.000278983061435,-4.31871158071e-05,0.000269146898063,6.27696672417e-10,3.31349864213e-10,7.33625400012e-12
23840000000,1496,23840000000,,-0.000260808155872,-3.39598009305e-05,0.000269342621323,8.20860657225e-10,4.00201649597e-10,8.203500379e-12
23857000000,1497,23857000000,,-0.000238541208091,-2.36666637647e-05,0.000269545969786,1.06231068386e-09,4.6735820769e-10,8.99775219609e-12
23875000000,1498,23875000000,,-0.000214807500015,-1.3736845176e-05,0.000269732961897,1.30982547031e-09,5.34514488226e-10,9.74372405677e-12
23886000000,1499,23886000000,,-0.000193764470168,-5.2790837799e-06,0.000269882177236,1.5066661252e-09,5.98661675788e-10,1.02555906475e-11
23897000000,1500,23897000000,,-0.000178333910299,8.06003185971e-07,0.000269984127954,1.65912072969e-09,6.51216691683e-10,1.06371899136e-11
23909000000,1501,23909000000,,-0.000154768087668,9.94355286821e-06,0.000270129850833,0.00187236757483,0.000713219400495,1.11664203359e-05
23924000000,1502,23924000000,,-0.000123579491628,2.1396408556e-05,0.000270306452876,0.00201984401792,0.000717397721019,1.090454316e-05
23940000000,1503,23940000000,,-8.98318176041e-05,3.29935210175e-05,0.0002704540384,0.0028892622795,0.000973974354565,1.0135067896e-05
23953000000,1504,23953000000,,-4.59903276351e-05,4.74320222565e-05,0.000270605174592,0.00293299648911,0.000949648034293,1.00178003777e-05
23968000000,1505,23968000000,,-3.3975493352e-07,6.20508944849e-05,0.000270752847428,0.00316915498115,0.00100618693978,9.6780813692e-06
23984000000,1506,23984000000,,4.29555839219e-05,7.55532528274e-05,0.000270888005616,0.00305196666159,0.000924210995436,9.60490615398e-06
23998000000,1507,23998000000,,9.10784146981e-05,8.95229677553e-05,0.000271039141808,0.00294504640624,0.000818691973109,9.30178157432e-06
24011000000,1508,24011000000,,0.000127673978568,9.9047756521e-05,0.00027115852572,0.00269522983581,0.00065840780735,9.08081892703e-06
24025000000,1509,24025000000,,0.000162757700309,0.000107106585347,0.000271283352049,0.002330416115,0.00050253525842,8.7788403107e-06
24039000000,1510,24039000000,,0.000191874001757,0.000112690089736,0.000271403609077,1.76410563935e-09,2.96150742818e-10,7.99212605818e-12
24055000000,1511,24055000000,,0.000215724037844,0.000115802729852,0.000271528871963,9.17272036105e-10,7.8354836508e-11,5.61771766258e-12
24068000000,1512,24068000000,,0.000224170609727,0.00011474047642,0.0002716529998,1.89210730417e-11,-2.43174421571e-11,1.12853086251e-12
24081000000,1513,24081000000,,0.000224751551286,0.000111642322736,0.000271769298706,-5.69201803746e-12,-3.597259296e-11,1.18214563572e-12
24097000000,1514,24097000000,,0.000222641931032,0.000107458748971,0.000271890923614,-4.87901039015e-11,-6.80567963096e-11,1.75636946393e-12
24111000000,1515,24111000000,,0.000217269072891,0.000101416866528,0.00027202576166,-1.20596393982e-10,-1.21586435364e-10,2.43217880731e-12
24125000000,1516,24125000000,,0.000210634345422,9.51272013481e-05,0.000272140838206,-1.85839024724e-10,-1.68434724501e-10,2.88922271524e-12
24134000000,1517,24134000000,,0.000205596734304,9.06896020751e-05,0.000272213597782,-2.29630342519e-10,-1.98157060205e-10,3.11537622956e-12
24143000000,1518,24143000000,,0.000199970105314,8.59772699187e-05,0.00027228469844,-2.76274059186e-10,-2.260994586e-10,3.30114299611e-12
24153000000,1519,24153000000,,0.000193792526261,8.10946003185e-05,0.000272354256595,-3.20446863489e-10,-2.45772346918e-10,3.44503787476e-12
24168000000,1520,24168000000,,0.00018332216132,7.34306013328e-05,0.000272460310953,-3.69007713275e-10,-2.67030092482e-10,3.57686254747e-12
24181000000,1521,24181000000,,0.00017300764739,6.58940844005e-05,0.000272556470009,-4.04492689343e-10,-2.98191971115e-10,3.66915048691e-12
24196000000,1522,24196000000,,0.000161540869158,5.73137440369e-05,0.00027265783865,-4.36804425963e-10,-3.30081656452e-10,3.76151150158e-12
24211000000,1523,24211000000,,0.00014702756016,4.63811738882e-05,0.000272778503131,-4.78270922866e-10,-3.57199464451e-10,3.80809663317e-12
24224000000,1524,24224000000,,0.000136274145916,3.8501500967e-05,0.000272860837867,-5.19954579392e-10,-3.72884306765e-10,3.83140958196e-12
24238000000,1525,24238000000,,0.000121198070701,2.81197899312e-05,0.000272967619821,-5.54542745057e-10,-3.77539915997e-10,3.81292263388e-12
24250000000,1526,24250000000,,0.000109640554001,2.01548646146e-05,0.000273045530776,-5.7049948099e-10,-3.97235661032e-10,3.78384129585e-12
24263000000,1527,24263000000,,0.000101900048321,1.47180899148e-05,0.000273096462479,-5.89122473027e-10,-4.16791351432e-10,3.7989988759e-12
24275000000,1528,24275000000,,8.61943190102e-05,3.48719049725e-06,0.000273196754279,-6.03788519182e-10,-4.31757546382e-10,3.78599452136e-12
24286000000,1529,24286000000,,7.41651529097e-05,-5.032991794e-06,0.000273270095931,-6.23509244235e-10,-4.36171793128e-10,3.71402474747e-12
24295000000,1530,24295000000,,6.48470595479e-05,-1.14319364002e-05,0.000273323559668,-6.57930210313e-10,-4.43207776035e-10,3.70496905724e-12
24306000000,1531,24306000000,,5.31586665602e-05,-1.90265182027e-05,0.000273387558991,-6.75744182832e-10,-4.29791841006e-10,3.65590500581e-12
24322000000,1532,24322000000,,3.71728274331e-05,-2.92864788207e-05,0.000273473124253,-6.71474376102e-10,-4.35683294997e-10,3.56773811883e-12
24335000000,1533,24335000000,,2.34031504078e-05,-3.83278056688e-05,0.000273545680102,-6.64550414697e-10,-4.40964875725e-10,3.50058957516e-12
24348000000,1534,24348000000,,8.64311732585e-06,-4.81302013213e-05,0.000273622892564,-6.72151057035e-10,-4.44269510069e-10,3.47288690861e-12
24362000000,1535,24362000000,,-6.2683784563e-06,-5.7816698245e-05,0.000273697980447,-6.88909818081e-10,-4.38384245571e-10,3.36538349271e-12
24376000000,1536,24376000000,,-2.04689040402e-05,-6.64984399918e-05,0.00027376532671,-7.07522374022e-10,-4.15546347332e-10,3.27994575944e-12
24390000000,1537,24390000000,,-3.69502449757e-05,-7.60773109505e-05,0.000273841113085,-6.91579515877e-10,-4.03887506772e-10,3.15378886201e-12
24404000000,1538,24404000000,,-5.21114270668e-05,-8.50002834341e-05,0.000273909885436,-6.65900390384e-10,-3.94783705726e-10,3.02408120247e-12
24420000000,1539,24420000000,,-6.69493383612e-05,-9.37987933867e-05,0.000273977377219,-6.47161269018e-10,-3.8029746019e-10,2.91983884987e-12
24434000000,1540,24434000000,,-8.37966508698e-05,-0.00010343046597,0.000274050951703,-6.36482033745e-10,-3.51778189911e-10,2.66675483779e-12
24449000000,1541,24449000000,,-9.97476017801e-05,-0.00011174363317,0.000274114630884,-6.3022587149e-10,-3.09193143311e-10,2.4332003426e-12
24464000000,1542,24464000000,,-0.000113453024824,-0.000118344774819,0.000274166377494,-6.00325511524e-10,-2.8726457324e-10,2.22956484004e-12
24476000000,1543,24476000000,,-0.000127781779156,-0.000125150152599,0.000274218560662,-5.55331558516e-10,-2.61923621681e-10,2.00352408275e-12
24488000000,1544,24488000000,,-0.000139647730975,-0.000130681393784,0.000274260877632,-5.1893944697e-10,-2.37481478926e-10,1.84903177838e-12
24504000000,1545,24504000000,,-0.000152070380864,-0.000136186412419,0.000274304155027,-4.86288287416e-10,-2.08388556411e-10,1.64314948366e-12
24518000000,1546,24518000000,,-0.000167871330632,-0.000142463788507,0.000274355028523,-4.45855879994e-10,-1.61362104234e-10,1.37662938774e-12
24531000000,1547,24531000000,,-0.000178615635377,-0.000146093691001,0.000274387653917,-4.02670924382e-10,-1.31210070586e-10,1.20940692357e-12
24543000000,1548,24543000000,,-0.000190484643099,-0.000149818195496,0.000274422520306,-3.45627942933e-10,-1.03709027477e-10,1.01148787696e-12
24557000000,1549,24557000000,,-0.000199866495677,-0.000152493143105,0.000274449936114,-2.9333074858e-10,-7.91515325504e-11,8.64433307921e-13
24569000000,1550,24569000000,,-0.000207893099287,-0.000154489345732,0.000274473481113,-2.5545068838e-10,-5.85315407253e-11,7.4498285145e-13
24580000000,1551,24580000000,,-0.000215375403059,-0.000155999616254,0.000274494668702,-2.22513049652e-10,-3.94355971489e-11,6.09154653802e-13
24594000000,1552,24594000000,,-0.00022482239001,-0.000157212693011,0.000274519406958,-1.79700879177e-10,-1.35822204178e-11,4.57449995852e-13
24607000000,1553,24607000000,,-0.00023260335729,-0.000157382106408,0.000274539052043,-1.30772323526e-10,3.62072112743e-12,3.31993303291e-13
24619000000,1554,24619000000,,-0.000237844098592,-0.000156962138135,0.000274552206974,-9.88167811466e-11,1.32102532038e-11,2.4898659523e-13
24631000000,1555,24631000000,,-0.000242669950239,-0.000155911722686,0.000274564517895,-6.86904214064e-11,2.12565104407e-11,1.83286125535e-13
24646000000,1556,24646000000,,-0.000247051852057,-0.000153868604684,0.000274576625088,-4.29114833944e-11,2.78918103891e-11,1.19211200156e-13
24660000000,1557,24660000000,,-0.000250326353125,-0.000150738618686,0.00027458529803,-2.59396237129e-11,3.52291806838e-11,6.48074259188e-14
24673000000,1558,24673000000,,-0.000252089143032,-0.000146926686284,0.000274589721812,-1.23370333047e-11,4.75273952139e-11,3.50453715527e-14
24685000000,1559,24685000000,,-0.000252465135418,-0.000142938253703,0.000274591060588,2.09890373311e-12,6.35843461216e-11,4.77257580109e-15
24699000000,1560,24699000000,,-0.000251447898336,-0.000137424402055,0.000274590420304,2.84844040715e-11,9.38258776229e-11,-1.5803327478e-14
24713000000,1561,24713000000,,-0.000248757918598,-0.000130983593408,0.000274589139735,6.84316700528e-11,1.33373770361e-10,-3.52715157971e-14
24726000000,1562,24726000000,,-0.000244728318648,-0.000124252779642,0.000274586229352,1.16852819088e-10,1.74715852896e-10,-9.63087777388e-14
24741000000,1563,24741000000,,-0.000238776105107,-0.000116349256132,0.000274580961559,1.82430737183e-10,2.22508914072e-10,-1.60776272395e-13
24754000000,1564,24754000000,,-0.00023114430951,-0.00010767828644,0.000274574267678,2.64864880029e-10,2.85484968998e-10,-2.33298677686e-13
24769000000,1565,24769000000,,-0.000221118418267,-9.7404459666e-05,0.000274565420114,3.70321662224e-10,3.65260044433e-10,-3.21152691029e-13
24785000000,1566,24785000000,,-0.00021002041467,-8.68825809448e-05,0.000274556281511,4.90543716758e-10,4.47032605377e-10,-3.88187420576e-13
24798000000,1567,24798000000,,-0.000197076617042,-7.56270237616e-05,0.000274545513093,6.28756768872e-10,5.25619270331e-10,-5.43774552296e-13
24813000000,1568,24813000000,,-0.000182338349987,-6.39331847196e-05,0.000274532474577,7.7762540851e-10,5.91121873672e-10,-6.88507573437e-13
24828000000,1569,24828000000,,-0.000163393997354,-4.98958506796e-05,0.000274515739875,9.47499523285e-10,6.89544532584e-10,-8.41189531225e-13
24842000000,1570,24842000000,,-0.000145210506162,-3.68160472135e-05,0.000274499499938,1.10371101147e-09,7.86410214726e-10,-9.80681248014e-13
24855000000,1571,24855000000,,-0.000128454412334,-2.49992517638e-05,0.000274484831607,1.26204846573e-09,8.7696222506e-10,-1.08555102841e-12
24867000000,1572,24867000000,,-0.000107284533442,-1.07261166704e-05,0.000274466437986,1.46055545436e-09,9.58331969336e-10,-1.28995609767e-12
24882000000,1573,24882000000,,-8.27775365906e-05,4.68401913167e-06,0.000274444464594,1.66494185105e-09,1.0034775233e-09,-1.49030072137e-12
24898000000,1574,24898000000,,-5.65717309655e-05,2.01794100576e-05,0.000274421152426,0.00178183300886,0.00104280235246,-1.59101819008e-06
24909000000,1575,24909000000,,-3.46935848938e-05,3.29194117512e-05,0.000274401478237,0.00184967764653,0.00107327557635,-1.66639063082e-06
24920000000,1576,24920000000,,-1.35881682581e-05,4.54271357739e-05,0.000274382880889,0.00258288090117,0.00150695082266,-2.18218428927e-06
24934000000,1577,24934000000,,2.28508379223e-05,6.63826576783e-05,0.00027435211814,0.00260845362209,0.0014719258761,-2.23061829274e-06
24948000000,1578,24948000000,,6.72035530442e-05,9.08494112082e-05,0.000274312944384,0.00282619311474,0.00150583288632,-2.5781680506e-06
24962000000,1579,24962000000,,0.000103509359178,0.00010928579286,0.000274278398138,0.00272179651074,0.00134676333982,-2.68191729447e-06
24977000000,1580,24977000000,,0.000146094331285,0.000129766835016,0.000274232705124,0.00253724236973,0.00119911169168,-2.9237896797e-06
24991000000,1581,24991000000,,0.000174741799128,0.000142695163959,0.000274195481325,0.00225686910562,0.00100104871672,-3.11415533361e-06
25005000000,1582,25005000000,,0.000207547302125,0.000156390102347,0.000274144666037,0.00187434989493,0.000729084888007,-3.24429379361e-06
25020000000,1583,25020000000,,0.00023056360078,0.000164326513186,0.00027409705217,1.12883957737e-09,3.43659128932e-10,-2.68589382506e-12
25035000000,1584,25035000000,,0.000249696458923,0.000168616694282,0.000274038262432,4.71610528407e-10,6.71401059749e-11,-1.84375019592e-12
25050000000,1585,25050000000,,0.000254204263911,0.000166708530742,0.000273993326118,-1.13016956904e-11,-4.96351466872e-11,-4.69284116775e-13
25064000000,1586,25064000000,,0.000251675432082,0.000161340285558,0.000273950630799,-7.0322032919e-11,-1.15396553424e-10,-8.12139255586e-13
25077000000,1587,25077000000,,0.000247440446401,0.000155347195687,0.000273912330158,-1.42970801864e-10,-1.85472470715e-10,-1.11502734129e-12
25090000000,1588,25090000000,,0.000240382767515,0.000147033570101,0.000273864599876,-2.45889725248e-10,-2.70216043985e-10,-1.51078325197e-12
25103000000,1589,25103000000,,0.000231965037528,0.000138428615173,0.000273816986009,-3.42756739657e-10,-3.29115290576e-10,-1.82547813671e-12
25117000000,1590,25117000000,,0.000222130736802,0.000129256877699,0.000273767014733,-4.30173202615e-10,-3.9814887498e-10,-2.12504493169e-12
25130000000,1591,25130000000,,0.000210459009395,0.00011835553596,0.000273710524198,-5.07480391043e-10,-4.80195883057e-10,-2.43353969788e-12
25145000000,1592,25145000000,,0.000197159984964,0.000105554878246,0.00027364763082,-5.76307279676e-10,-5.58709689624e-10,-2.68785406259e-12
25160000000,1593,25160000000,,0.000184004893526,9.28180234041e-05,0.000273586570984,-6.42623898539e-10,-6.18089468496e-10,-2.98633513751e-12
25175000000,1594,25175000000,,0.000167994221556,7.78269240982e-05,0.000273512792774,-7.13588688139e-10,-6.45859810078e-10,-3.26548662243e-12
25185000000,1595,25185000000,,0.000156476002303,6.74527764204e-05,0.000273460289463,-7.47324424566e-10,-6.78375355889e-10,-3.43056160736e-12
25223000000,1596,25223000000,,0.000116108545626,2.89794697892e-05,0.000273269397439,-7.91010701384e-10,-7.73064501303e-10,-3.84958818295e-12
25253000000,1597,25253000000,,8.41819201014e-05,-1.41811040066e-06,0.000273112498689,-8.45650383052e-10,-7.68322905298e-10,-4.20300209567e-12
25271000000,1598,25271000000,,6.29376518191e-05,-2.11786064028e-05,0.000273004843621,-8.5293710983e-10,-8.10856048972e-10,-4.41607297605e-12
25297000000,1599,25297000000,,3.61345264537e-05,-4.70374579891e-05,0.000272864912404,-8.83253914452e-10,-8.51982484562e-10,-4.62943008581e-12
25320000000,1600,25320000000,,1.18460211525e-05,-6.97744690115e-05,0.00027273746673,-9.36679289687e-10,-8.42988623351e-10,-4.92050801146e-12
25336000000,1601,25336000000,,-1.06566521936e-05,-8.97048957995e-05,0.00027261764626,-9.37091182429e-10,-8.40259195556e-10,-5.10408165386e-12
25353000000,1602,25353000000,,-3.05769026454e-05,-0.000108046071546,0.000272505916655,-9.26119458899e-10,-8.72862782053e-10,-5.32962085922e-12
25370000000,1603,25370000000,,-5.17314874742e-05,-0.000127903345856,0.000272383826086,-9.53751411181e-10,-8.89860407582e-10,-5.58049526728e-12
25389000000,1604,25389000000,,-7.46252408135e-05,-0.000148581020767,0.000272248755209,-9.8578800678e-10,-8.57708681856e-10,-5.87835119123e-12
25405000000,1605,25405000000,,-9.40428217291e-05,-0.000165263554663,0.000272130564554,-9.52554812805e-10,-8.25731150123e-10,-5.94545983626e-12
25420000000,1606,25420000000,,-0.000111744353489,-0.000181076946319,0.000272016535746,-9.14184616896e-10,-8.34771529679e-10,-6.05138118434e-12
25439000000,1607,25439000000,,-0.000133574547363,-0.000201357106562,0.00027186863008,-8.84380624289e-10,-8.2654111333e-10,-6.12826369512e-12
25463000000,1608,25463000000,,-0.000159947085194,-0.000225291994866,0.000271682278253,-8.7787593861e-10,-7.65867147479e-10,-6.32996910097e-12
25482000000,1609,25482000000,,-0.000182752119144,-0.000244875758654,0.000271513737971,-8.25475854338e-10,-7.20502713047e-10,-6.32887058732e-12
25502000000,1610,25502000000,,-0.000204460913665,-0.000264524482191,0.000271340395557,-7.63644425472e-10,-7.11492309513e-10,-6.32090430344e-12
25516000000,1611,25516000000,,-0.000219096997171,-0.000278270541457,0.000271216937108,-7.37306826704e-10,-6.93503976468e-10,-6.33937910846e-12
25534000000,1612,25534000000,,-0.000234642895521,-0.000292625685688,0.00027108102222,-7.178855288e-10,-6.49065357017e-10,-6.38818251769e-12
25552000000,1613,25552000000,,-0.000252995552728,-0.000308633840177,0.000270913384156,-6.62070287483e-10,-5.74353564708e-10,-6.23564394564e-12
25571000000,1614,25571000000,,-0.000271256954875,-0.000324976776028,0.0002707321255,-5.82599191112e-10,-5.39245481601e-10,-6.07086343002e-12
25586000000,1615,25586000000,,-0.000285626243567,-0.000338548707077,0.000270577002084,-5.37100863784e-10,-5.12896225491e-10,-5.94847782143e-12
25604000000,1616,25604000000,,-0.000302840606309,-0.00035494173062,0.000270378252026,-4.89830009887e-10,-4.58346499643e-10,-5.84747918489e-12
25620000000,1617,25620000000,,-0.00031533287256,-0.000366233114619,0.00027022510767,-4.41719633093e-10,-3.9606845581e-10,-5.60502772667e-12
25634000000,1618,25634000000,,-0.00032549284515,-0.000375509844162,0.000270090153208,-3.90413534834e-10,-3.61563834428e-10,-5.397220431e-12
25644000000,1619,25644000000,,-0.000333522126311,-0.000383115635486,0.000269974407274,-3.48147149998e-10,-3.36399380574e-10,-5.20000188742e-12
25656000000,1620,25656000000,,-0.000342381274095,-0.00039186552749,0.000269836455118,-3.07729369764e-10,-3.08381514769e-10,-4.97473633468e-12
25668000000,1621,25668000000,,-0.000349422480213,-0.000398959993618,0.000269718118943,-2.78031236922e-10,-2.80274220499e-10,-4.81840956024e-12
25676000000,1622,25676000000,,-0.000354951509507,-0.000404481426813,0.000269619689789,-2.57793786318e-10,-2.54576582037e-10,-4.68408818677e-12
25688000000,1623,25688000000,,-0.000359717028914,-0.000409084750572,0.000269531068625,-2.36468955528e-10,-2.23767296359e-10,-4.49672894406e-12
25695000000,1624,25695000000,,-0.000364799925592,-0.000413865374867,0.000269429961918,-2.0597891448e-10,-1.94970012357e-10,-4.25754613856e-12
25713000000,1625,25713000000,,-0.000372402166249,-0.000421381701017,0.000269258365734,-1.5976876766e-10,-1.65356769943e-10,-3.91730094543e-12
25725000000,1626,25725000000,,-0.00037923650234,-0.000428752537118,0.000269071635557,-1.14906084647e-10,-1.29361160672e-10,-3.45374466873e-12
25738000000,1627,25738000000,,-0.000384243729059,-0.000434556190157,0.000268905248959,-8.46410233568e-11,-9.99922714073e-11,-3.08314940418e-12
25755000000,1628,25755000000,,-0.000389312161133,-0.000440450938186,0.000268697243882,-5.53795238833e-11,-6.17273315795e-11,-2.52811140078e-12
25772000000,1629,25772000000,,-0.000393066438846,-0.000444614735898,0.000268496369245,-2.99735514186e-11,-3.53191920155e-11,-1.92743173852e-12
25802000000,1630,25802000000,,-0.00039644955541,-0.000450089690275,0.000268096133368,-1.77451824936e-12,-7.88875388624e-12,-8.50821583326e-13
25827000000,1631,25827000000,,-0.0003958986199,-0.000451833097031,0.00026783006615,3.60340294929e-12,-2.52367549601e-12,-6.67067041795e-13
25846000000,1632,25846000000,,-0.000392701302189,-0.000451843196061,0.000267501425697,1.88656625044e-11,3.92274103825e-12,-1.37075008462e-12
25861000000,1633,25861000000,,-0.000389236258343,-0.000450795370853,0.000267291587079,3.82200590621e-11,1.37129830061e-11,-2.01266585863e-12
25880000000,1634,25880000000,,-0.000383058591979,-0.000448223203421,0.000267022027401,7.7960263245e-11,3.46074835456e-11,-2.95737696485e-12
25909000000,1635,25909000000,,-0.000370774359908,-0.000442449643742,0.000266627816018,1.54567386668e-10,7.72487421252e-11,-4.3685077257e-12
25941000000,1636,25941000000,,-0.000349908397766,-0.000431464693975,0.000266112969257,2.77258077608e-10,1.52589690883e-10,-6.1187747577e-12
25974000000,1637,25974000000,,-0.000324389024172,-0.000417790404754,0.000265611481154,4.44670189559e-10,2.34186808834e-10,-8.00785826538e-12
26029000000,1638,26029000000,,-0.000266396207735,-0.000385624414776,0.000264694390353,7.97160004673e-10,4.4639214547e-10,-1.13378299804e-11
26080000000,1639,26080000000,,-0.000194348438527,-0.000345807522535,0.000263766152784,1.19954179922e-09,6.76123379506e-10,-1.45173604041e-11
26113000000,1640,26113000000,,-0.000147503320477,-0.0003199079365,0.000263236113824,1.54190227253e-09,8.1944667718e-10,-1.67209527474e-11
26137000000,1641,26137000000,,-0.000105689170596,-0.000298243568977,0.00026280421298,0.00178118573967,0.000925119151361,-1.81197028724e-05
26153000000,1642,26153000000,,-7.66505181673e-05,-0.000283077300992,0.000262513232883,0.00182994420175,0.000963104015682,-1.82453622983e-05
26177000000,1643,26177000000,,-2.65032231255e-05,-0.000256813451415,0.000262097892119,0.00239526061341,0.00123493233696,-1.80370861926e-05
26201000000,1644,26201000000,,3.57249082299e-05,-0.000225895491894,0.000261645094724,0.00245850952342,0.00120004126802,-1.82228468475e-05
26275000000,1645,26275000000,,0.000177387715667,-0.000159458912094,0.000260256056208,1.26037635884e-09,5.28659116483e-10,-1.57708724552e-11
26310000000,1646,26310000000,,0.000217885972233,-0.000144362886203,0.000259598891716,5.51829582029e-10,1.87776585947e-10,-1.0414421929e-11
26332000000,1647,26332000000,,0.000230429592193,-0.000141869415529,0.000259166525211,9.18534137639e-11,7.34424153437e-12,-4.24041617791e-12
26351000000,1648,26351000000,,0.000239717483055,-0.000140309784911,0.000258776242845,1.1472194722e-10,2.11119455251e-11,-4.6850917243e-12
26373000000,1649,26373000000,,0.000256159459241,-0.000135303314892,0.00025837807334,4.51189502426e-10,1.49950621364e-10,-9.11424061223e-12
26405000000,1650,26405000000,,0.000288731622277,-0.000125350139569,0.000257764564594,4.86716000836e-10,1.32921590401e-10,-9.35628310939e-12
26442000000,1651,26442000000,,0.000310953852022,-0.00012227561092,0.000257081061136,1.39243477859e-10,1.08174372238e-11,-5.03825713788e-12
26456000000,1652,26456000000,,0.000316350662615,-0.000122681696666,0.000256811908912,4.97666630128e-11,-9.85767457246e-12,-3.0854307824e-12
26472000000,1653,26472000000,,0.00032376285526,-0.000122575191199,0.000256484374404,1.25673763063e-10,1.04274384266e-11,-4.85367171801e-12
26488000000,1654,26488000000,,0.000333377422066,-0.000120965996757,0.000256196013652,2.51543702534e-10,5.0208899538e-11,-6.88105041696e-12
26509000000,1655,26509000000,,0.00034670252353,-0.000119110307423,0.000255768973147,1.59078375472e-10,1.81594062704e-11,-5.52825060035e-12
26528000000,1656,26528000000,,0.000353850336978,-0.000119474578241,0.000255413528066,5.71087899193e-11,-8.07541013226e-12,-3.36957892144e-12
26547000000,1657,26547000000,,0.000360023492249,-0.000120526492537,0.000255014048889,4.40565535442e-11,-8.09569859067e-12,-3.0100845861e-12
26565000000,1658,26565000000,,0.000367215398001,-0.000120373188111,0.000254653306911,8.2406748092e-11,4.03609957955e-12,-4.08135157615e-12
26584000000,1659,26584000000,,0.000374919181922,-0.0001198503669,0.000254290964222,8.73291924885e-11,5.37469070985e-12,-4.22330009506e-12
26602000000,1660,26602000000,,0.000380799552659,-0.000120231045003,0.000253925012657,3.97676717945e-11,-5.75326938868e-12,-2.88526516047e-12
26617000000,1661,26617000000,,0.000383922044421,-0.000121455334011,0.000253595324466,1.46786454519e-11,-7.78923887196e-12,-1.87859558638e-12
26631000000,1662,26631000000,,0.000386453437386,-0.000122328303405,0.00025330481003,1.52379255047e-11,-4.74741903775e-12,-1.85920506421e-12
26646000000,1663,26646000000,,0.000389401073335,-0.000122732395539,0.00025301380083,2.13988791964e-11,-2.73768074183e-12,-2.150373846e-12
26661000000,1664,26661000000,,0.000392207177356,-0.000123365782201,0.000252679135883,1.234193997e-11,-3.77409648672e-12,-1.71150517803e-12
26675000000,1665,26675000000,,0.000393264635932,-0.000124363374198,0.000252405327046,2.84291253733e-12,-4.14448770442e-12,-1.04334412204e-12
26690000000,1666,26690000000,,0.000393594353227,-0.000125724545796,0.00025208684383,-1.1334527338e-13,-4.35168914792e-12,-1.00516578568e-12
26705000000,1667,26705000000,,0.000393672089558,-0.000126805200125,0.000251766265137,-2.74924072223e-13,-1.81927931921e-12,-6.38274481012e-13
26722000000,1668,26722000000,,0.000393399212044,-0.000127797131427,0.000251379795372,-1.45194262429e-12,-2.14041132908e-12,-7.86403169147e-13
26738000000,1669,26738000000,,0.000392142072087,-0.000128912361106,0.000251055345871,-7.62782805669e-12,-5.53088738003e-12,-1.51442183446e-12
26752000000,1670,26752000000,,0.000389855878893,-0.000130273969262,0.000250729266554,-1.90527801869e-11,-9.98028482774e-12,-2.2761653673e-12
26768000000,1671,26768000000,,0.000386550935218,-0.000131721317302,0.000250378478086,-2.93502756821e-11,-1.09830347941e-11,-2.76414915262e-12
26789000000,1672,26789000000,,0.000381525285775,-0.000133119174279,0.000249937089393,-3.90706286768e-11,-9.4260580244e-12,-3.14691957388e-12
26801000000,1673,26801000000,,0.000377994874725,-0.00013394857524,0.000249670731137,-4.93265220336e-11,-1.12426248866e-11,-3.53832718333e-12
26814000000,1674,26814000000,,0.000373129092623,-0.000135072739795,0.000249358563451,-7.07700842373e-11,-1.57550118784e-11,-4.25916723765e-12
26836000000,1675,26836000000,,0.000364469568012,-0.000136829650728,0.00024888740154,-1.02481530206e-10,-1.85827638e-11,-5.14387360831e-12
26854000000,1676,26854000000,,0.000355358904926,-0.000138105126098,0.000248457101407,-1.30103386398e-10,-1.47147207613e-11,-5.8215455026e-12
26871000000,1677,26871000000,,0.000346423184965,-0.000139050418511,0.000248069904046,-1.49150344853e-10,-1.51048080294e-11,-6.25670088655e-12
26887000000,1678,26887000000,,0.000337265868438,-0.00013997212227,0.000247703719651,-1.77584127958e-10,-1.71218907108e-11,-6.84463813752e-12
26899000000,1679,26899000000,,0.000329770642566,-0.00014069720055,0.000247428019065,-2.08700737248e-10,-1.93455824277e-11,-7.46736006363e-12
26914000000,1680,26914000000,,0.000319634942571,-0.000141530879773,0.000247080839472,-2.48765924526e-10,-1.79988714905e-11,-8.20451692696e-12
26928000000,1681,26928000000,,0.000309482857119,-0.000142058328493,0.000246755080298,-2.74693490177e-10,-1.18084708678e-11,-8.64194046185e-12
26956000000,1682,26956000000,,0.000290252268314,-0.000142839009641,0.000246169744059,-3.12658676727e-10,-1.13919663633e-11,-9.29187456145e-12
26973000000,1683,26973000000,,0.000273768033367,-0.000143389697769,0.000245698960498,-3.66209562674e-10,-1.0782085294e-11,-1.0115965357e-11
26994000000,1684,26994000000,,0.000254686339758,-0.000143805940752,0.000245199742494,-4.50373793814e-10,-3.88728502512e-12,-1.13236182583e-11
27023000000,1685,27023000000,,0.000228373275604,-0.000143854675116,0.000244552677032,-4.92188234613e-10,1.14074364104e-12,-1.19323839004e-11
27044000000,1686,27044000000,,0.000205125048524,-0.000143653393025,0.000243998380029,-5.35920419154e-10,7.55772267685e-12,-1.25203016357e-11
27063000000,1687,27063000000,,0.000189087440958,-0.000143372191815,0.000243634203798,-6.00792693373e-10,1.26759809246e-11,-1.33472495209e-11
27078000000,1688,27078000000,,0.000167665886693,-0.000142729870277,0.000243170783506,-6.55257570426e-10,2.17342411429e-11,-1.39930306925e-11
27110000000,1689,27110000000,,0.000130995555082,-0.000141445561894,0.00024238837068,-6.66567800955e-10,2.48902790739e-11,-1.41080151034e-11
27129000000,1690,27129000000,,0.000108664840809,-0.000140575488331,0.000241923131398,-7.19634629665e-10,2.8911695954e-11,-1.4737776971e-11
27147000000,1691,27147000000,,8.62745437189e-05,-0.000139417577884,0.000241480709519,-7.89535548051e-10,4.43793821137e-11,-1.54648949896e-11
27164000000,1692,27164000000,,6.59625511616e-05,-0.000138285569847,0.000241086716414,-8.07643674161e-10,4.51910557586e-11,-1.56763369646e-11
27188000000,1693,27188000000,,3.43473257089e-05,-0.000136655318784,0.000240470544668,-8.04754263228e-10,4.19277806918e-11,-1.56616265096e-11
27209000000,1694,27209000000,,9.99811527436e-06,-0.000135437207064,0.00024000016856,-8.4650325638e-10,4.37791573826e-11,-1.61596621501e-11
27235000000,1695,27235000000,,-2.53834732575e-05,-0.000133282737806,0.000239328815951,-8.47619585631e-10,5.44936283597e-11,-1.62370932671e-11
27260000000,1696,27260000000,,-5.91941970924e-05,-0.000130902422825,0.000238680702751,-8.45495340407e-10,6.20306028765e-11,-1.62529018022e-11
27283000000,1697,27283000000,,-8.83403190528e-05,-0.000128809202579,0.000238129170612,-9.01147823029e-10,6.63952920421e-11,-1.69046512899e-11
27299000000,1698,27299000000,,-0.000111059140181,-0.000127093473566,0.000237701067817,-8.78394412762e-10,6.58944426801e-11,-1.6743181494e-11
27329000000,1699,27329000000,,-0.000144683290273,-0.000124442420201,0.000237044252572,-8.0409084946e-10,6.67393224019e-11,-1.60493285328e-11
27356000000,1700,27356000000,,-0.00018245447427,-0.000121094781207,0.000236283041886,-7.950454739e-10,7.42737468751e-11,-1.60675379252e-11
27386000000,1701,27386000000,,-0.000219156761887,-0.000117334398965,0.000235521772993,-6.90220214317e-10,7.49043049808e-11,-1.49290718676e-11
27412000000,1702,27412000000,,-0.000248542957706,-0.000114004396892,0.000234864884987,-6.10502315368e-10,7.11632003325e-11,-1.40047478822e-11
27437000000,1703,27437000000,,-0.000275952392258,-0.00011076064402,0.000234232400544,-5.78102954396e-10,7.32443689033e-11,-1.36583851867e-11
27451000000,1704,27451000000,,-0.000291723583359,-0.000108736894617,0.000233852886595,-5.38587896504e-10,7.05688285585e-11,-1.31922198859e-11
27470000000,1705,27470000000,,-0.000310653966153,-0.000106093502836,0.000233372513321,-4.70295968835e-10,6.90120252611e-11,-1.23098276364e-11
27494000000,1706,27494000000,,-0.000332754745614,-0.000102699246781,0.000232765756664,-3.99827587705e-10,6.31678598317e-11,-1.14046133648e-11
27516000000,1707,27516000000,,-0.000349876383552,-9.98251343844e-05,0.000232258607866,-3.38327560412e-10,6.00457808475e-11,-1.05150653809e-11
27535000000,1708,27535000000,,-0.000366156367818,-9.67810847214e-05,0.000231725585763,-2.71818872966e-10,5.42187753028e-11,-9.44700134092e-12
27559000000,1709,27559000000,,-0.000382119498681,-9.34702766244e-05,0.000231142097618,-2.21429888314e-10,4.77409708988e-11,-8.55517046094e-12
27578000000,1710,27578000000,,-0.00039462611312,-9.06109780772e-05,0.00023063235858,-1.79639234044e-10,4.50041427735e-11,-7.77401840818e-12
27598000000,1711,27598000000,,-0.000405201426474,-8.76179619809e-05,0.000230121455388,-1.17909931818e-10,3.70161228058e-11,-6.35344251168e-12
27622000000,1712,27622000000,,-0.000413957139244,-8.44639580464e-05,0.00022958451882,-7.28461180266e-11,2.98969841939e-11,-5.08047033262e-12
27642000000,1713,27642000000,,-0.000420777243562,-8.13814622234e-05,0.000229046112509,-4.65706952169e-11,2.31580553345e-11,-4.16283153781e-12
27663000000,1714,27663000000,,-0.000426304352004,-7.81133494456e-05,0.000228453718591,-2.19621196229e-11,1.62639970935e-11,-3.02610844369e-12
27684000000,1715,27684000000,,-0.000428756087786,-7.54828070058e-05,0.000227963115321,-5.89954430794e-12,1.06637875613e-11,-1.99990089593e-12
27711000000,1716,27711000000,,-0.000428554223618,-7.17386137694e-05,0.000227264521527,6.50065201321e-12,1.10183017224e-11,-2.12026360011e-12
27729000000,1717,27729000000,,-0.0004258909903,-6.90371743985e-05,0.000226743752137,2.12244197911e-11,1.55739258295e-11,-3.00927728916e-12
27748000000,1718,27748000000,,-0.000421481905505,-6.6636763222e-05,0.000226247633691,4.20426575498e-11,1.81634794011e-11,-3.95314466925e-12
27770000000,1719,27770000000,,-0.000413953704992,-6.4156454755e-05,0.000225672600209,8.51361620091e-11,2.22030848568e-11,-5.50184724168e-12
27790000000,1720,27790000000,,-0.000404500548029,-6.21345316176e-05,0.000225147072342,1.42657136104e-10,2.5768838452e-11,-7.10018198749e-12
27808000000,1721,27808000000,,-0.000393909343984,-6.03547778155e-05,0.00022467202507,2.04269171022e-10,3.01347523324e-11,-8.49305955425e-12
27826000000,1722,27826000000,,-0.000382313533919,-5.8888381318e-05,0.000224222094403,2.63141813894e-10,2.8942284333e-11,-9.63418581024e-12
27843000000,1723,27843000000,,-0.000369148299797,-5.76971833652e-05,0.000223771974561,3.40219047379e-10,2.55098390328e-11,-1.09483082322e-11
27854000000,1724,27854000000,,-0.000359657948138,-5.70803531446e-05,0.00022347967024,4.01426974994e-10,2.29786849271e-11,-1.19413567576e-11
27869000000,1725,27869000000,,-0.000345385604305,-5.63510329812e-05,0.000223079361604,4.94232488268e-10,2.41543035573e-11,-1.32961237506e-11
27888000000,1726,27888000000,,-0.000324490916682,-5.55676160729e-05,0.000222543967539,5.91795723537e-10,1.5184882865e-11,-1.45891857622e-11
27904000000,1727,27904000000,,-0.000307622976834,-5.53052814212e-05,0.000222141519771,6.68900212997e-10,5.31724317354e-12,-1.55173426192e-11
27920000000,1728,27920000000,,-0.000288192619337,-5.53244244657e-05,0.000221711830818,7.94079246802e-10,-6.60593151361e-12,-1.69666260208e-11
27936000000,1729,27936000000,,-0.000265766604571,-5.5664251704e-05,0.000221252703341,9.38888966573e-10,-1.81257110016e-11,-1.85498942595e-11
27951000000,1730,27951000000,,-0.000246035197051,-5.60392036277e-05,0.000220873276703,1.02963626514e-09,-2.42988459215e-11,-1.94702327178e-11
27966000000,1731,27966000000,,-0.00022402612376,-5.67175047763e-05,0.000220465633902,1.11338260833e-09,-4.10534488349e-11,-2.03072784283e-11
27972000000,1732,27972000000,,-0.000214983170736,-5.70782467548e-05,0.000220302346861,1.15565357284e-09,-4.85349642421e-11,-2.06948434084e-11
27978000000,1733,27978000000,,-0.00020729865355,-5.74146251893e-05,0.00022016625735,1.20079690635e-09,-5.35451058492e-11,-2.11078862722e-11
27990000000,1734,27990000000,,-0.000188299090951,-5.83046967222e-05,0.000219838824705,1.30351995864e-09,-6.33401386896e-11,-2.21052100235e-11
27996000000,1735,27996000000,,-0.000178508780664,-5.88094189879e-05,0.000219674300752,1.36182676247e-09,-8.25548102101e-11,-2.26732591035e-11
28010000000,1736,28010000000,,-0.000151397180161,-6.05021305091e-05,0.00021923307213,1.50933132659e-09,-9.35820795855e-11,-2.40633919041e-11
28026000000,1737,28026000000,,-0.000123192789033,-6.22233128524e-05,0.000218788976781,1.59215396422e-09,-1.01621738802e-10,-2.48663797886e-11
28050000000,1738,28050000000,,-8.14807572169e-05,-6.47785855108e-05,0.000218145869439,1.69718572529e-09,-1.04711156412e-10,-2.58479106174e-11
28068000000,1739,28068000000,,-4.15634349338e-05,-6.72039095662e-05,0.000217554566916,1.90099447295e-09,-1.17345147488e-10,-2.76259518733e-11
28090000000,1740,28090000000,,6.12515407283e-07,-6.99493102729e-05,0.000216957414523,0.0020392886363,-0.000132663946715,-2.85279838863e-05
28110000000,1741,28110000000,,3.97491530748e-05,-7.2793700383e-05,0.000216413434828,0.00206694519147,-0.000160328025231,-2.87114817183e-05
28130000000,1742,28130000000,,8.73519165907e-05,-7.64242286095e-05,0.000215867636143,0.00267260032706,-0.000204339055927,-2.87689799734e-05
28149000000,1743,28149000000,,0.00014281917538,-8.06751704658e-05,0.000215289372136,0.00277717201971,-0.000213568069739,-2.90459465759e-05
28175000000,1744,28175000000,,0.000206568991416,-8.56613041833e-05,0.000214530198718,0.00221831467934,-0.00018511217786,-2.9330378311e-05
28195000000,1745,28195000000,,0.000245381495915,-8.9234636107e-05,0.000213941937545,1.59168078717e-09,-1.57062168826e-10,-2.63258182615e-11
28213000000,1746,28213000000,,0.000274089979939,-9.21627724892e-05,0.00021344095876,1.3034351376e-09,-1.37329744798e-10,-2.39005794322e-11
28230000000,1747,28230000000,,0.000294359226245,-9.44118291955e-05,0.000212938859477,5.03688701858e-10,-5.60723099896e-11,-1.48592631255e-11
28247000000,1748,28247000000,,0.000309734314214,-9.62231788435e-05,0.000212437909795,3.56683738101e-10,-4.73264830103e-11,-1.24855412467e-11
28268000000,1749,28268000000,,0.000332758558216,-9.93434441625e-05,0.00021185092919,6.79485245847e-10,-9.9976991963e-11,-1.71491414819e-11
28285000000,1750,28285000000,,0.000357677898137,-0.000102869853436,0.000211295468034,9.3848184779e-10,-1.34780173133e-10,-2.01559931939e-11
28299000000,1751,28299000000,,0.000373265880626,-0.000105267885374,0.000210914309719,6.57018384143e-10,-1.0445609655e-10,-1.69336818873e-11
28309000000,1752,28309000000,,0.000383337959647,-0.00010714144446,0.000210590762435,3.72438274665e-10,-7.42141140209e-11,-1.2831277707e-11
28326000000,1753,28326000000,,0.000397379975766,-0.000110271517769,0.000210117752431,3.92970350704e-10,-9.42702443885e-11,-1.33255368545e-11
28333000000,1754,28333000000,,0.000405160302762,-0.000112048401206,0.000209880337934,5.8714899609e-10,-1.2779792502e-10,-1.62839082496e-11
28348000000,1755,28348000000,,0.000421176693635,-0.000115589267807,0.000209434598219,5.81108383635e-10,-1.30303656753e-10,-1.62443704321e-11
28366000000,1756,28366000000,,0.000437925045844,-0.000119477466797,0.000208956582355,5.44793821167e-10,-1.29936381099e-10,-1.58631458663e-11
28387000000,1757,28387000000,,0.000456565991044,-0.000124410464196,0.000208324912819,3.20713455793e-10,-9.51265871629e-11,-1.23403492286e-11
28409000000,1758,28409000000,,0.000471923645819,-0.000130148764583,0.000207628385397,2.08575268168e-10,-8.78647085645e-11,-1.02149053105e-11
28426000000,1759,28426000000,,0.000483523355797,-0.000134861533297,0.000207111530472,2.53124798899e-10,-1.04774855458e-10,-1.12822086742e-11
28443000000,1760,28443000000,,0.000496067397762,-0.000139738083817,0.000206591517781,2.97283531125e-10,-1.13848160066e-10,-1.22394386293e-11
28463000000,1761,28463000000,,0.000509538978804,-0.000145183774293,0.000205976786674,2.10475539775e-10,-9.28593729688e-11,-1.04581048682e-11
28484000000,1762,28484000000,,0.00051982147852,-0.0001510361908,0.000205328018637,1.14172865606e-10,-7.4104035408e-11,-8.07606672509e-12
28502000000,1763,28502000000,,0.00052755739307,-0.000156583482749,0.000204738957109,9.11949543658e-11,-7.05195415951e-11,-7.4729554142e-12
28521000000,1764,28521000000,,0.000535299128387,-0.000162162963534,0.000204146053875,9.34658878071e-11,-6.76958905599e-11,-7.51270833738e-12
28532000000,1765,28532000000,,0.000539083266631,-0.000164955825312,0.00020383312949,8.79091244244e-11,-6.59514873269e-11,-7.34938498947e-12
28535000000,1766,28535000000,,0.000540126173291,-0.000165798410308,0.000203739124117,6.39528083268e-11,-5.79838746462e-11,-6.50620312834e-12
28545000000,1767,28545000000,,0.000542860012501,-0.000168609374668,0.00020342519565,4.0973224813e-11,-5.09922659653e-11,-5.67808950899e-12
28553000000,1768,28553000000,,0.000544333364815,-0.000170590850757,0.00020320508338,3.45437463356e-11,-4.92842225364e-11,-5.46602390086e-12
28564000000,1769,28564000000,,0.0005466134171,-0.000174306187546,0.000202796058147,2.98315053215e-11,-4.88377012442e-11,-5.34785844081e-12
28579000000,1770,28579000000,,0.000549144169781,-0.00017859833315,0.000202322728001,2.48023008381e-11,-4.56964813211e-11,-5.09855569222e-12
28594000000,1771,28594000000,,0.000551165139768,-0.000182740943274,0.000201847215067,1.43839662403e-11,-3.72715296126e-11,-4.51141858246e-12
28610000000,1772,28610000000,,0.000551588775124,-0.00018686898693,0.000201338494662,-1.67014069675e-12,-3.36995570338e-11,-4.16372318568e-12
28633000000,1773,28633000000,,0.00054952542996,-0.000192241190234,0.000200668568141,-2.24234623925e-11,-3.7337660741e-11,-4.70804948846e-12
28648000000,1774,28648000000,,0.000546665745787,-0.000196251625312,0.000200157155632,-3.37656951011e-11,-3.97322452717e-11,-5.16357963332e-12
28662000000,1775,28662000000,,0.000543811242096,-0.000199411195354,0.000199739792151,-3.97371163752e-11,-3.99672621387e-11,-5.42060406977e-12
28681000000,1776,28681000000,,0.000538116786629,-0.000203833929845,0.000199096160941,-6.40566974464e-11,-4.22831318569e-11,-6.31225497219e-12
28699000000,1777,28699000000,,0.000531094963662,-0.000207644552574,0.000198515917873,-1.02853524309e-10,-4.96939052408e-11,-7.70158416208e-12
28715000000,1778,28715000000,,0.000523529248312,-0.000210996222449,0.000198001376702,-1.39814493316e-10,-5.88125104173e-11,-8.85091305802e-12
28735000000,1779,28735000000,,0.000512571365107,-0.000215348627535,0.000197361441678,-1.89209786727e-10,-6.83841872018e-11,-1.01332804994e-11
28750000000,1780,28750000000,,0.000503817049321,-0.000217874097871,0.000196917186258,-2.19638182641e-10,-5.90921547805e-11,-1.06774381003e-11
28770000000,1781,28770000000,,0.000488259305712,-0.000221867056098,0.00019622372929,-2.88709584018e-10,-7.38474212336e-11,-1.21327453292e-11
28790000000,1782,28790000000,,0.000473053980386,-0.000226105781621,0.000195627872017,-3.7077907411e-10,-1.04615739682e-10,-1.37534671152e-11
28800000000,1783,28800000000,,0.000461567455204,-0.000229439494433,0.000195219734451,-4.36792602088e-10,-1.2200294941e-10,-1.49680042666e-11
28823000000,1784,28823000000,,0.000441256561317,-0.000234291088418,0.000194560969248,-5.16542475459e-10,-1.15456151584e-10,-1.61245201219e-11
28853000000,1785,28853000000,,0.000409670639783,-0.000241004920099,0.000193621934159,-6.18349760284e-10,-1.24544319302e-10,-1.75417978754e-11
28873000000,1786,28873000000,,0.00038641737774,-0.000245535804424,0.000192996056285,-7.50090600743e-10,-1.36996247679e-10,-1.93521084574e-11
28888000000,1787,28888000000,,0.000365913438145,-0.000249008851824,0.00019249394245,-8.73438488203e-10,-1.3658289777e-10,-2.08585093642e-11
28906000000,1788,28906000000,,0.000344508502167,-0.000252246740274,0.000191992061445,-9.29189447607e-10,-1.36520572624e-10,-2.14993960135e-11
28933000000,1789,28933000000,,0.000308689661324,-0.000257111503743,0.000191178085515,-1.00098163092e-09,-1.24197582774e-10,-2.22086758705e-11
28953000000,1790,28953000000,,0.00027800994576,-0.000260575092398,0.000190520164324,-1.14938025764e-09,-1.15026300984e-10,-2.38449381768e-11
28968000000,1791,28968000000,,0.000254641898209,-0.000262740097241,0.00019004906062,-1.2533337701e-09,-1.12818490661e-10,-2.49410683079e-11
28984000000,1792,28984000000,,0.000227321143029,-0.000265138427494,0.000189513593796,-1.31635791156e-09,-1.11864892349e-10,-2.5630329456e-11
29007000000,1793,29007000000,,0.000189582380699,-0.000267996394541,0.000188788413652,-1.39920186548e-09,-9.3453668415e-11,-2.64434620034e-11
29024000000,1794,29024000000,,0.000162347059813,-0.000269580079475,0.00018828206521,-1.5051573321e-09,-7.57267998308e-11,-2.75224981694e-11
29044000000,1795,29044000000,,0.000125217498862,-0.000271113589406,0.000187615209143,-1.57883384144e-09,-5.9282377618e-11,-2.82688698838e-11
29063000000,1796,29063000000,,9.12604591576e-05,-0.000272340985248,0.000187010024092,-1.59356539076e-09,-5.24532015045e-11,-2.84549796919e-11
29082000000,1797,29082000000,,5.68260875298e-05,-0.000273276062217,0.000186404096894,-1.67664115924e-09,-3.63275277915e-11,-2.92623252018e-11
29103000000,1798,29103000000,,1.94330405066e-05,-0.000273723126156,0.000185763215995,-1.80129644534e-09,-3.35824467193e-12,-3.04641520343e-11
29121000000,1799,29121000000,,-1.28215579025e-05,-0.000273586279945,0.000185216747923,-1.78159476061e-09,1.50916640296e-11,-3.03977155947e-11
29143000000,1800,29143000000,,-5.78234503337e-05,-0.000272896606475,0.000184442207683,-1.74709180456e-09,3.95966731626e-11,-3.02014281639e-11
29171000000,1801,29171000000,,-0.000110979104647,-0.000271378725301,0.000183533033123,-1.85787829565e-09,7.17856121768e-11,-3.14503180443e-11
29193000000,1802,29193000000,,-0.000151571599417,-0.000269411248155,0.000182846488315,-1.82579529273e-09,1.02468665497e-10,-3.1324703248e-11
29210000000,1803,29210000000,,-0.000185688302736,-0.000267108553089,0.000182255724212,-1.7644996575e-09,1.35898903242e-10,-3.08985788344e-11
29232000000,1804,29232000000,,-0.000224993680604,-0.000263674242888,0.000181564610102,-1.76343217806e-09,1.69183181353e-10,-3.10740738696e-11
29256000000,1805,29256000000,,-0.000271926954156,-0.000258772983216,0.000180736285984,-1.73211278653e-09,1.99013333591e-10,-3.10070510934e-11
29279000000,1806,29279000000,,-0.00031006266363,-0.000254047918133,0.000180037823156,-1.58066393308e-09,2.13866202525e-10,-2.9725100853e-11
29303000000,1807,29303000000,,-0.000353699520929,-0.000247453426709,0.00017920540995,-1.50125489817e-09,2.4539004162e-10,-2.90965480876e-11
29330000000,1808,29330000000,,-0.000398188189138,-0.000239543762291,0.000178335569217,-1.42357703403e-09,2.74540890022e-10,-2.85239661751e-11
29351000000,1809,29351000000,,-0.000433728186181,-0.000232090125792,0.000177597685251,-1.24039722937e-09,2.82959461417e-10,-2.67753388905e-11
29379000000,1810,29379000000,,-0.000475909764646,-0.000221668786253,0.00017665726773,-1.1053643556e-09,2.91583091006e-10,-2.54582882553e-11
29409000000,1811,29409000000,,-0.000520003959537,-0.000209231613553,0.000175610693987,-9.48208955798e-10,2.94873653273e-10,-2.38328089902e-11
29429000000,1812,29429000000,,-0.000545772665646,-0.000200446971576,0.000174933491508,-8.06105293627e-10,2.98392255349e-10,-2.22079177964e-11
29455000000,1813,29455000000,,-0.000576314690989,-0.000188090329175,0.000174051194335,-6.82986944778e-10,2.95163699038e-10,-2.07663348323e-11
29472000000,1814,29472000000,,-0.00059479061747,-0.000179780297913,0.000173471868038,-5.98528837603e-10,2.85370449493e-10,-1.96382840545e-11
29485000000,1815,29485000000,,-0.000607723777648,-0.000173270935193,0.000173028252902,-5.14528586404e-10,2.73539690898e-10,-1.84378363272e-11
29502000000,1816,29502000000,,-0.000621981045697,-0.000164977886016,0.000172481581103,-4.16737172548e-10,2.62753152569e-10,-1.69633508629e-11
29527000000,1817,29527000000,,-0.000639521167614,-0.000152549910126,0.000171694991877,-3.08321701503e-10,2.41732939221e-10,-1.51789431718e-11
29552000000,1818,29552000000,,-0.000655599986203,-0.000138284362038,0.000170801897184,-2.04810862714e-10,2.13877957012e-10,-1.32439718914e-11
29572000000,1819,29572000000,,-0.000664736900944,-0.000126938495669,0.000170113271452,-1.34868005652e-10,2.01750088857e-10,-1.20075113047e-11
29593000000,1820,29593000000,,-0.000671329151373,-0.000114565533295,0.000169389619259,-7.92327453647e-11,1.90936225164e-10,-1.11014374776e-11
29617000000,1821,29617000000,,-0.000675380113535,-9.9179247627e-05,0.000168489903444,-1.95142148968e-11,1.76139158814e-10,-1.03241850832e-11
29641000000,1822,29641000000,,-0.000674501934554,-8.48533964017e-05,0.000167657606653,3.9959889564e-11,1.86759649412e-10,-1.07343916741e-11
29664000000,1823,29664000000,,-0.000669364351779,-7.08197767381e-05,0.000166859652381,1.06757484797e-10,2.08529984946e-10,-1.19035085608e-11
29686000000,1824,29686000000,,-0.000661174650304,-5.81325293751e-05,0.000166128462297,1.76834172305e-10,2.25903268314e-10,-1.32097145722e-11
29704000000,1825,29704000000,,-0.000650854490232,-4.66690726171e-05,0.000165465535247,2.63285115931e-10,2.59737065189e-10,-1.50244816588e-11
29723000000,1826,29723000000,,-0.000637639954221,-3.50999143848e-05,0.000164802040672,3.74358211097e-10,2.97803004479e-10,-1.70698420676e-11
29744000000,1827,29744000000,,-0.000619461468887,-2.24687992159e-05,0.000164068653248,5.30832877654e-10,3.29556659739e-10,-1.95591928071e-11
29763000000,1828,29763000000,,-0.0005998252891,-1.15094362627e-05,0.00016340331058,6.85797807431e-10,3.54676982228e-10,-2.1765287489e-11
29783000000,1829,29783000000,,-0.000576248799916,-8.89637874479e-08,0.000162702039233,8.50494563664e-10,3.88873933055e-10,-2.39935918356e-11
29803000000,1830,29803000000,,-0.000549708609469,1.12650541269e-05,0.000162000826094,1.0617822177e-09,4.22135215672e-10,-2.64912917991e-11
29826000000,1831,29826000000,,-0.000514804909471,2.36828745983e-05,0.000161193180247,1.36418587537e-09,4.35422281564e-10,-2.97491371815e-11
29847000000,1832,29847000000,,-0.000480914895888,3.38466379617e-05,0.000160489798873,1.59447532955e-09,4.53274279222e-10,-3.20333898296e-11
29856000000,1833,29856000000,,-0.000462988391519,3.88311527786e-05,0.000160137773491,1.71517267056e-09,4.66980620839e-10,-3.31943569853e-11
29878000000,1834,29878000000,,-0.000423097022576,4.90507227369e-05,0.000159399016411,0.00197324692272,0.00046997066238,-3.51607959601e-05
29892000000,1835,29892000000,,-0.000394600676373,5.54018224648e-05,0.00015890612849,0.0020874242764,0.000437661947217,-3.52393290086e-05
29910000000,1836,29910000000,,-0.000344538129866,6.53464740026e-05,0.000158229348017,0.00277372240089,0.000528435164597,-3.56857090082e-05
29926000000,1837,29926000000,,-0.000300615938613,7.33350534574e-05,0.000157692440553,0.00292963371612,0.000513793725986,-3.57824064849e-05
29942000000,1838,29942000000,,-0.000254339131061,8.05380914244e-05,0.000157087706611,0.00261804298498,0.000370420544641,-3.54088406311e-05
