%time,field.header.seq,field.header.stamp,field.header.frame_id,field.angular_velocities0,field.angular_velocities1,field.angular_velocities2,field.angular_velocities3
22739000000,1419,22739000000,,433.555899763,433.563724648,433.555899763,433.563724648
22755000000,1420,22755000000,,430.641465451,430.649290337,430.641465451,430.649290337
22766000000,1421,22766000000,,435.110630684,435.118455569,435.110630684,435.118455569
22782000000,1422,22782000000,,431.748142549,431.755967434,431.748142549,431.755967434
22789000000,1423,22789000000,,432.90934312,432.917106628,432.90934312,432.917106628
22805000000,1424,22805000000,,431.216077312,431.223840821,431.216077312,431.223840821
22817000000,1425,22817000000,,431.982411027,431.990174536,431.982411027,431.990174536
22831000000,1426,22831000000,,434.17033119,434.178094698,434.17033119,434.178094698
22845000000,1427,22845000000,,433.262192155,433.269990594,433.262192155,433.269990594
22859000000,1428,22859000000,,431.434027155,431.441825594,431.434027155,431.441825594
22872000000,1429,22872000000,,431.497713501,431.50551194,431.497713501,431.50551194
22888000000,1430,22888000000,,435.061783431,435.06958187,435.061783431,435.06958187
22899000000,1431,22899000000,,428.228129193,428.236039702,428.228129193,428.236039702
22916000000,1432,22916000000,,433.060738222,433.068648732,433.060738222,433.068648732
22931000000,1433,22931000000,,431.367573053,431.375483563,431.367573053,431.375483563
22946000000,1434,22946000000,,431.251902149,431.259812658,431.251902149,431.259812658
22961000000,1435,22961000000,,433.852597711,433.860588391,433.852597711,433.860588391
22976000000,1436,22976000000,,433.445525039,433.453515719,433.445525039,433.453515719
22992000000,1437,22992000000,,431.338906233,431.346896913,431.338906233,431.346896913
23007000000,1438,23007000000,,430.12860266,430.13659334,430.12860266,430.13659334
23019000000,1439,23019000000,,431.438290176,431.446403254,431.438290176,431.446403254
23030000000,1440,23030000000,,431.793703932,431.80181701,431.793703932,431.80181701
23042000000,1441,23042000000,,430.261114005,430.269227083,430.261114005,430.269227083
23053000000,1442,23053000000,,433.014016354,433.022129432,433.014016354,433.022129432
23064000000,1443,23064000000,,432.439587445,432.447529761,432.439587445,432.447529761
23074000000,1444,23074000000,,430.683846342,430.691788659,430.683846342,430.691788659
23089000000,1445,23089000000,,432.080516514,432.08845883,432.080516514,432.08845883
23102000000,1446,23102000000,,431.53225283,431.540195146,431.53225283,431.540195146
23116000000,1447,23116000000,,433.565523768,433.573507084,433.565523768,433.573507084
23130000000,1448,23130000000,,432.182068419,432.190051734,432.182068419,432.190051734
23145000000,1449,23145000000,,429.588941016,429.596924331,429.588941016,429.596924331
23161000000,1450,23161000000,,434.631991623,434.639974938,434.631991623,434.639974938
23174000000,1451,23174000000,,429.047113659,429.055330626,429.047113659,429.055330626
23189000000,1452,23189000000,,433.048285817,433.056502784,433.048285817,433.056502784
23202000000,1453,23202000000,,430.974292944,430.98250991,430.974292944,430.98250991
23215000000,1454,23215000000,,429.926559293,429.934776259,429.926559293,429.934776259
23229000000,1455,23229000000,,431.032431839,431.040597982,431.032431839,431.040597982
23245000000,1456,23245000000,,431.287974402,431.296140545,431.287974402,431.296140545
23258000000,1457,23258000000,,433.721570245,433.729736388,433.721570245,433.729736388
23273000000,1458,23273000000,,432.614320788,432.622486931,432.614320788,432.622486931
23289000000,1459,23289000000,,432.618801693,432.627058889,432.618801693,432.627058889
23304000000,1460,23304000000,,433.35456299,433.362820186,433.35456299,433.362820186
23320000000,1461,23320000000,,432.700442469,432.708699665,432.700442469,432.708699665
23337000000,1462,23337000000,,432.847444836,432.855702032,432.847444836,432.855702032
23350000000,1463,23350000000,,433.023411123,433.031756222,433.023411123,433.031756222
23366000000,1464,23366000000,,431.057646034,431.065991133,431.057646034,431.065991133
23380000000,1465,23380000000,,432.871933232,432.880278331,432.871933232,432.880278331
23397000000,1466,23397000000,,433.192693372,433.201038471,433.192693372,433.201038471
23413000000,1467,23413000000,,434.058975199,434.067333387,434.058975199,434.067333387
23426000000,1468,23426000000,,431.419348199,431.427706386,431.419348199,431.427706386
23440000000,1469,23440000000,,431.459364814,431.467723002,431.459364814,431.467723002
23454000000,1470,23454000000,,435.968979396,435.977337583,435.968979396,435.977337583
23469000000,1471,23469000000,,431.380405672,431.388788164,431.380405672,431.388788164
23481000000,1472,23481000000,,433.747248509,433.755631002,433.747248509,433.755631002
23495000000,1473,23495000000,,432.478314347,432.486696839,432.478314347,432.486696839
23508000000,1474,23508000000,,433.61746428,433.625846773,433.61746428,433.625846773
23521000000,1475,23521000000,,431.222150864,431.230511873,431.222150864,431.230511873
23533000000,1476,23533000000,,431.026191228,431.034552236,431.026191228,431.034552236
23546000000,1477,23546000000,,432.95269551,432.961056519,432.95269551,432.961056519
23563000000,1478,23563000000,,432.562035782,432.570396791,432.562035782,432.570396791
23576000000,1479,23576000000,,434.845493816,434.853875571,434.845493816,434.853875571
23590000000,1480,23590000000,,430.34684666,430.355228414,430.34684666,430.355228414
23604000000,1481,23604000000,,430.578565688,430.586947443,430.578565688,430.586947443
23620000000,1482,23620000000,,429.524957087,429.533338842,429.524957087,429.533338842
23635000000,1483,23635000000,,433.393613465,433.402084457,433.393613465,433.402084457
23648000000,1484,23648000000,,431.464138436,431.472609428,431.464138436,431.472609428
23658000000,1485,23658000000,,433.729209105,433.737680098,433.729209105,433.737680098
23666000000,1486,23666000000,,430.785905647,430.794376639,430.785905647,430.794376639
23680000000,1487,23680000000,,430.802178895,430.810549857,430.802178895,430.810549857
23693000000,1488,23693000000,,431.029242209,431.037613171,431.029242209,431.037613171
23708000000,1489,23708000000,,431.816663548,431.825034511,431.816663548,431.825034511
23724000000,1490,23724000000,,432.21182061,432.220191573,432.21182061,432.220191573
23736000000,1491,23736000000,,431.230837002,431.239331043,431.230837002,431.239331043
23749000000,1492,23749000000,,430.37617179,430.384665832,430.37617179,430.384665832
23763000000,1493,23763000000,,434.081683329,434.09017737,434.081683329,434.09017737
23778000000,1494,23778000000,,433.271665719,433.280159761,433.271665719,433.280159761
23791000000,1495,23791000000,,431.113192168,431.121681032,431.113192168,431.121681032
23801000000,1496,23801000000,,432.024756488,432.033245352,432.024756488,432.033245352
23811000000,1497,23811000000,,431.016827719,431.025316583,431.016827719,431.025316583
23824000000,1498,23824000000,,431.734772268,431.743261132,431.734772268,431.743261132
23840000000,1499,23840000000,,432.034116303,432.042546227,432.034116303,432.042546227
23857000000,1500,23857000000,,429.930527956,429.938957879,429.930527956,429.938957879
23875000000,1501,23875000000,,431.026771844,431.035201767,431.026771844,431.035201767
23886000000,1502,23886000000,,431.408343338,431.416773261,431.408343338,431.416773261
23897000000,1503,23897000000,,431.062574911,431.071141904,431.062574911,431.071141904
23909000000,1504,23909000000,,434.395113099,434.403680093,434.395113099,434.403680093
23924000000,1505,23924000000,,434.394976459,434.403543452,434.394976459,434.403543452
23940000000,1506,23940000000,,430.317738475,430.326305468,430.317738475,430.326305468
23953000000,1507,23953000000,,433.099699281,433.129997998,433.099699281,433.129997998
23968000000,1508,23968000000,,433.338759423,433.36905814,433.338759423,433.36905814
23984000000,1509,23984000000,,434.211452979,434.241751696,434.211452979,434.241751696
23998000000,1510,23998000000,,435.616406241,435.646704958,435.616406241,435.646704958
24011000000,1511,24011000000,,433.866152335,433.874437257,433.866152335,433.874437257
24025000000,1512,24025000000,,433.431348811,433.439633733,433.431348811,433.439633733
24039000000,1513,24039000000,,433.051336597,433.05962152,433.051336597,433.05962152
24055000000,1514,24055000000,,432.231864179,432.240149101,432.231864179,432.240149101
24068000000,1515,24068000000,,430.628530216,430.618459908,430.628530216,430.618459908
24081000000,1516,24081000000,,431.660635483,431.650565175,431.660635483,431.650565175
24097000000,1517,24097000000,,431.497004813,431.486934505,431.497004813,431.486934505
24111000000,1518,24111000000,,434.003523504,433.993453195,434.003523504,433.993453195
24125000000,1519,24125000000,,431.697717901,431.706290051,431.697717901,431.706290051
24134000000,1520,24134000000,,429.846729468,429.855301619,429.846729468,429.855301619
24143000000,1521,24143000000,,431.087618851,431.096191001,431.087618851,431.096191001
24153000000,1522,24153000000,,428.400255337,428.408827488,428.400255337,428.408827488
24168000000,1523,24168000000,,433.439030499,433.44752866,433.439030499,433.44752866
24181000000,1524,24181000000,,429.735279675,429.743777836,429.735279675,429.743777836
24196000000,1525,24196000000,,432.083161705,432.091659866,432.083161705,432.091659866
24211000000,1526,24211000000,,432.497380362,432.505878524,432.497380362,432.505878524
24224000000,1527,24224000000,,433.415415399,433.424002353,433.415415399,433.424002353
24238000000,1528,24238000000,,433.23755307,433.246140024,433.23755307,433.246140024
24250000000,1529,24250000000,,432.572379454,432.580966408,432.572379454,432.580966408
24263000000,1530,24263000000,,433.658531951,433.667118906,433.658531951,433.667118906
24275000000,1531,24275000000,,432.681268527,432.689818329,432.681268527,432.689818329
24286000000,1532,24286000000,,431.64315753,431.651707332,431.64315753,431.651707332
24295000000,1533,24295000000,,430.691455213,430.700005015,430.691455213,430.700005015
24306000000,1534,24306000000,,430.692897027,430.701446829,430.692897027,430.701446829
24322000000,1535,24322000000,,431.729971503,431.738530573,431.729971503,431.738530573
24335000000,1536,24335000000,,431.277972858,431.286531928,431.277972858,431.286531928
24348000000,1537,24348000000,,430.605114885,430.613673955,430.605114885,430.613673955
24362000000,1538,24362000000,,430.709626372,430.718185443,430.709626372,430.718185443
24376000000,1539,24376000000,,433.183728861,433.192325828,433.183728861,433.192325828
24390000000,1540,24390000000,,430.175449995,430.184046962,430.175449995,430.184046962
24404000000,1541,24404000000,,432.46878196,432.477378927,432.46878196,432.477378927
24420000000,1542,24420000000,,429.933816734,429.942413701,429.933816734,429.942413701
24434000000,1543,24434000000,,434.103937921,434.112541155,434.103937921,434.112541155
24449000000,1544,24449000000,,431.269295071,431.277898305,431.269295071,431.277898305
24463000000,1545,24463000000,,431.553777964,431.562381198,431.553777964,431.562381198
24476000000,1546,24476000000,,431.593472509,431.602075743,431.593472509,431.602075743
24488000000,1547,24488000000,,431.332007932,431.340611438,431.332007932,431.340611438
24504000000,1548,24504000000,,432.284846291,432.293449796,432.284846291,432.293449796
24518000000,1549,24518000000,,432.702298125,432.71090163,432.702298125,432.71090163
24531000000,1550,24531000000,,432.332147139,432.340750644,432.332147139,432.340750644
24543000000,1551,24543000000,,431.220473455,431.229053676,431.220473455,431.229053676
24557000000,1552,24557000000,,432.611567868,432.620148089,432.611567868,432.620148089
24569000000,1553,24569000000,,432.950633757,432.959213978,432.950633757,432.959213978
24580000000,1554,24580000000,,430.564054785,430.572635006,430.564054785,430.572635006
24594000000,1555,24594000000,,431.954725196,431.963285328,431.954725196,431.963285328
24607000000,1556,24607000000,,430.825060562,430.833620693,430.825060562,430.833620693
24619000000,1557,24619000000,,431.942860282,431.951420413,431.942860282,431.951420413
24631000000,1558,24631000000,,429.690382598,429.69894273,429.690382598,429.69894273
24644000000,1559,24644000000,,435.515210581,435.523763914,435.515210581,435.523763914
24660000000,1560,24660000000,,433.265619342,433.274172675,433.265619342,433.274172675
24673000000,1561,24673000000,,434.088861968,434.097415301,434.088861968,434.097415301
24685000000,1562,24685000000,,430.084174296,430.09272763,430.084174296,430.09272763
24699000000,1563,24699000000,,431.288013546,431.296554447,431.288013546,431.296554447
24713000000,1564,24713000000,,429.856559705,429.865100606,429.856559705,429.865100606
24726000000,1565,24726000000,,429.009031499,429.0175724,429.009031499,429.0175724
24741000000,1566,24741000000,,430.667159428,430.675700329,430.667159428,430.675700329
24754000000,1567,24754000000,,431.815384388,431.823915198,431.815384388,431.823915198
24769000000,1568,24769000000,,429.052602018,429.061132828,429.052602018,429.061132828
24784000000,1569,24784000000,,431.894722482,431.903253292,431.894722482,431.903253292
24798000000,1570,24798000000,,433.425482443,433.434013254,433.425482443,433.434013254
24813000000,1571,24813000000,,433.323932488,433.332458855,433.323932488,433.332458855
24828000000,1572,24828000000,,433.111001763,433.11952813,433.111001763,433.11952813
24842000000,1573,24842000000,,434.200378095,434.208904462,434.200378095,434.208904462
24855000000,1574,24855000000,,432.540333815,432.548860182,432.540333815,432.548860182
24867000000,1575,24867000000,,431.324637232,431.333158079,431.324637232,431.333158079
24882000000,1576,24882000000,,435.201651496,435.210172342,435.201651496,435.210172342
24898000000,1577,24898000000,,430.823678181,430.832199028,430.823678181,430.832199028
24909000000,1578,24909000000,,432.979918826,432.988439673,432.979918826,432.988439673
24920000000,1579,24920000000,,432.293089804,432.298022658,432.293089804,432.298022658
24934000000,1580,24934000000,,433.559381836,433.56431469,433.559381836,433.56431469
24948000000,1581,24948000000,,429.465733033,429.470665887,429.465733033,429.470665887
24962000000,1582,24962000000,,433.997597436,434.00253029,433.997597436,434.00253029
24977000000,1583,24977000000,,432.815672598,432.821737405,432.815672598,432.821737405
24991000000,1584,24991000000,,433.860356333,433.86642114,433.860356333,433.86642114
25005000000,1585,25005000000,,433.693941032,433.700005839,433.693941032,433.700005839
25020000000,1586,25020000000,,434.969571454,434.975636261,434.969571454,434.975636261
25035000000,1587,25035000000,,431.31166337,431.32549458,431.31166337,431.32549458
25050000000,1588,25050000000,,432.175664459,432.189495669,432.175664459,432.189495669
25064000000,1589,25064000000,,430.529879945,430.543711155,430.529879945,430.543711155
25077000000,1590,25077000000,,433.588518363,433.602349573,433.588518363,433.602349573
25090000000,1591,25090000000,,433.490265546,433.49873491,433.490265546,433.49873491
25103000000,1592,25103000000,,432.820137011,432.828606376,432.820137011,432.828606376
25117000000,1593,25117000000,,428.520607746,428.529077111,428.520607746,428.529077111
25130000000,1594,25130000000,,433.282372237,433.290841601,433.282372237,433.290841601
25145000000,1595,25145000000,,434.066685886,434.075148214,434.066685886,434.075148214
25160000000,1596,25160000000,,430.779670591,430.788132918,430.779670591,430.788132918
25175000000,1597,25175000000,,431.259538817,431.268001144,431.259538817,431.268001144
25185000000,1598,25185000000,,430.320896189,430.329358516,430.320896189,430.329358516
25223000000,1599,25223000000,,431.568155822,431.576789469,431.533541742,431.541776756
25253000000,1600,25253000000,,429.503468298,429.512097949,429.471155933,429.479394944
25271000000,1601,25271000000,,432.436820352,432.445430967,432.405529078,432.413787125
25297000000,1602,25297000000,,430.004001732,430.012601447,429.974896058,429.983165005
25320000000,1603,25320000000,,433.16059144,433.168976438,433.132589483,433.140629946
25335000000,1604,25335000000,,431.85343717,431.861828731,431.826518062,431.834551961
25353000000,1605,25353000000,,431.212696403,431.22106529,431.185946407,431.194002981
25370000000,1606,25370000000,,430.3010608,430.309419026,430.273657067,430.281724301
25389000000,1607,25389000000,,431.590582813,431.599010501,431.563549679,431.571665826
25405000000,1608,25405000000,,431.70249037,431.710926727,431.676799906,431.684907383
25420000000,1609,25420000000,,430.77945804,430.787885055,430.754182973,430.762299793
25439000000,1610,25439000000,,429.842844751,429.851258706,429.817549958,429.825679838
25461000000,1611,25461000000,,431.379079269,431.387461442,431.35451914,431.362617954
25482000000,1612,25482000000,,430.667506624,430.675894444,430.645080615,430.653173782
25502000000,1613,25502000000,,430.689774049,430.698159301,430.667796923,430.675892659
25516000000,1614,25516000000,,431.180787714,431.189164166,431.159424645,431.167529181
25534000000,1615,25534000000,,432.048832213,432.057102868,432.028074097,432.036086419
25552000000,1616,25552000000,,432.32839714,432.336673375,432.30790796,432.315914701
25571000000,1617,25571000000,,429.898504861,429.906777858,429.877849951,429.885859931
25586000000,1618,25586000000,,435.286208245,435.294484993,435.264685688,435.272691917
25604000000,1619,25604000000,,431.625832657,431.634094819,431.604134826,431.612136481
25620000000,1620,25620000000,,434.665617238,434.6738729,434.642185632,434.650193786
25634000000,1621,25634000000,,433.287991426,433.296247643,433.263360082,433.271367681
25644000000,1622,25644000000,,433.211506671,433.219765579,433.186820202,433.19482511
25656000000,1623,25656000000,,435.078103751,435.086369303,435.051864811,435.059877962
25668000000,1624,25668000000,,435.903253545,435.911517776,435.875785507,435.883799978
25676000000,1625,25676000000,,434.441560714,434.449823321,434.412463153,434.420479248
25688000000,1626,25688000000,,435.278898848,435.287160727,435.247847732,435.255864555
25695000000,1627,25695000000,,435.281867587,435.290316401,435.249440425,435.257445774
25708000000,1628,25708000000,,434.002450495,434.010901873,433.968529424,433.976532211
25725000000,1629,25725000000,,434.615793254,434.624239742,434.579135683,434.587143359
25738000000,1630,25738000000,,433.864769847,433.873201039,433.825438471,433.833461444
25755000000,1631,25755000000,,434.462609893,434.470906186,434.421291313,434.429198092
25772000000,1632,25772000000,,432.394549867,432.402847724,432.351869674,432.359774888
25802000000,1633,25802000000,,433.124518118,433.13281842,433.080372408,433.088275176
25827000000,1634,25827000000,,433.861525386,433.869819012,433.817552487,433.825461932
25846000000,1635,25846000000,,435.721282212,435.729262447,435.677096088,435.684707038
25861000000,1636,25861000000,,434.101001351,434.108979983,434.055899583,434.063512136
25880000000,1637,25880000000,,436.396226771,436.404209297,436.349269024,436.356877683
25909000000,1638,25909000000,,432.598271331,432.606256492,432.549595523,432.557201547
25941000000,1639,25941000000,,435.421167347,435.429109722,435.368685909,435.376098027
25974000000,1640,25974000000,,433.200255571,433.208197296,433.147224457,433.154637225
26029000000,1641,26029000000,,434.903098802,434.911035796,434.846864531,434.854282029
26080000000,1642,26080000000,,431.250888311,431.258841182,431.195435715,431.202837337
26113000000,1643,26113000000,,431.479232834,431.486110155,431.420448332,431.426700345
26137000000,1644,26137000000,,432.2955037,432.302398863,432.239776845,432.246011016
26153000000,1645,26153000000,,433.274936878,433.282153948,433.221512307,433.227424571
26177000000,1646,26177000000,,434.099830394,434.107065909,434.047498677,434.053392497
26201000000,1647,26201000000,,431.758000817,431.727073588,431.706327941,431.674125244
26275000000,1648,26275000000,,429.236422833,429.205493696,429.184026454,429.151825664
26310000000,1649,26310000000,,430.587018088,430.555706842,430.540446231,430.508627551
26331000000,1650,26331000000,,431.39112786,431.359859265,431.351103998,431.319242667
26351000000,1651,26351000000,,431.069606259,431.112502075,431.032333359,431.074259136
26373000000,1652,26373000000,,432.80239307,432.845310883,432.766509278,432.808413058
26405000000,1653,26405000000,,430.120315432,430.16312666,430.086268727,430.128279092
26442000000,1654,26442000000,,433.331848462,433.374654587,433.297213155,433.339228623
26456000000,1655,26456000000,,430.101494985,430.108814001,430.070193874,430.076398663
26472000000,1656,26472000000,,428.257290466,428.264712674,428.225654471,428.231756069
26488000000,1657,26488000000,,430.499221566,430.506616116,430.468262185,430.474391441
26509000000,1658,26509000000,,431.245384966,431.252713988,431.217157113,431.223351896
26528000000,1659,26528000000,,430.311442712,430.319203386,430.285272254,430.291868331
26547000000,1660,26547000000,,430.805547518,430.813377886,430.779937589,430.786463972
26565000000,1661,26565000000,,430.430201069,430.438056805,430.405940605,430.412441621
26584000000,1662,26584000000,,428.174489131,428.182310014,428.151203403,428.157739272
26602000000,1663,26602000000,,432.582654162,432.590298848,432.560434509,432.56683737
26617000000,1664,26617000000,,431.011499093,431.019173391,430.991973778,430.998347027
26631000000,1665,26631000000,,431.029241148,431.036949516,431.009283099,431.015622277
26646000000,1666,26646000000,,430.712093154,430.719797227,430.692159496,430.698502969
26661000000,1667,26661000000,,431.376979197,431.384735901,431.35727349,431.363713193
26675000000,1668,26675000000,,430.534375745,430.542132523,430.51510554,430.521545169
26690000000,1669,26690000000,,432.955617587,432.963395442,432.936231264,432.942649817
26705000000,1670,26705000000,,428.715101642,428.722890021,428.696197974,428.702606003
26722000000,1671,26722000000,,432.515156122,432.522906012,432.495139613,432.50153204
26738000000,1672,26738000000,,431.129865626,431.137604211,431.111972845,431.118376577
26752000000,1673,26752000000,,431.173527173,431.181270806,431.154855931,431.161254615
26768000000,1674,26768000000,,432.137700919,432.145453598,432.118774611,432.12516425
26789000000,1675,26789000000,,430.115528198,430.123141717,430.096615325,430.102873432
26801000000,1676,26801000000,,435.836822388,435.844422472,435.81710415,435.823375691
26814000000,1677,26814000000,,428.415914923,428.423509246,428.39647991,428.402757212
26836000000,1678,26836000000,,431.524182301,431.531778031,431.501975082,431.508250976
26854000000,1679,26854000000,,431.37631762,431.383790022,431.356333335,431.362496834
26871000000,1680,26871000000,,430.060119453,430.067577673,430.040296315,430.046473996
26886000000,1681,26886000000,,431.800100202,431.807544447,431.780137648,431.786329303
26899000000,1682,26899000000,,431.900515057,431.907951241,431.881348514,431.887548231
26914000000,1683,26914000000,,431.436610977,431.444008082,431.417257257,431.423424992
26928000000,1684,26928000000,,432.047399484,432.054784744,432.027461449,432.033641029
26956000000,1685,26956000000,,433.253873936,433.261243322,433.233711951,433.239907405
26973000000,1686,26973000000,,430.732093888,430.73943785,430.710973413,430.717194292
26994000000,1687,26994000000,,429.209951931,429.217048967,429.187088256,429.193098973
27023000000,1688,27023000000,,432.485951651,432.493029493,432.462730531,432.468760443
27044000000,1689,27044000000,,431.043401568,431.050446041,431.022339583,431.028402863
27063000000,1690,27063000000,,431.313883793,431.320895783,431.293214252,431.299310017
27078000000,1691,27078000000,,429.475911681,429.482629987,429.455154418,429.460977095
27110000000,1692,27110000000,,433.953471432,433.96016736,433.932832979,433.938678034
27129000000,1693,27129000000,,432.790348797,432.796930757,432.772466747,432.77842577
27147000000,1694,27147000000,,432.245130703,432.251679204,432.224780534,432.230773016
27164000000,1695,27164000000,,430.185782703,430.192183755,430.163504056,430.169365428
27188000000,1696,27188000000,,430.463833538,430.470223632,430.440624717,430.446497047
27209000000,1697,27209000000,,433.522514179,433.528857085,433.500494219,433.506413738
27235000000,1698,27235000000,,431.54150005,431.547801954,431.520673749,431.52663427
27260000000,1699,27260000000,,432.843745281,432.849923141,432.821001892,432.826916246
27283000000,1700,27283000000,,431.839098915,431.845246083,431.815460656,431.821405702
27299000000,1701,27299000000,,430.770064155,430.776180762,430.744959503,430.750935109
27329000000,1702,27329000000,,434.966319783,434.972405592,434.940483516,434.946489919
27356000000,1703,27356000000,,432.527912238,432.533780109,432.502944676,432.508825558
27386000000,1704,27386000000,,435.735545509,435.741382269,435.709027836,435.714939829
27412000000,1705,27412000000,,431.46687362,431.472664383,431.43774336,431.443701351
27437000000,1706,27437000000,,432.939576699,432.945319906,432.906371249,432.912376796
27451000000,1707,27451000000,,432.953859804,432.959133347,432.9204194,432.926029878
27470000000,1708,27470000000,,433.187277171,433.192540864,433.153685416,433.159305743
27494000000,1709,27494000000,,432.119123887,432.12436859,432.084614289,432.090253606
27516000000,1710,27516000000,,432.399534097,432.404741593,432.363749458,432.369425981
27535000000,1711,27535000000,,432.902472879,432.908073265,432.866308523,432.872441107
27559000000,1712,27559000000,,434.210810066,434.216392989,434.174583427,434.180733474
27578000000,1713,27578000000,,432.994756935,433.000325454,432.957923475,432.964087925
27598000000,1714,27598000000,,431.954841337,431.960392051,431.91624433,431.922426587
27622000000,1715,27622000000,,432.37061518,432.375961455,432.330884758,432.336903783
27642000000,1716,27642000000,,432.024803396,432.030134448,431.985338767,431.991373016
27663000000,1717,27663000000,,433.813524729,433.818848724,433.774390841,433.780432146
27684000000,1718,27684000000,,435.333890167,435.339207829,435.295153206,435.301200843
27711000000,1719,27711000000,,434.714251916,434.719463223,434.6746289,434.680583729
27729000000,1720,27729000000,,430.9769124,430.982116636,430.933356278,430.939318178
27748000000,1721,27748000000,,435.793944671,435.799149953,435.747957821,435.753918675
27770000000,1722,27770000000,,433.613579815,433.618792116,433.568102091,433.574055927
27790000000,1723,27790000000,,433.096051974,433.101099626,433.048508876,433.054282894
27808000000,1724,27808000000,,433.274987069,433.280041218,433.226037783,433.231805305
27825000000,1725,27825000000,,430.400951648,430.406015817,430.351785027,430.357542529
27843000000,1726,27843000000,,432.711569203,432.716647052,432.662268764,432.668012586
27854000000,1727,27854000000,,431.679155815,431.684407593,431.631850228,431.637737057
27869000000,1728,27869000000,,432.791056219,432.796317423,432.7446826,432.750560003
27888000000,1729,27888000000,,434.295910618,434.301186942,434.250487025,434.256349309
27904000000,1730,27904000000,,432.504242867,432.509545601,432.459315121,432.465150994
27920000000,1731,27920000000,,430.819549573,430.824972463,430.773457378,430.779370557
27936000000,1732,27936000000,,434.066446535,434.071890334,434.020444777,434.026337048
27950000000,1733,27950000000,,431.289961562,431.295432171,431.245433106,431.251298566
27966000000,1734,27966000000,,432.404033413,432.40952834,432.359104636,432.364945779
27972000000,1735,27972000000,,435.427001746,435.432431736,435.382764729,435.388485302
27978000000,1736,27978000000,,435.429124511,435.434562242,435.385272871,435.390985702
27990000000,1737,27990000000,,432.662568898,432.668121912,432.61831307,432.623910619
27996000000,1738,27996000000,,431.537105923,431.542678727,431.490839575,431.496417333
28010000000,1739,28010000000,,431.538726031,431.544816256,431.491786759,431.497857105
28026000000,1740,28026000000,,431.168667804,431.174772468,431.122410032,431.128465938
28050000000,1741,28050000000,,431.154823464,431.160960812,431.109870213,431.115893435
28068000000,1742,28068000000,,432.285860902,432.292057677,432.243034001,432.248997797
28090000000,1743,28090000000,,434.240625974,434.24599092,434.199759213,434.204789575
28110000000,1744,28110000000,,432.36868963,432.374894851,432.328695081,432.332885167
28130000000,1745,28130000000,,432.328731091,432.335010989,432.287487868,432.291603277
28149000000,1746,28149000000,,433.569083109,433.575203338,433.527511442,433.53178652
28175000000,1747,28175000000,,431.708919008,431.652362958,431.667658371,431.609344518
28195000000,1748,28195000000,,427.907098965,427.850532325,427.864907693,427.806604431
28213000000,1749,28213000000,,428.93096438,428.873670515,428.88919318,428.831617143
28230000000,1750,28230000000,,432.004790773,431.947522629,431.966611927,431.909010168
28247000000,1751,28247000000,,430.679328677,430.742812442,430.645071988,430.707504738
28268000000,1752,28268000000,,432.598285535,432.661901641,432.565572154,432.627872563
28285000000,1753,28285000000,,431.79556813,431.859024949,431.764331873,431.82679157
28299000000,1754,28299000000,,429.424809762,429.488167356,429.393487204,429.456046125
28309000000,1755,28309000000,,434.427820666,434.433365316,434.396527729,434.400943793
28326000000,1756,28326000000,,428.363616075,428.369372122,428.333839882,428.338044549
28333000000,1757,28333000000,,431.030485013,431.036232825,430.999387198,431.003600099
28348000000,1758,28348000000,,431.031735595,431.037499418,431.000997656,431.005194547
28366000000,1759,28366000000,,432.59633007,432.602237535,432.567294553,432.571887301
28387000000,1760,28387000000,,431.430700381,431.436594412,431.402498368,431.40710455
28408000000,1761,28408000000,,430.93923776,430.945264254,430.910898608,430.915372327
28426000000,1762,28426000000,,431.71079129,431.716909066,431.682665019,431.687047455
28443000000,1763,28443000000,,432.726261817,432.731734391,432.698922075,432.70274726
28463000000,1764,28463000000,,431.946682787,431.952097096,431.919570124,431.923453574
28484000000,1765,28484000000,,432.673326496,432.67878321,432.64536179,432.649202835
28502000000,1766,28502000000,,430.717682715,430.723226148,430.689350708,430.693105035
28521000000,1767,28521000000,,430.554109752,430.559544066,430.524963718,430.528572646
28532000000,1768,28532000000,,431.676792418,431.682185227,431.648401871,431.652052304
28535000000,1769,28535000000,,432.423857973,432.429236081,432.396175973,432.399841108
28545000000,1770,28545000000,,432.425505741,432.43088686,432.397939684,432.401601808
28553000000,1771,28553000000,,434.270207351,434.276212438,434.242562672,434.246771482
28564000000,1772,28564000000,,433.259289046,433.265324219,433.231367536,433.23554626
28579000000,1773,28579000000,,433.224787598,433.230839074,433.195820127,433.199982547
28594000000,1774,28594000000,,432.85130462,432.857325063,432.820710065,432.824903519
28610000000,1775,28610000000,,432.073178111,432.078951763,432.041392451,432.045391756
28633000000,1776,28633000000,,432.172208516,432.178007115,432.13958292,432.143557278
28648000000,1777,28648000000,,432.004441664,432.010277973,431.971570995,431.975507642
28662000000,1778,28662000000,,433.444236881,433.450067456,433.41130253,433.415244912
28681000000,1779,28681000000,,430.636928259,430.642326202,430.604012524,430.60758053
28699000000,1780,28699000000,,434.688906219,434.694301968,434.654760429,434.658330629
28715000000,1781,28715000000,,430.156527686,430.161938018,430.123133907,430.126689523
28735000000,1782,28735000000,,435.181905413,435.187048727,435.146789127,435.150611761
28750000000,1783,28750000000,,430.785752687,430.7906223,430.751802277,430.755377179
28770000000,1784,28770000000,,430.692683823,430.697575918,430.657133008,430.660685428
28790000000,1785,28790000000,,433.763881682,433.768793992,433.728923366,433.732455571
28800000000,1786,28800000000,,434.621993609,434.626902313,434.588764628,434.592300438
28823000000,1787,28823000000,,434.134472709,434.139521237,434.100354536,434.103859296
28853000000,1788,28853000000,,432.939151645,432.944191909,432.902263807,432.905776831
28873000000,1789,28873000000,,434.157006978,434.162022272,434.116704572,434.120242566
28888000000,1790,28888000000,,433.210083898,433.215079505,433.169014186,433.172571867
28906000000,1791,28906000000,,431.774993702,431.779511463,431.73259219,431.735698838
28933000000,1792,28933000000,,431.083994133,431.088495809,431.040747423,431.043870156
28953000000,1793,28953000000,,429.191966884,429.196431279,429.149278605,429.152438619
28968000000,1794,28968000000,,429.623424945,429.627854529,429.582463811,429.585658636
28984000000,1795,28984000000,,431.811583766,431.816053223,431.773232472,431.776521572
29007000000,1796,29007000000,,429.486821101,429.491270742,429.451472849,429.454781764
29024000000,1797,29024000000,,433.800876502,433.805289866,433.767467594,433.770812786
29044000000,1798,29044000000,,428.820428744,428.824810097,428.789054105,428.792431309
29063000000,1799,29063000000,,430.024215691,430.028459904,429.992068058,429.995393479
29082000000,1800,29082000000,,431.19577269,431.199981171,431.165996521,431.169357674
29103000000,1801,29103000000,,432.679305619,432.683480146,432.652018076,432.655413183
29121000000,1802,29121000000,,433.47245004,433.476582386,433.446230359,433.449667646
29143000000,1803,29143000000,,430.16222275,430.166286361,430.13544001,430.138789332
29171000000,1804,29171000000,,432.272461152,432.276467362,432.243686042,432.247092764
29193000000,1805,29193000000,,433.367929884,433.371858698,433.340616561,433.34410068
29210000000,1806,29210000000,,430.805106128,430.808983108,430.777560782,430.781096734
29232000000,1807,29232000000,,429.856719194,429.860102465,429.827867313,429.830971805
29256000000,1808,29256000000,,431.565744721,431.569079656,431.536700689,431.539853518
29279000000,1809,29279000000,,429.134111526,429.137370251,429.107393164,429.110622202
29303000000,1810,29303000000,,432.70024365,432.703450483,432.674256569,432.6775375
29330000000,1811,29330000000,,430.95412857,430.957099394,430.930928611,430.934080004
29351000000,1812,29351000000,,432.162455726,432.165362121,432.138391372,432.141607194
29379000000,1813,29379000000,,429.377246182,429.380096891,429.353397178,429.356668685
29409000000,1814,29409000000,,433.06712616,433.069910839,433.042586308,433.045923845
29429000000,1815,29429000000,,432.409988227,432.412222711,432.38801005,432.390936803
29455000000,1816,29455000000,,430.962975143,430.965173797,430.939996183,430.942958767
29472000000,1817,29472000000,,430.327357944,430.329512414,430.302691043,430.305697811
29485000000,1818,29485000000,,430.561944038,430.564065659,430.537602187,430.540641804
29502000000,1819,29502000000,,431.630198534,431.632795318,431.606621587,431.610183917
29527000000,1820,29527000000,,432.336484281,432.339054627,432.313922117,432.317510885
29552000000,1821,29552000000,,431.559717007,431.562247719,431.537324011,431.540952413
29572000000,1822,29572000000,,433.066902683,433.069392327,433.043465696,433.047135166
29593000000,1823,29593000000,,433.466260926,433.46840469,433.44225673,433.445626014
29617000000,1824,29617000000,,433.844260485,433.84639143,433.819007243,433.822389346
29641000000,1825,29641000000,,432.035783687,432.037892212,432.007824791,432.011229316
29664000000,1826,29664000000,,433.41296725,433.415052317,433.382125289,433.38555327
29686000000,1827,29686000000,,433.335103032,433.336833861,433.303570447,433.306668449
29704000000,1828,29704000000,,431.837692418,431.839425197,431.80468512,431.807781172
29723000000,1829,29723000000,,433.666974393,433.668710507,433.632491382,433.6355841
29744000000,1830,29744000000,,434.964835255,434.966569583,434.930447023,434.933541526
29763000000,1831,29763000000,,431.810343831,431.812239537,431.774312765,431.777564591
29783000000,1832,29783000000,,432.950806507,432.952714496,432.911935264,432.915174808
29803000000,1833,29803000000,,433.960908918,433.962836612,433.921867417,433.925087255
29826000000,1834,29826000000,,436.2736494,436.27559537,436.234123693,436.237325256
29847000000,1835,29847000000,,429.46755453,429.469351942,429.42614061,429.429145061
29856000000,1836,29856000000,,430.251530649,430.25335618,430.206047597,430.209023929
29878000000,1837,29878000000,,429.897414875,429.899254991,429.853321296,429.856283044
29892000000,1838,29892000000,,432.406431472,432.408861146,432.365226007,432.367598196
29910000000,1839,29910000000,,431.153637078,431.080649458,431.114546554,431.041311089
29926000000,1840,29926000000,,434.755387831,434.682351021,434.717077838,434.643891563
29942000000,1841,29942000000,,432.782239153,432.709147916,432.744861576,432.67172973
29956000000,1842,29956000000,,435.008103487,434.935012345,434.969401602,434.896269659
29976000000,1843,29976000000,,433.538958993,433.536437042,433.499668333,433.497021995
29993000000,1844,29993000000,,432.334030409,432.331533049,432.292182775,432.289511846
30015000000,1845,30015000000,,433.648842011,433.646346459,433.605836642,433.603163905
30022000000,1846,30022000000,,434.858983534,434.856499014,434.816051471,434.813367702
30036000000,1847,30036000000,,434.084721035,434.156874923,434.041636117,434.115034703
30047000000,1848,30047000000,,433.559136928,433.631326382,433.515047115,433.588410136
30060000000,1849,30060000000,,433.963580882,434.035834184,433.917963381,433.991262553
30071000000,1850,30071000000,,432.639196062,432.711971332,432.59281316,432.665590366
30085000000,1851,30085000000,,432.445679018,432.448618998,432.398853733,432.401585315
30100000000,1852,30100000000,,434.099931604,434.103008126,434.052556185,434.055151223
30114000000,1853,30114000000,,433.514459655,433.517077913,433.467399909,433.470453211
30130000000,1854,30130000000,,433.341416648,433.343969252,433.294095038,433.297213994
30147000000,1855,30147000000,,429.901620106,429.904151311,429.853529716,429.85584979
30169000000,1856,30169000000,,430.34065489,430.343414401,430.292161901,430.29425367
30188000000,1857,30188000000,,434.233622695,434.236238761,434.187734284,434.189969497
30215000000,1858,30215000000,,431.396883059,431.399326029,431.35398264,431.35639095
30239000000,1859,30239000000,,430.672347102,430.674324364,430.628511838,430.630178201
30260000000,1860,30260000000,,431.513357422,431.515596471,431.470428584,431.471833158
30281000000,1861,30281000000,,433.568759495,433.571051619,433.52809125,433.52944275
30296000000,1862,30296000000,,430.885406327,430.887593476,430.846534494,430.847990969
30309000000,1863,30309000000,,432.863950191,432.866082842,432.82472623,432.826166709
30320000000,1864,30320000000,,432.64517509,432.647438006,432.606688317,432.607998532
30327000000,1865,30327000000,,433.540979424,433.54334887,433.502688599,433.503892284
30334000000,1866,30334000000,,432.885777428,432.888170245,432.847385267,432.848565581
30349000000,1867,30349000000,,432.887223348,432.89036196,432.84868423,432.850686566
30367000000,1868,30367000000,,433.045998098,433.049065296,433.006763825,433.008837575
30388000000,1869,30388000000,,431.961872766,431.964994887,431.922210233,431.92422906
30402000000,1870,30402000000,,433.718981082,433.722200932,433.678800032,433.680721129
30419000000,1871,30419000000,,432.167330001,432.170021927,432.12722927,432.128336728
30436000000,1872,30436000000,,431.590904997,431.593658869,431.550610828,431.55165634
30449000000,1873,30449000000,,432.590109012,432.592777827,432.549600166,432.550730734
30456000000,1874,30456000000,,432.521429188,432.524129307,432.481211783,432.482311048
30464000000,1875,30464000000,,432.082057442,432.084898264,432.042016096,432.043210956
30475000000,1876,30475000000,,432.083660656,432.086551934,432.043613829,432.044758234
30490000000,1877,30490000000,,430.009398022,430.012323225,429.969360649,429.970471129
30502000000,1878,30502000000,,431.694959536,431.697913502,431.655355721,431.656437439
30515000000,1879,30515000000,,431.613940625,431.617040473,431.575537022,431.576748625
30529000000,1880,30529000000,,432.160391448,432.163522804,432.122992959,432.124173054
30543000000,1881,30543000000,,432.454514719,432.457681704,432.417744438,432.418888904
30566000000,1882,30566000000,,430.64275697,430.645968429,430.606347978,430.60744797
30585000000,1883,30585000000,,432.183900097,432.186774902,432.147451825,432.148146605
30606000000,1884,30606000000,,433.071612932,433.074525237,433.036193851,433.03685113
30625000000,1885,30625000000,,433.066592097,433.069539464,433.032031257,433.032653474
30662000000,1886,30662000000,,432.446298196,432.449276802,432.411304374,432.411895352
30686000000,1887,30686000000,,429.371765019,429.373734893,429.335070024,429.334531786
30713000000,1888,30713000000,,431.834358907,431.836356838,431.7973619,431.796795604
30737000000,1889,30737000000,,431.087302461,431.089311529,431.053897352,431.05331992
30758000000,1890,30758000000,,430.076774844,430.078792829,430.044384004,430.043797655
30778000000,1891,30778000000,,430.33850529,430.340554111,430.30726752,430.306685593
30809000000,1892,30809000000,,433.409289668,433.411348217,433.380114388,433.379522733
30837000000,1893,30837000000,,431.230281599,431.232335296,431.203964534,431.203377732
30858000000,1894,30858000000,,430.978457375,430.980493191,430.950279429,430.949710506
30897000000,1895,30897000000,,429.501506271,429.50313223,429.473189797,429.472271809
30927000000,1896,30927000000,,429.569961728,429.571548411,429.543410832,429.54253212
30953000000,1897,30953000000,,432.279076553,432.280629134,432.255553035,432.254708425
30979000000,1898,30979000000,,430.814454476,430.815959316,430.794074104,430.793277235
30999000000,1899,30999000000,,430.357701915,430.358575779,430.33638925,430.335084404
31029000000,1900,31029000000,,432.389964703,432.390785366,432.369095764,432.36784412
31056000000,1901,31056000000,,433.503947482,433.503838815,433.484233866,433.483911551
31085000000,1902,31085000000,,430.902333122,430.902023928,430.88126987,430.881148082
31117000000,1903,31117000000,,430.515043963,430.43461729,430.490602205,430.410224843
31156000000,1904,31156000000,,428.777634179,428.697298436,428.753553623,428.673085331
31175000000,1905,31175000000,,432.897820555,432.817363089,432.875810555,432.795463985
31209000000,1906,31209000000,,430.341539163,430.261819055,430.323197807,430.24211388
31230000000,1907,31230000000,,434.01937412,434.093828029,433.999154113,434.072621978
31255000000,1908,31255000000,,433.792442817,433.866343996,433.772366101,433.846386697
31281000000,1909,31281000000,,432.290413911,432.364219011,432.266943838,432.341060512
31305000000,1910,31305000000,,431.381160352,431.455304103,431.354218146,431.427996169
31332000000,1911,31332000000,,432.977833078,432.978081568,432.949794296,432.949281013
31352000000,1912,31352000000,,432.265534041,432.265590116,432.237784687,432.23746382
31380000000,1913,31380000000,,431.129994525,431.129800392,431.101057103,431.100986443
31404000000,1914,31404000000,,432.409134865,432.408971029,432.379360204,432.379259247
31425000000,1915,31425000000,,432.241869966,432.241667146,432.212832148,432.212408234
31448000000,1916,31448000000,,430.901387444,430.901139927,430.871948567,430.871569351
31472000000,1917,31472000000,,433.960299009,433.959844869,433.930185086,433.930012493
31496000000,1918,31496000000,,434.649957574,434.649394079,434.620729461,434.620666223
31513000000,1919,31513000000,,431.502608568,431.502068748,431.470896912,431.470743572
31535000000,1920,31535000000,,432.841720691,432.841232527,432.807461661,432.807256665
31554000000,1921,31554000000,,431.630786955,431.630201734,431.596638357,431.596530418
31570000000,1922,31570000000,,434.641336691,434.64062966,434.606481281,434.606495151
31589000000,1923,31589000000,,434.311584202,434.311121587,434.276791768,434.277099651
31606000000,1924,31606000000,,434.707807578,434.707404807,434.671775203,434.672023241
31623000000,1925,31623000000,,433.434335617,433.433923888,433.395786804,433.3960438
31640000000,1926,31640000000,,431.593985607,431.59349107,431.553264121,431.553603925
31660000000,1927,31660000000,,434.405945468,434.40533326,434.363516153,434.363867996
31679000000,1928,31679000000,,432.157777885,432.157173391,432.115734523,432.116078652
31696000000,1929,31696000000,,432.423718864,432.42313222,432.381100559,432.381426838
31716000000,1930,31716000000,,435.128331585,435.127714919,435.085180767,435.085537068
31733000000,1931,31733000000,,434.157768033,434.156823759,434.114924925,434.115060047
31753000000,1932,31753000000,,433.306192117,433.305231284,433.261830405,433.261982087
31772000000,1933,31772000000,,433.335768458,433.334822986,433.28957924,433.289715561
31793000000,1934,31793000000,,432.461688414,432.460746557,432.414757696,432.414890402
31815000000,1935,31815000000,,432.635506178,432.634394446,432.587973261,432.587985504
31838000000,1936,31838000000,,432.837379456,432.836250663,432.790274993,432.790304296
31859000000,1937,31859000000,,431.894831264,431.893713553,431.848169442,431.848187664
31873000000,1938,31873000000,,433.526168104,433.525071744,433.479638492,433.479635363
31893000000,1939,31893000000,,431.133403857,431.132169555,431.087569248,431.087416345
31912000000,1940,31912000000,,432.199681234,432.198447897,432.153479993,432.153326125
31931000000,1941,31931000000,,434.10994303,434.108643944,434.065209814,434.065121695
31950000000,1942,31950000000,,430.87741473,430.876144347,430.833815819,430.833698997
31970000000,1943,31970000000,,433.25310023,433.251864702,433.20860396,433.208310011
31990000000,1944,31990000000,,433.459427189,433.458220359,433.416321349,433.415998701
32010000000,1945,32010000000,,435.954189752,435.952993874,435.911175818,435.910842218
32031000000,1946,32031000000,,432.473269361,432.472103475,432.429426269,432.429062676
32053000000,1947,32053000000,,429.699662036,429.698369524,429.652561848,429.651961918
32073000000,1948,32073000000,,432.3281025,432.326863181,432.280260329,432.279607206
32095000000,1949,32095000000,,429.751961482,429.75076818,429.707461169,429.706762029
32114000000,1950,32114000000,,432.031605975,432.030455292,431.988503433,431.987761675
32131000000,1951,32131000000,,433.08552932,433.08421145,433.044976307,433.043968835
32153000000,1952,32153000000,,431.749284995,431.748018227,431.709863506,431.708804932
32177000000,1953,32177000000,,433.325297178,433.324097243,433.285501749,433.284376342
32199000000,1954,32199000000,,431.287695666,431.286568794,431.248527439,431.247328969
32212000000,1955,32212000000,,429.766441967,429.765289978,429.727194867,429.725842115
32228000000,1956,32228000000,,432.130692587,432.130585578,432.092462485,432.090064753
32243000000,1957,32243000000,,430.27451208,430.274493072,430.238378999,430.235893266
32259000000,1958,32259000000,,433.925771025,433.925557465,433.890422501,433.88813132
32279000000,1959,32279000000,,431.543774291,431.464478164,431.509768468,431.428205059
32300000000,1960,32300000000,,431.553457545,431.474010802,431.518932284,431.437519491
32316000000,1961,32316000000,,432.121799007,432.041249333,432.086515307,432.006205445
32337000000,1962,32337000000,,427.940565462,427.860115092,427.905901648,427.825492481
32354000000,1963,32354000000,,433.222428167,433.29554438,433.188593673,433.260474066
32372000000,1964,32372000000,,432.336622047,432.410189249,432.306234052,432.377663456
32389000000,1965,32389000000,,430.120166868,430.193346521,430.090645449,430.162462402
32406000000,1966,32406000000,,430.311408208,430.384525214,430.281084516,430.352964116
32423000000,1967,32423000000,,430.727270316,430.726765339,430.697981583,430.695924401
32438000000,1968,32438000000,,430.217628915,430.217367061,430.190023473,430.187723169
32451000000,1969,32451000000,,429.765866585,429.765600146,429.739320076,429.737024357
32465000000,1970,32465000000,,430.924547324,430.924139352,430.898951875,430.896797689
32479000000,1971,32479000000,,434.845325721,434.844988669,434.821288565,434.819266707
32497000000,1972,32497000000,,431.850908289,431.850678613,431.827776845,431.825647611
32513000000,1973,32513000000,,431.140833258,431.140675348,431.115202978,431.113001977
32531000000,1974,32531000000,,431.326761151,431.32655262,431.300277802,431.298127422
32550000000,1975,32550000000,,430.267167092,430.266611698,430.241071642,430.238707754
32567000000,1976,32567000000,,433.434193265,433.433659824,433.408532146,433.406146306
32585000000,1977,32585000000,,434.51643498,434.515963217,434.491954756,434.489507237
32602000000,1978,32602000000,,433.079821221,433.079356037,433.054013175,433.051559078
32620000000,1979,32620000000,,431.678466802,431.677733484,431.650185392,431.647560537
32633000000,1980,32633000000,,432.637656663,432.636898401,432.607440473,432.604840563
32645000000,1981,32645000000,,431.966331269,431.965596255,431.936045657,431.933422498
32660000000,1982,32660000000,,431.031409704,431.03069289,431.000906834,430.998265476
32677000000,1983,32677000000,,432.76433889,432.763768329,432.733626126,432.731157344
32692000000,1984,32692000000,,429.864625308,429.864014049,429.834429216,429.832001132
32706000000,1985,32706000000,,428.576546619,428.575918237,428.546240452,428.543829491
32723000000,1986,32723000000,,432.66731096,432.666669726,432.637407388,432.635009279
32738000000,1987,32738000000,,432.584437365,432.583597446,432.557410989,432.554774571
32755000000,1988,32755000000,,430.138269085,430.137551717,430.111707835,430.108948867
32772000000,1989,32772000000,,432.228554063,432.227788004,432.201117065,432.198406787
32790000000,1990,32790000000,,431.461522043,431.460698223,431.435049942,431.432397426
32805000000,1991,32805000000,,431.187305773,431.186248367,431.160793899,431.157951382
32812000000,1992,32812000000,,434.552681257,434.551616719,434.526225534,434.523390148
32840000000,1993,32840000000,,432.171327892,432.170240949,432.145158577,432.142345595
32864000000,1994,32864000000,,430.816901654,430.815741275,430.787383486,430.784643942
32891000000,1995,32891000000,,432.562805534,432.56125112,432.532215606,432.529220779
32914000000,1996,32914000000,,431.254045836,431.252433108,431.224630092,431.221693579
32931000000,1997,32931000000,,434.983981797,434.982320488,434.95444641,434.951558478
32954000000,1998,32954000000,,431.072699938,431.070998461,431.043305142,431.040457378
32974000000,1999,32974000000,,432.828657103,432.743124645,432.796305303,432.711467571
32989000000,2000,32989000000,,433.240563756,433.154918675,433.208274539,433.12354943
33009000000,2001,33009000000,,432.468406773,432.382879106,432.436132182,432.351289658
33038000000,2002,33038000000,,435.253054029,435.167555654,435.219641994,435.134770179
33058000000,2003,33058000000,,430.283063816,430.273650898,430.24846131,430.239818008
33077000000,2004,33077000000,,432.261520915,432.252846881,432.224911649,432.215529462
33098000000,2005,33098000000,,433.756908169,433.748154994,433.721025189,433.711722143
33114000000,2006,33114000000,,432.790598747,432.781370706,432.755006334,432.746178154
33132000000,2007,33132000000,,432.926851644,433.00082507,432.890058832,432.964778857
33150000000,2008,33150000000,,432.269993318,432.344217663,432.232606955,432.307076061
33165000000,2009,33165000000,,431.518805221,431.593235949,431.480945486,431.555208208
33195000000,2010,33195000000,,432.687954414,432.762230621,432.649918056,432.724335299
33214000000,2011,33214000000,,432.534761816,432.531609633,432.497585443,432.494991338
33234000000,2012,33234000000,,433.13455878,433.131468894,433.097306038,433.094649636
33265000000,2013,33265000000,,432.541277862,432.538352821,432.503813948,432.500992701
33293000000,2014,33293000000,,430.452245154,430.449294352,430.413682368,430.410886883
33322000000,2015,33322000000,,429.531342183,429.527573691,429.492307419,429.489110688
33349000000,2016,33349000000,,434.163628372,434.159742323,434.1272193,434.124140127
33373000000,2017,33373000000,,433.837709484,433.833890943,433.805473618,433.802326936
33396000000,2018,33396000000,,433.794085992,433.790333858,433.760255912,433.757042824
33424000000,2019,33424000000,,431.17477576,431.170694446,431.138422908,431.135040282
33445000000,2020,33445000000,,435.332751468,435.328546796,435.293794263,435.290534996
33467000000,2021,33467000000,,434.35978796,434.355577348,434.32191289,434.318659563
33487000000,2022,33487000000,,432.899756495,432.895611301,432.859593917,432.856275171
33514000000,2023,33514000000,,435.749308672,435.745252843,435.706698155,435.703448202
33542000000,2024,33542000000,,433.060494237,433.056372827,433.01722814,433.014043767
33563000000,2025,33563000000,,430.163142511,430.15898067,430.11541937,430.112275429
33586000000,2026,33586000000,,430.956423555,430.952300104,430.907959951,430.90477762
33610000000,2027,33610000000,,433.176817354,433.172374429,433.131604789,433.128006989
33635000000,2028,33635000000,,434.879391484,434.874945808,434.837120481,434.833525431
33654000000,2029,33654000000,,433.160027354,433.155560097,433.117471963,433.113898494
33671000000,2030,33671000000,,433.630209001,433.625754124,433.585389715,433.581803867
33687000000,2031,33687000000,,433.47706585,433.472882065,433.431601336,433.428194374
33699000000,2032,33699000000,,430.554703776,430.550547036,430.508606605,430.505172597
33719000000,2033,33719000000,,433.803824602,433.799666908,433.757248623,433.75381557
33735000000,2034,33735000000,,432.657945316,432.653798173,432.612878598,432.609434994
33752000000,2035,33752000000,,432.120146147,432.116380607,432.074778913,432.071647725
33770000000,2036,33770000000,,430.294793519,430.29106655,430.249312596,430.246142836
33791000000,2037,33791000000,,431.35231634,431.348623506,431.307471455,431.304267561
33815000000,2038,33815000000,,429.873721204,429.870053553,429.831559962,429.828330884
33838000000,2039,33838000000,,431.69488625,431.69079564,431.6549975,431.651236724
33859000000,2040,33859000000,,428.350025235,428.34599715,428.313345308,428.309522007
33882000000,2041,33882000000,,432.988923105,432.98494283,432.953405324,432.949534212
33907000000,2042,33907000000,,430.989573821,430.985645022,430.958620203,430.954697616
33930000000,2043,33930000000,,430.606052231,430.601783983,430.574486727,430.57009301
33947000000,2044,33947000000,,430.650135162,430.645933903,430.619557612,430.615096907
33966000000,2045,33966000000,,430.242086374,430.237929744,430.21277206,430.208266727
33992000000,2046,33992000000,,430.614912493,430.611721843,430.587429394,430.58195808
34013000000,2047,34013000000,,429.832188146,429.82822369,429.806362134,429.80175689
34023000000,2048,34023000000,,429.423015593,429.419765626,429.399053642,429.393733909
34038000000,2049,34038000000,,430.262424963,430.259335654,430.239503439,430.234023047
34060000000,2050,34060000000,,430.603486678,430.600338331,430.582288985,430.576867632
34077000000,2051,34077000000,,430.206219934,430.124087503,430.186524089,430.102388095
34101000000,2052,34101000000,,429.683159452,429.600079918,429.663646885,429.580457993
34119000000,2053,34119000000,,430.820837414,430.737904767,430.802653386,430.719317608
34136000000,2054,34136000000,,432.189113132,432.106793401,432.172824705,432.08887601
34152000000,2055,34152000000,,431.574051848,431.644149479,431.558335907,431.626701643
34168000000,2056,34168000000,,429.901815302,429.971528143,429.885186898,429.953937424
34179000000,2057,34179000000,,431.364012906,431.433755184,431.346620372,431.415341463
34189000000,2058,34189000000,,432.318357486,432.388222691,432.301238188,432.369836351
34204000000,2059,34204000000,,429.954840021,429.9517088,429.938010658,429.933378237
34214000000,2060,34214000000,,432.032369253,432.02926957,432.014748279,432.010084319
34233000000,2061,34233000000,,434.131793734,434.128642332,434.114246304,434.109634063
34248000000,2062,34248000000,,432.923035493,432.91990311,432.90651231,432.901881052
34267000000,2063,34267000000,,433.178240309,433.174964951,433.159210678,433.154304284
34287000000,2064,34287000000,,432.158396399,432.155154945,432.136884583,432.131944284
34310000000,2065,34310000000,,431.94169038,431.938427391,431.918177662,431.913258899
34332000000,2066,34332000000,,430.004143925,430.000860051,429.979371272,429.974473394
34357000000,2067,34357000000,,431.485645921,431.48183044,431.460317187,431.454842867
34378000000,2068,34378000000,,430.390266221,430.386479317,430.366418289,430.360915391
34400000000,2069,34400000000,,435.088472343,435.084678128,435.065142803,435.059647216
34416000000,2070,34416000000,,430.629942022,430.626115666,430.607529775,430.602066329
34421000000,2071,34421000000,,431.03687874,431.032879199,431.012395514,431.00678312
34441000000,2072,34441000000,,431.038358255,431.03437309,431.013578912,431.007952143
34459000000,2073,34459000000,,429.889027434,429.885037906,429.864882231,429.859259825
34472000000,2074,34472000000,,435.653421881,435.649404161,435.629832726,435.624238512
34489000000,2075,34489000000,,432.828937816,432.825385519,432.806464304,432.801381996
34508000000,2076,34508000000,,429.857565423,429.854001372,429.832869327,429.827798774
34528000000,2077,34528000000,,432.709571198,432.705993523,432.682525474,432.677468543
34555000000,2078,34555000000,,431.705792952,431.702185497,431.679456046,431.674428895
34576000000,2079,34576000000,,432.602155114,432.597926893,432.575679979,432.570137745
34593000000,2080,34593000000,,431.062028616,431.057760108,431.035188881,431.029686933
34609000000,2081,34609000000,,435.175493816,435.171199459,435.147962695,435.142486596
34627000000,2082,34627000000,,433.093380593,433.089064413,433.065934463,433.060480187
34636000000,2083,34636000000,,432.304661061,432.231628655,432.274443532,432.201767416
34657000000,2084,34657000000,,430.242911087,430.169820625,430.211692728,430.139074668
34677000000,2085,34677000000,,432.505376655,432.432371638,432.473473029,432.400769524
34693000000,2086,34693000000,,433.1998004,433.12682378,433.168634488,433.095902586
34710000000,2087,34710000000,,431.781794872,431.772894366,431.750896441,431.742411222
34728000000,2088,34728000000,,431.011615219,431.003376249,430.97978993,430.970643175
34748000000,2089,34748000000,,433.303851209,433.295583567,433.271777905,433.262659822
34766000000,2090,34766000000,,432.701721962,432.693060442,432.670557668,432.661833462
34781000000,2091,34781000000,,430.382999707,430.440399747,430.351280869,430.408979136
34797000000,2092,34797000000,,433.653663718,433.711253127,433.621117038,433.678625936
34816000000,2093,34816000000,,431.374586239,431.432162966,431.342565461,431.40008704
34840000000,2094,34840000000,,429.716186864,429.773963923,429.684453474,429.741774722
34861000000,2095,34861000000,,432.372607878,432.367690117,432.340917911,432.335835854
34881000000,2096,34881000000,,429.074035061,429.068943683,429.044682338,429.039773898
34895000000,2097,34895000000,,432.211841248,432.20679028,432.182829469,432.177880619
34903000000,2098,34903000000,,431.156976181,431.152046127,431.129443062,431.124373298
34920000000,2099,34920000000,,433.358798818,433.354025862,433.331327587,433.326423361
34936000000,2100,34936000000,,433.115214005,433.110290693,433.087666329,433.082912459
34956000000,2101,34956000000,,433.202391822,433.197389499,433.173571605,433.168896746
34990000000,2102,34990000000,,433.801533255,433.79656334,433.771103518,433.766396251
35016000000,2103,35016000000,,432.148772683,432.143193328,432.115842143,432.110535146
35043000000,2104,35043000000,,433.092904788,433.087241635,433.057431514,433.052208315
35077000000,2105,35077000000,,432.742324771,432.736552415,432.706666747,432.701552752
35099000000,2106,35099000000,,428.03278838,428.026969674,427.995680809,427.990613164
35119000000,2107,35119000000,,433.099144383,433.092861476,433.061386754,433.055809009
35146000000,2108,35146000000,,432.042006769,432.035710248,432.007609353,432.002045221
35173000000,2109,35173000000,,432.641105281,432.634734977,432.606543249,432.601052901
35198000000,2110,35198000000,,433.492920661,433.48649,433.45822436,433.452794369
35231000000,2111,35231000000,,434.540391757,434.534009963,434.505074022,434.499697018
35256000000,2112,35256000000,,433.964625351,433.958249052,433.927027661,433.921645161
35274000000,2113,35274000000,,434.519039742,434.512638736,434.478504956,434.473147163
35295000000,2114,35295000000,,432.960379851,432.953927646,432.918198716,432.912892121
35320000000,2115,35320000000,,431.838443607,431.831927287,431.79413292,431.788777152
35352000000,2116,35352000000,,433.718874256,433.712376012,433.6735838,433.668209956
