%time,field.header.seq,field.header.stamp,field.header.frame_id,field.pose.position.x,field.pose.position.y,field.pose.position.z,field.pose.orientation.x,field.pose.orientation.y,field.pose.orientation.z,field.pose.orientation.w
21145000000,1779,21145000000,world,0.00217572767664,-0.00369840704861,2.89169139922,7.58630764844e-05,2.83104334167e-05,9.37305724598e-05,0.999999992329
21155000000,1780,21155000000,world,0.0021779819368,-0.00370002191852,2.89173159051,7.04938453974e-05,2.65939214577e-05,9.39742657643e-05,0.999999992746
21165000000,1781,21165000000,world,0.00218023474258,-0.00370164725503,2.89176958287,6.47828567744e-05,2.47732064498e-05,9.42173581438e-05,0.999999993156
21175000000,1782,21175000000,world,0.0021824677601,-0.00370323592006,2.891805827,5.86938938046e-05,2.28947504756e-05,9.44599252525e-05,0.999999993554
21185000000,1783,21185000000,world,0.00218465059013,-0.00370468990547,2.89184059263,5.22840204375e-05,2.09779281385e-05,9.47021632874e-05,0.999999993929
21195000000,1784,21195000000,world,0.00218663852657,-0.00370551410398,2.89187407368,4.55900522595e-05,1.89102954434e-05,9.49440360476e-05,0.999999994275
21205000000,1785,21205000000,world,0.00218859271424,-0.00370619672262,2.89190634557,3.86983799175e-05,1.67054984719e-05,9.51855514607e-05,0.999999994582
21215000000,1786,21215000000,world,0.00219061599886,-0.00370709146055,2.89193733479,3.16647739895e-05,1.43827802333e-05,9.54268653157e-05,0.999999994842
21225000000,1787,21225000000,world,0.00219262531921,-0.0037079353703,2.89196694527,2.44065055769e-05,1.1959294278e-05,9.56679620516e-05,0.999999995054
21235000000,1788,21235000000,world,0.00219458379584,-0.00370862440634,2.891995087,1.68727055817e-05,9.45534822134e-06,9.5908452806e-05,0.999999995214
21245000000,1789,21245000000,world,0.00219642066005,-0.00370896832276,2.89202170986,9.00213964045e-06,6.90985961789e-06,9.61483294244e-05,0.999999995313
21255000000,1790,21255000000,world,0.00219821070595,-0.00370920406471,2.89204684802,8.6227412505e-07,4.38858936006e-06,9.63877884331e-05,0.999999995345
21265000000,1791,21265000000,world,0.00219978254842,-0.00370878586065,2.89207047758,-7.46526389046e-06,1.76739425264e-06,9.66268320094e-05,0.999999995302
21275000000,1792,21275000000,world,0.0022013308992,-0.00370828582331,2.89209270382,-1.58719483654e-05,-9.44536677509e-07,9.68652446763e-05,0.999999995182
21285000000,1793,21285000000,world,0.00220262405319,-0.00370693257257,2.89211359785,-2.44024660537e-05,-3.76147853075e-06,9.71031621601e-05,0.999999994981
21295000000,1794,21295000000,world,0.00220374555515,-0.00370503090739,2.89213299482,-3.30771564026e-05,-6.64802354524e-06,9.73406901719e-05,0.999999994693
21305000000,1795,21305000000,world,0.00220488801246,-0.00370323576246,2.89215116632,-4.18722723284e-05,-9.55207692448e-06,9.75774395895e-05,0.999999994317
21315000000,1796,21315000000,world,0.00220605294469,-0.00370147885386,2.89216846931,-5.08363367828e-05,-1.24336442223e-05,9.78132987518e-05,0.999999993847
21325000000,1797,21325000000,world,0.00220698646906,-0.00369903655077,2.89218528346,-6.00364648774e-05,-1.52429160571e-05,9.80484537653e-05,0.999999993275
21335000000,1798,21335000000,world,0.00220791904933,-0.00369657687295,2.89220186431,-6.92331028362e-05,-1.80367429127e-05,9.82830182969e-05,0.999999992611
21345000000,1799,21345000000,world,0.00220860447441,-0.00369333273295,2.89221825806,-7.84317480722e-05,-2.09012308313e-05,9.85169549804e-05,0.999999991853
21355000000,1800,21355000000,world,0.00220913824079,-0.00368944948223,2.8922344727,-8.75723254206e-05,-2.38155715375e-05,9.87503616838e-05,0.999999991006
21365000000,1801,21365000000,world,0.00220982006612,-0.00368599209382,2.89225064032,-9.65732049017e-05,-2.67253860514e-05,9.89833983032e-05,0.999999990081
21375000000,1802,21375000000,world,0.00221045356307,-0.00368234717086,2.8922668897,-0.000105552286341,-2.96158801297e-05,9.9215793617e-05,0.999999989069
21385000000,1803,21385000000,world,0.00221121392179,-0.00367908012835,2.89228326433,-0.000114487499592,-3.2436385122e-05,9.94472945072e-05,0.999999987975
21395000000,1804,21395000000,world,0.00221181241491,-0.00367530243785,2.89229968047,-0.000123488835305,-3.51457618706e-05,9.9678037407e-05,0.99999998679
21405000000,1805,21405000000,world,0.00221255117827,-0.00367194975368,2.89231579261,-0.000132313080408,-3.77382250983e-05,9.99081912437e-05,0.999999985544
21415000000,1806,21415000000,world,0.00221302958993,-0.00366782736724,2.89233139638,-0.000140980113851,-4.034900926e-05,0.000100137747298,0.999999984234
21425000000,1807,21425000000,world,0.00221334574591,-0.00366303881396,2.89234660983,-0.000149446414762,-4.29522528126e-05,0.000100366748717,0.999999982874
21435000000,1808,21435000000,world,0.00221369860582,-0.00365829656199,2.89236144883,-0.000157640606984,-4.5508413643e-05,0.000100595368853,0.999999981479
21445000000,1809,21445000000,world,0.00221392924624,-0.0036530704887,2.89237601015,-0.000165676065251,-4.80018556466e-05,0.000100823487089,0.999999980041
21455000000,1810,21455000000,world,0.00221390783704,-0.00364697931824,2.89239052824,-0.00017362578906,-5.04206492326e-05,0.000101050758905,0.99999997855
21465000000,1811,21465000000,world,0.00221364197547,-0.00364016432241,2.89240523933,-0.000181499187418,-5.27120107238e-05,0.000101277229754,0.999999977011
21475000000,1812,21475000000,world,0.00221321483437,-0.00363270440587,2.892420165,-0.000189192849804,-5.48388571841e-05,0.000101503094685,0.999999975448
21485000000,1813,21485000000,world,0.00221287932227,-0.00362549560353,2.89243548357,-0.00019647475728,-5.68764811113e-05,0.000101728361514,0.999999973907
21495000000,1814,21495000000,world,0.00221271911227,-0.00361882147859,2.89245129868,-0.000203275530816,-5.88165636225e-05,0.00010195303505,0.999999972413
21505000000,1815,21505000000,world,0.00221230243374,-0.00361115348551,2.89246758157,-0.000209737546042,-6.06919809687e-05,0.000102177289531,0.999999970943
21515000000,1816,21515000000,world,0.00221184032801,-0.0036032490012,2.89248405079,-0.000215826652639,-6.24551913469e-05,0.00010240114051,0.999999969516
21525000000,1817,21525000000,world,0.00221126322696,-0.00359488948002,2.89250048496,-0.00022158576859,-6.40939616879e-05,0.000102624192867,0.99999996813
21535000000,1818,21535000000,world,0.00221068842732,-0.00358649996271,2.89251669525,-0.000226991781771,-6.5567441866e-05,0.000102846393878,0.999999966799
21545000000,1819,21545000000,world,0.00221008394051,-0.0035779801937,2.89253245596,-0.000232014714412,-6.68330422963e-05,0.000103067937531,0.99999996554
21555000000,1820,21555000000,world,0.0022093163874,-0.00356885243367,2.89254753163,-0.000236582745736,-6.79712537192e-05,0.00010328891901,0.99999996437
21565000000,1821,21565000000,world,0.00220850597387,-0.00355949251295,2.89256180565,-0.000240619220153,-6.89889957468e-05,0.000103509297302,0.999999963314
21575000000,1822,21575000000,world,0.00220757802627,-0.00354964658385,2.89257544634,-0.000244128123688,-6.9880885795e-05,0.000103729198713,0.999999962379
21585000000,1823,21585000000,world,0.00220659647131,-0.00353948660963,2.89258898023,-0.000247110606243,-7.06242362012e-05,0.00010394875136,0.999999961572
21595000000,1824,21595000000,world,0.00220565605923,-0.00352944406911,2.89260300549,-0.000249521592264,-7.11980013602e-05,0.000104167602884,0.999999960909
21605000000,1825,21605000000,world,0.00220474588164,-0.00351951558544,2.89261768318,-0.000251377289427,-7.15941715654e-05,0.000104385598493,0.999999960394
21615000000,1826,21615000000,world,0.00220380425398,-0.00350940934484,2.89263292271,-0.000252695052343,-7.17901751411e-05,0.000104602879085,0.999999960025
21625000000,1827,21625000000,world,0.00220284727602,-0.00349923855561,2.89264863955,-0.000253394963022,-7.17937984277e-05,0.000104819599234,0.999999959825
21635000000,1828,21635000000,world,0.00220188552835,-0.00348898306938,2.89266488083,-0.000253454429235,-7.16359643518e-05,0.000105035701451,0.999999959798
21645000000,1829,21645000000,world,0.00220091610015,-0.0034786578761,2.89268175277,-0.000252863040474,-7.13038185418e-05,0.000105251271262,0.999999959949
21655000000,1830,21655000000,world,0.00219994399855,-0.00346827367109,2.89269932403,-0.000251620680545,-7.07887349864e-05,0.000105466491618,0.999999960276
21665000000,1831,21665000000,world,0.00219897243819,-0.00345787877521,2.89271754368,-0.000249694341019,-7.00926069289e-05,0.000105681136736,0.999999960786
21675000000,1832,21675000000,world,0.00219800168153,-0.00344743233802,2.89273630901,-0.000247096603592,-6.92219089109e-05,0.000105894926091,0.999999961469
21685000000,1833,21685000000,world,0.00219704503425,-0.00343699490029,2.89275557203,-0.000243812662267,-6.8179679702e-05,0.000106107966768,0.999999962324
21695000000,1834,21695000000,world,0.00219610523783,-0.00342660597119,2.89277536523,-0.000239834805922,-6.69355501424e-05,0.000106320446521,0.999999963347
21705000000,1835,21705000000,world,0.00219514898576,-0.0034161680761,2.89279548419,-0.000235190935647,-6.55128251183e-05,0.000106532329523,0.999999964522
21715000000,1836,21715000000,world,0.00219425754908,-0.003405933214,2.89281564458,-0.00022986471978,-6.38930599648e-05,0.000106743643605,0.999999965843
21725000000,1837,21725000000,world,0.00219335880713,-0.00339568944929,2.89283596094,-0.000223879408686,-6.20783968245e-05,0.000106954574746,0.999999967293
21735000000,1838,21735000000,world,0.00219248590467,-0.00338553783354,2.89285662395,-0.000217163111632,-6.0080400921e-05,0.000107165056119,0.999999968873
21745000000,1839,21745000000,world,0.00219169241526,-0.00337565465826,2.89287778581,-0.000209684362022,-5.79137708982e-05,0.0001073747198,0.999999970575
21755000000,1840,21755000000,world,0.00219097974581,-0.00336599848587,2.89289957005,-0.000201437119891,-5.56101267909e-05,0.000107583593017,0.999999972378
21765000000,1841,21765000000,world,0.00219027444725,-0.00335643397989,2.89292222679,-0.000192465082221,-5.31521421673e-05,0.000107791897525,0.999999974256
21775000000,1842,21775000000,world,0.00218966572133,-0.00334722833263,2.89294595451,-0.000182836184178,-5.05075138132e-05,0.000107999618299,0.999999976178
21785000000,1843,21785000000,world,0.00218907561587,-0.00333815202396,2.89297067759,-0.000172610522756,-4.76797496986e-05,0.000108206754008,0.999999978112
21795000000,1844,21795000000,world,0.00218848657479,-0.00332913858702,2.8929963593,-0.000161812700067,-4.46655440062e-05,0.00010841345279,0.999999980034
21805000000,1845,21805000000,world,0.00219819327621,-0.00335755756216,2.89302308772,-0.000146581984741,-4.03965837169e-05,0.000108619372234,0.999999982542
21815000000,1846,21815000000,world,0.00220810484167,-0.00338637740197,2.89305107136,-0.00013069631596,-3.6017596067e-05,0.000108824333757,0.999999984889
21825000000,1847,21825000000,world,0.0022177188109,-0.00341392621241,2.8930804559,-0.000114425781718,-3.16677359026e-05,0.000109028128347,0.999999987008
21835000000,1848,21835000000,world,0.00223040605828,-0.0034528979242,2.89311129989,-9.6548416282e-05,-2.70559400227e-05,0.000109230670088,0.999999989008
21845000000,1849,21845000000,world,0.00224360379562,-0.00349536677426,2.89314361219,-7.82797313496e-05,-2.23736471114e-05,0.000109431975569,0.999999990698
21855000000,1850,21855000000,world,0.002255795581,-0.00353448582152,2.89317721069,-6.05743109486e-05,-1.78069096784e-05,0.000109631891521,0.999999991997
21865000000,1851,21865000000,world,0.00226795157804,-0.003576471965,2.89321209043,-4.2942474193e-05,-1.32862399204e-05,0.00010983020107,0.999999992958
21875000000,1852,21875000000,world,0.00227882813345,-0.00361365998101,2.89324866168,-2.61992055772e-05,-9.00538957765e-06,0.000110027334869,0.999999993563
21885000000,1853,21885000000,world,0.00228854543425,-0.00364668238065,2.89328693971,-1.02877765686e-05,-5.03099551185e-06,0.000110222942254,0.99999999386
21895000000,1854,21895000000,world,0.00229674101944,-0.00367408688041,2.89332687057,4.51029824863e-06,-1.46762144502e-06,0.000110416870924,0.999999993893
21905000000,1855,21905000000,world,0.00230222170618,-0.00369272916698,2.89336840508,1.77587862515e-05,1.51293758265e-06,0.000110609052023,0.999999993724
21915000000,1856,21915000000,world,0.00230586667699,-0.00370528563906,2.89341153927,2.94489193786e-05,4.07977394305e-06,0.000110799768658,0.99999999342
21925000000,1857,21925000000,world,0.00230715602065,-0.0037105598906,2.89345638794,3.93035145592e-05,6.15117296388e-06,0.000110988775368,0.999999993049
21935000000,1858,21935000000,world,0.00230658391245,-0.00370883255213,2.89350304761,4.73224909733e-05,7.76862181031e-06,0.000111176471247,0.99999999267
21945000000,1859,21945000000,world,0.0023040846283,-0.00369972778616,2.89355156589,5.35137802114e-05,8.91100142479e-06,0.000111363036193,0.999999992328
21955000000,1860,21955000000,world,0.0022932821538,-0.00365256563271,2.89360193271,5.48149461535e-05,8.89313697438e-06,0.000111549447312,0.999999992236
21965000000,1861,21965000000,world,0.00228188697635,-0.00360261760567,2.89365403773,5.49042614907e-05,8.55826764464e-06,0.000111734384794,0.999999992214
21975000000,1862,21975000000,world,0.00227091607297,-0.00355445001323,2.89370765022,5.43121984081e-05,8.06280593043e-06,0.000111917947888,0.99999999223
21985000000,1863,21985000000,world,0.00226038975655,-0.00350798979126,2.89376246594,5.31096912458e-05,7.47181999746e-06,0.000112100547979,0.999999992278
21995000000,1864,21995000000,world,0.00225038931964,-0.00346360175601,2.89381819468,5.14365695167e-05,6.75125186229e-06,0.000112282297607,0.999999992351
22005000000,1865,22005000000,world,0.00224097866154,-0.00342150993119,2.89387457984,4.94186636402e-05,5.92580867517e-06,0.000112463282304,0.999999992437
22015000000,1866,22015000000,world,0.00223212345475,-0.0033817506919,2.89393144538,4.71514603408e-05,5.01644661174e-06,0.000112643665472,0.999999992531
22025000000,1867,22025000000,world,0.00222382764696,-0.00334432899744,2.89398849085,4.46892473261e-05,4.05210780912e-06,0.000112823428185,0.999999992629
22035000000,1868,22035000000,world,0.00221612064674,-0.00330931390414,2.89404541579,4.2075652177e-05,3.06067717231e-06,0.000113002203978,0.999999992725
22045000000,1869,22045000000,world,0.00220902348015,-0.0032767399341,2.89410204022,3.93414639425e-05,2.0802067673e-06,0.000113180010399,0.999999992819
22055000000,1870,22055000000,world,0.00220242831973,-0.00324631583036,2.89415816129,3.65233475572e-05,1.15535433858e-06,0.000113357058978,0.999999992907
22065000000,1871,22065000000,world,0.002196377867,-0.00321810024853,2.89421341312,3.37269074147e-05,2.34216548968e-07,0.000113533387014,0.999999992986
22075000000,1872,22075000000,world,0.00219067917911,-0.00319150228846,2.89426741581,3.0944728727e-05,-7.09286500808e-07,0.000113708971755,0.999999993056
22085000000,1873,22085000000,world,0.00218540517103,-0.00316665349784,2.89431990251,2.82376880113e-05,-1.65184765776e-06,0.000113883968488,0.999999993115
22095000000,1874,22095000000,world,0.00218052585978,-0.00314345543882,2.89437071012,2.56028589496e-05,-2.57798034739e-06,0.000114058484566,0.999999993164
22105000000,1875,22105000000,world,0.002175957577,-0.00312160969566,2.89441990161,2.301687281e-05,-3.48121680059e-06,0.000114232141309,0.999999993205
22115000000,1876,22115000000,world,0.0021717019505,-0.00310109156762,2.89446767379,2.04647067799e-05,-4.34263352183e-06,0.000114404842929,0.999999993237
22125000000,1877,22125000000,world,0.00216776094521,-0.00308186509972,2.89451442888,1.79610289694e-05,-5.11550293468e-06,0.000114576777395,0.999999993262
22135000000,1878,22135000000,world,0.0021640989755,-0.00306378097911,2.89456002931,1.55631480406e-05,-5.83464543889e-06,0.000114748057675,0.999999993278
22145000000,1879,22145000000,world,0.00216066445662,-0.00304664983551,2.8946043087,1.32833572303e-05,-6.53985189426e-06,0.000114918630379,0.999999993287
22155000000,1880,22155000000,world,0.00215741598876,-0.00303029211836,2.89464759798,1.11247321667e-05,-7.22509502826e-06,0.000115088601187,0.999999993289
22165000000,1881,22165000000,world,0.00215423994323,-0.00301433091174,2.89469021883,9.04351023889e-06,-7.89203540531e-06,0.000115258146958,0.999999993286
22175000000,1882,22175000000,world,0.0021511959561,-0.00299894721505,2.89473217589,7.05367295169e-06,-8.52500400798e-06,0.000115426979224,0.999999993277
22185000000,1883,22185000000,world,0.00214825638174,-0.00298401875292,2.89477327605,5.11336101239e-06,-9.11853188382e-06,0.000115594875138,0.999999993264
22195000000,1884,22195000000,world,0.00214542162667,-0.00296958285869,2.89481336685,3.21754782481e-06,-9.64236101428e-06,0.000115761968531,0.999999993248
22205000000,1885,22205000000,world,0.00214265470457,-0.0029554327635,2.89485236138,1.390162673e-06,-1.00943476299e-05,0.000115928435501,0.999999993228
22215000000,1886,22215000000,world,0.00213992994294,-0.00294150701323,2.89489032398,-3.46117987378e-07,-1.05316317366e-05,0.000116094222396,0.999999993206
22225000000,1887,22225000000,world,0.00213721765308,-0.00292766546175,2.89492743527,-1.99387988011e-06,-1.09505432389e-05,0.000116259389234,0.99999999318
22235000000,1888,22235000000,world,0.00213451885386,-0.00291389881691,2.89496354563,-3.5527027712e-06,-1.13439651771e-05,0.000116424123832,0.999999993152
22245000000,1889,22245000000,world,0.00213185650147,-0.00290029788737,2.89499845214,-5.02096978926e-06,-1.17030986803e-05,0.000116588292474,0.999999993122
22255000000,1890,22255000000,world,0.00212922849076,-0.0028868538013,2.89503190336,-6.42678759588e-06,-1.20250084417e-05,0.00011675155915,0.999999993092
22265000000,1891,22265000000,world,0.00212658876794,-0.00287340447984,2.89506366188,-7.8075150088e-06,-1.22993803718e-05,0.000116913983191,0.999999993059
22275000000,1892,22275000000,world,0.00212396476152,-0.00286005295781,2.89509382741,-9.12814674132e-06,-1.24920699764e-05,0.00011707577643,0.999999993027
22285000000,1893,22285000000,world,0.00212132031099,-0.0028466416409,2.89512276048,-1.03727705723e-05,-1.26616918963e-05,0.000117236923968,0.999999992994
22295000000,1894,22295000000,world,0.00211868908353,-0.00283330045249,2.89515069449,-1.15183914494e-05,-1.2805719646e-05,0.000117397439922,0.999999992961
22305000000,1895,22305000000,world,0.00211605563861,-0.00281996088169,2.89517777529,-1.25645027473e-05,-1.29194005047e-05,0.000117557487824,0.999999992928
22315000000,1896,22315000000,world,0.00211341522075,-0.00280659483457,2.89520406487,-1.35217119414e-05,-1.29988956729e-05,0.000117717089774,0.999999992895
22325000000,1897,22325000000,world,0.00211076066814,-0.00279315306705,2.89522952333,-1.44103319755e-05,-1.30448473203e-05,0.000117875854508,0.999999992864
22335000000,1898,22335000000,world,0.00210810322369,-0.00277971287498,2.89525438156,-1.52483177738e-05,-1.30508670766e-05,0.000118033751175,0.999999992833
22345000000,1899,22345000000,world,0.00210543114003,-0.00276620166246,2.89527906506,-1.6036231868e-05,-1.29840473085e-05,0.000118190981929,0.999999992803
22355000000,1900,22355000000,world,0.0021027568628,-0.0027527185141,2.89530377529,-1.67312914129e-05,-1.28750134841e-05,0.000118347608629,0.999999992774
22365000000,1901,22365000000,world,0.00210007370969,-0.0027392032002,2.89532878717,-1.73307008188e-05,-1.27401880416e-05,0.000118503594835,0.999999992747
22375000000,1902,22375000000,world,0.00209738944945,-0.00272564409807,2.89535456728,-1.78254539685e-05,-1.25713470692e-05,0.000118659068067,0.999999992722
22385000000,1903,22385000000,world,0.00209470184319,-0.00271209855533,2.89538118351,-1.82139345614e-05,-1.23655816519e-05,0.000118814167073,0.999999992699
22395000000,1904,22395000000,world,0.00209201521557,-0.00269851803971,2.89540862488,-1.8501842395e-05,-1.21247722634e-05,0.000118968527562,0.999999992679
22405000000,1905,22405000000,world,0.00208933130376,-0.00268493322849,2.89543708131,-1.87152751677e-05,-1.1849527883e-05,0.000119122005485,0.99999999266
22415000000,1906,22415000000,world,0.00208663828611,-0.00267136884041,2.89546648626,-1.88547358396e-05,-1.15194923061e-05,0.000119274768403,0.999999992643
22425000000,1907,22425000000,world,0.00208396068587,-0.00265778074636,2.89549665878,-1.89013019579e-05,-1.11302013444e-05,0.000119426949703,0.999999992628
22435000000,1908,22435000000,world,0.00208127746542,-0.00264422064528,2.89552760538,-1.88404409443e-05,-1.07154986107e-05,0.000119578492717,0.999999992616
22445000000,1909,22445000000,world,0.0020786047488,-0.00263066363947,2.89555933998,-1.86669584081e-05,-1.02654397341e-05,0.00011972948431,0.999999992606
22455000000,1910,22455000000,world,0.00207594909187,-0.00261712125683,2.89559176787,-1.83782777611e-05,-9.77648230538e-06,0.000119880109843,0.999999992598
22465000000,1911,22465000000,world,0.00207330316592,-0.00260360583862,2.89562454465,-1.79638078521e-05,-9.25403843596e-06,0.000120030123284,0.999999992592
22475000000,1912,22475000000,world,0.00207068908616,-0.0025901219308,2.8956574676,-1.74499946199e-05,-8.70070225816e-06,0.000120179257032,0.999999992588
22485000000,1913,22485000000,world,0.00206810714819,-0.00257669396254,2.89569069564,-1.68434889526e-05,-8.11058849209e-06,0.000120327620537,0.999999992586
22495000000,1914,22495000000,world,0.00206562768304,-0.00256338898483,2.8957243717,-1.61264887913e-05,-7.44946316555e-06,0.000120475399478,0.999999992585
22505000000,1915,22505000000,world,0.00206316423071,-0.002550137307,2.89575863199,-1.53014080032e-05,-6.76132135732e-06,0.000120622526308,0.999999992585
22515000000,1916,22515000000,world,0.00206064747544,-0.00253686856811,2.89579367124,-1.43723473191e-05,-6.04704951049e-06,0.000120769035804,0.999999992586
22525000000,1917,22525000000,world,0.00205810125297,-0.00252360552306,2.89582967644,-1.33315291401e-05,-5.30096223276e-06,0.000120915109967,0.999999992587
22535000000,1918,22535000000,world,0.00205558424959,-0.00251041667222,2.89586672362,-1.21577829114e-05,-4.52308140346e-06,0.000121060662501,0.999999992588
22545000000,1919,22545000000,world,0.00205307947139,-0.00249727959281,2.89590488645,-1.08699487511e-05,-3.7235521285e-06,0.000121205332398,0.999999992589
22555000000,1920,22555000000,world,0.00205055068731,-0.00248413899485,2.89594431501,-9.48872056405e-06,-2.91132138617e-06,0.000121349157039,0.999999992588
22565000000,1921,22565000000,world,0.00204806313282,-0.00247110593684,2.8959851031,-8.00187572924e-06,-2.04639935479e-06,0.000121492347464,0.999999992586
22575000000,1922,22575000000,world,0.00204559669997,-0.00245814179389,2.8960272432,-6.41701169586e-06,-1.15610097051e-06,0.00012163491027,0.999999992581
22585000000,1923,22585000000,world,0.00204320184635,-0.00244533682926,2.89607072171,-4.72839697384e-06,-2.34748603789e-07,0.000121776841495,0.999999992574
22595000000,1924,22595000000,world,0.00204094188456,-0.00243280545998,2.89611531342,-2.92406565233e-06,7.3366254509e-07,0.000121918294357,0.999999992563
22605000000,1925,22605000000,world,0.00203869611918,-0.00242034010517,2.89616106739,-1.01123449186e-06,1.72979928608e-06,0.000122059333978,0.999999992549
22615000000,1926,22615000000,world,0.00203643042087,-0.00240787577687,2.8962082749,1.00361964434e-06,2.73820200963e-06,0.000122199569133,0.999999992529
22625000000,1927,22625000000,world,0.00203414769774,-0.00239540310784,2.89625720794,3.09796537783e-06,3.74874338036e-06,0.000122338937558,0.999999992505
22635000000,1928,22635000000,world,0.00203187332161,-0.00238299041198,2.89630775898,5.27457270251e-06,4.78460062581e-06,0.000122477635297,0.999999992474
22645000000,1929,22645000000,world,0.00202968727215,-0.00237078383022,2.89635936265,7.53374183088e-06,5.85490642493e-06,0.000122615739864,0.999999992437
22655000000,1930,22655000000,world,0.0020275253277,-0.00235866338761,2.89641149721,9.85601279337e-06,6.93750181183e-06,0.000122753208869,0.999999992393
22665000000,1931,22665000000,world,0.00202537259308,-0.00234655422774,2.89646365918,1.22357599144e-05,8.0364113871e-06,0.000122890160969,0.999999992342
22675000000,1932,22675000000,world,0.00202330869532,-0.0023346838277,2.89651536761,1.47081106429e-05,9.15572006537e-06,0.000123026749053,0.999999992282
22685000000,1933,22685000000,world,0.00202123451395,-0.00232282021679,2.89656626687,1.72678826192e-05,1.02714583761e-05,0.000123162638652,0.999999992214
22695000000,1934,22695000000,world,0.00201931411391,-0.00231133178554,2.8966160891,1.99271585202e-05,1.13892392464e-05,0.000123297646004,0.999999992135
22705000000,1935,22705000000,world,0.00201737769841,-0.00229983154416,2.89666470713,2.26386905636e-05,1.24948541411e-05,0.000123431930413,0.999999992048
22715000000,1936,22715000000,world,0.00201554038257,-0.00228858232495,2.89671205661,2.54075377834e-05,1.36260770317e-05,0.000123565641004,0.99999999195
22725000000,1937,22725000000,world,0.00201372143416,-0.00227740872501,2.8967580044,2.81990019846e-05,1.47473654535e-05,0.000123698720094,0.999999991843
22735000000,1938,22735000000,world,0.00201192793745,-0.00226630053263,2.89680239604,3.10095687805e-05,1.58648352434e-05,0.000123831244148,0.999999991726
22745000000,1939,22745000000,world,0.0020102587382,-0.00225555106054,2.89684515916,3.38778124907e-05,1.69873338838e-05,0.00012396339414,0.999999991598
22755000000,1940,22755000000,world,0.00200866765023,-0.00224502125901,2.89688645929,3.68170288084e-05,1.80965036275e-05,0.000124094971673,0.999999991459
22765000000,1941,22765000000,world,0.00200708119283,-0.00223452697953,2.89692656607,3.97842913364e-05,1.91723533076e-05,0.000124225680786,0.999999991309
22775000000,1942,22775000000,world,0.00200546537017,-0.00222398069406,2.89696544617,4.27596370771e-05,2.02049381301e-05,0.000124355611312,0.99999999115
22785000000,1943,22785000000,world,0.00200394708368,-0.00221371318431,2.89700306484,4.57552738953e-05,2.12445175897e-05,0.000124484958256,0.999999990979
22795000000,1944,22795000000,world,0.002002492507,-0.002203649359,2.89703977771,4.8736269122e-05,2.22576128262e-05,0.000124613686806,0.9999999908
22805000000,1945,22805000000,world,0.00200113619523,-0.00219390071263,2.89707566118,5.17079535888e-05,2.32485781765e-05,0.000124741824311,0.999999990613
22815000000,1946,22815000000,world,0.00199976497334,-0.00218413899677,2.89711083892,5.46400746008e-05,2.42060898436e-05,0.000124869550748,0.999999990418
22825000000,1947,22825000000,world,0.00199836002942,-0.00217430666853,2.89714528471,5.75541098218e-05,2.51181322702e-05,0.000124996830814,0.999999990216
22835000000,1948,22835000000,world,0.00199704777173,-0.00216477101447,2.89717889955,6.04755260509e-05,2.59869701237e-05,0.000125123274178,0.999999990006
22845000000,1949,22845000000,world,0.00199577092603,-0.00215536517962,2.89721171006,6.33684295808e-05,2.6798763827e-05,0.000125248889981,0.999999989789
22855000000,1950,22855000000,world,0.00199452856828,-0.00214609853878,2.89724400142,6.62177418179e-05,2.75871228421e-05,0.000125373889325,0.999999989568
22865000000,1951,22865000000,world,0.00199330890803,-0.0021369345838,2.89727607862,6.89877491597e-05,2.83306855082e-05,0.000125498300005,0.999999989344
22875000000,1952,22875000000,world,0.00199214810338,-0.00212800624595,2.89730808579,7.16829996343e-05,2.90215241127e-05,0.000125622096664,0.999999989119
22885000000,1953,22885000000,world,0.00199102296965,-0.00211923479452,2.89733994454,7.42978472954e-05,2.96601248629e-05,0.000125745424198,0.999999988894
22895000000,1954,22895000000,world,0.0019899190595,-0.00211056443588,2.89737155413,7.68446844357e-05,3.02401346251e-05,0.000125868381466,0.999999988669
22905000000,1955,22905000000,world,0.00198881731626,-0.00210192089343,2.89740308628,7.93187242527e-05,3.0751090412e-05,0.000125990585349,0.999999988445
22915000000,1956,22915000000,world,0.00198776145921,-0.00209347811636,2.89743494359,8.17102747923e-05,3.11930856126e-05,0.000126111929982,0.999999988223
22925000000,1957,22925000000,world,0.00198672013053,-0.00208511389363,2.89746678151,8.39949981318e-05,3.15885888021e-05,0.000126232603906,0.999999988006
22935000000,1958,22935000000,world,0.00198567331964,-0.00207674092133,2.89749834346,8.61374251348e-05,3.19337454841e-05,0.000126352718202,0.999999987798
22945000000,1959,22945000000,world,0.00198469531651,-0.00206871734332,2.89752975561,8.81653210427e-05,3.22047060231e-05,0.000126472201224,0.999999987597
22955000000,1960,22955000000,world,0.0019837076396,-0.00206066673441,2.89756095741,9.00409493128e-05,3.23972504555e-05,0.000126591169793,0.999999987409
22965000000,1961,22965000000,world,0.00198274920715,-0.00205277030313,2.8975918203,9.17931823904e-05,3.25156845258e-05,0.000126709791251,0.999999987231
22975000000,1962,22975000000,world,0.0019818280779,-0.00204509477939,2.89762226339,9.344155155e-05,3.25576091377e-05,0.000126827762054,0.999999987062
22985000000,1963,22985000000,world,0.0019809103147,-0.00203745115658,2.89765251172,9.49322832623e-05,3.25189312303e-05,0.000126944869424,0.999999986908
22995000000,1964,22995000000,world,0.001980014929,-0.00202997074353,2.89768285704,9.62659173452e-05,3.24228129276e-05,0.000127061241095,0.999999986769
23005000000,1965,23005000000,world,0.00197913006824,-0.00202259945218,2.89771351569,9.74250452161e-05,3.22862462503e-05,0.000127177054556,0.999999986646
23015000000,1966,23015000000,world,0.00197825472514,-0.00201532644702,2.89774446818,9.84016874796e-05,3.20558771561e-05,0.000127292247104,0.999999986543
23025000000,1967,23025000000,world,0.00197738763443,-0.00200829437262,2.89777549554,9.92137426529e-05,3.17338477595e-05,0.000127406869373,0.999999986459
23035000000,1968,23035000000,world,0.00197652535747,-0.0020013551701,2.89780637138,9.985259715e-05,3.13228651489e-05,0.000127521117175,0.999999986393
23045000000,1969,23045000000,world,0.00197566978937,-0.00199448166274,2.89783699548,0.00010032315764,3.08267964444e-05,0.000127634846571,0.999999986347
23055000000,1970,23055000000,world,0.00197480759519,-0.00198770812771,2.89786727064,0.000100598025868,3.02479269724e-05,0.000127747719914,0.999999986323
23065000000,1971,23065000000,world,0.00197393921302,-0.00198099432703,2.89789696785,0.000100650546629,2.96064902493e-05,0.000127859805589,0.999999986322
23075000000,1972,23075000000,world,0.00197306195459,-0.00197433660543,2.89792612925,0.000100480604451,2.89394827262e-05,0.000127971315161,0.999999986345
23085000000,1973,23085000000,world,0.00197217357047,-0.00196773634502,2.89795487066,0.000100096125553,2.81791673951e-05,0.00012808222064,0.999999986391
23095000000,1974,23095000000,world,0.00197129570856,-0.00196117693662,2.89798311105,9.95014788513e-05,2.73210467295e-05,0.000128192538854,0.99999998646
23105000000,1975,23105000000,world,0.00197043886582,-0.00195466771933,2.89801067766,9.87082912728e-05,2.63707399957e-05,0.000128302435115,0.99999998655
23115000000,1976,23115000000,world,0.00196953883752,-0.00194817888704,2.89803755371,9.77087558409e-05,2.53312953152e-05,0.00012841191414,0.999999986661
23125000000,1977,23125000000,world,0.00196865554099,-0.00194172552078,2.89806369223,9.64813325519e-05,2.42179298366e-05,0.000128520596267,0.999999986794
23135000000,1978,23135000000,world,0.00196776986896,-0.00193531413878,2.89808914754,9.49938375377e-05,2.30490862255e-05,0.000128628452594,0.99999998695
23145000000,1979,23145000000,world,0.00196680305613,-0.00192888669115,2.89811414406,9.32413177661e-05,2.18672370523e-05,0.000128735681158,0.999999987128
23155000000,1980,23155000000,world,0.00196583190687,-0.00192247272442,2.89813874327,9.1261907659e-05,2.06168058257e-05,0.000128842338895,0.999999987323
23165000000,1981,23165000000,world,0.00196486444076,-0.0019160962993,2.89816274164,8.90724917915e-05,1.92711949824e-05,0.000128948387624,0.999999987534
23175000000,1982,23175000000,world,0.00196385383526,-0.0019097016096,2.89818583226,8.66840003573e-05,1.78309925134e-05,0.000129053951162,0.999999987757
23185000000,1983,23185000000,world,0.00196283269633,-0.00190329006619,2.89820829327,8.40836704232e-05,1.63126295284e-05,0.00012915916856,0.999999987991
23195000000,1984,23195000000,world,0.00196174442386,-0.00189679663806,2.89823017304,8.12445661979e-05,1.47253477598e-05,0.000129263668704,0.999999988237
23205000000,1985,23205000000,world,0.00196059388261,-0.00189023666951,2.89825114189,7.81281436048e-05,1.30907059688e-05,0.000129367312927,0.999999988494
23215000000,1986,23215000000,world,0.00195944401349,-0.0018837087705,2.8982713046,7.47356381193e-05,1.14711818297e-05,0.000129470280944,0.99999998876
23225000000,1987,23225000000,world,0.0019582081037,-0.00187706448938,2.89829064272,7.1112835043e-05,9.82099379727e-06,0.000129572691411,0.999999989029
23235000000,1988,23235000000,world,0.00195697468683,-0.0018704483822,2.89830889653,6.73078945789e-05,8.09036380188e-06,0.000129674484939,0.999999989294
23245000000,1989,23245000000,world,0.00195566513456,-0.001863686801,2.89832574072,6.33248089716e-05,6.27748116791e-06,0.000129775745042,0.999999989554
23255000000,1990,23255000000,world,0.00195436373558,-0.001856939987,2.89834098414,5.91727687262e-05,4.40401532097e-06,0.000129876663747,0.999999989806
23265000000,1991,23265000000,world,0.00195302960824,-0.00185012760173,2.89835451714,5.48148134026e-05,2.48727023221e-06,0.000129976988861,0.999999990048
23275000000,1992,23275000000,world,0.00195154093408,-0.00184299788568,2.89836633109,5.01840962291e-05,5.3516252821e-07,0.000130076446682,0.999999990281
23285000000,1993,23285000000,world,0.0019500544089,-0.00183589558112,2.89837670191,4.52937631862e-05,-1.38329363347e-06,0.000130175163642,0.9999999905
23295000000,1994,23295000000,world,0.001948553321,-0.00182878406639,2.89838585878,4.02092392561e-05,-3.26622669394e-06,0.000130273326908,0.999999990701
23305000000,1995,23305000000,world,0.0019469355338,-0.00182142378794,2.89839394099,3.49701657751e-05,-5.21216128352e-06,0.000130370873588,0.999999990877
23315000000,1996,23315000000,world,0.00194528713905,-0.00181397008888,2.89840108353,2.96197502867e-05,-7.20938498894e-06,0.000130467855485,0.999999991024
23325000000,1997,23325000000,world,0.00194367706403,-0.0018066042646,2.89840747929,2.41844598561e-05,-9.23958984987e-06,0.000130564458257,0.999999991141
23335000000,1998,23335000000,world,0.00194192837411,-0.00179886015109,2.89841335675,1.85757698033e-05,-1.12968379979e-05,0.000130660582821,0.999999991228
23345000000,1999,23345000000,world,0.00194019153339,-0.0017911429186,2.89841886034,1.2797022243e-05,-1.33446714821e-05,0.000130755875707,0.999999991281
23355000000,2000,23355000000,world,0.00193839165409,-0.00178327107071,2.89842412076,6.79687779096e-06,-1.53486153256e-05,0.000130850364101,0.999999991298
23365000000,2001,23365000000,world,0.00193642179834,-0.00177496787351,2.89842928142,5.97371986643e-07,-1.72785433858e-05,0.000130944251788,0.999999991277
23375000000,2002,23375000000,world,0.00193448038882,-0.00176674493646,2.89843449817,-5.6427766169e-06,-1.9210999368e-05,0.000131037556723,0.999999991214
23385000000,2003,23385000000,world,0.00193251268312,-0.00175845535856,2.8984397816,-1.19056886491e-05,-2.11608901622e-05,0.000131130269239,0.999999991108
23395000000,2004,23395000000,world,0.00193037069888,-0.00174959800025,2.89844498132,-1.82204521192e-05,-2.31340840343e-05,0.000131222530246,0.999999990957
23405000000,2005,23405000000,world,0.00192822835708,-0.00174076161513,2.89845014598,-2.45711541143e-05,-2.5088881503e-05,0.000131314413431,0.999999990762
23415000000,2006,23415000000,world,0.0019260563629,-0.0017317582408,2.89845543638,-3.1008354513e-05,-2.70073810731e-05,0.000131405519346,0.999999990521
23425000000,2007,23425000000,world,0.00192371062091,-0.00172221437521,2.89846105117,-3.76096672357e-05,-2.88738498383e-05,0.000131495768711,0.99999999023
23435000000,2008,23435000000,world,0.00192134107544,-0.00171259581195,2.89846727618,-4.43043979578e-05,-3.06152197322e-05,0.000131585366766,0.999999989893
23445000000,2009,23445000000,world,0.00191895077288,-0.00170291675572,2.89847423313,-5.09613231058e-05,-3.23035378254e-05,0.000131674401744,0.999999989511
23455000000,2010,23455000000,world,0.00191652769625,-0.00169311844966,2.89848178713,-5.75384796016e-05,-3.39727437444e-05,0.000131762825918,0.999999989087
23465000000,2011,23465000000,world,0.00191400747043,-0.0016829170358,2.89848982533,-6.40340286048e-05,-3.5618548557e-05,0.000131850746735,0.999999988623
23475000000,2012,23475000000,world,0.00191151000319,-0.00167276016197,2.89849867635,-7.04343008588e-05,-3.72101007526e-05,0.000131938332822,0.999999988123
23485000000,2013,23485000000,world,0.00190888486414,-0.00166209009911,2.89850885078,-7.68294835928e-05,-3.87433228667e-05,0.000132025224036,0.999999987583
23495000000,2014,23495000000,world,0.00190613560737,-0.00165093742149,2.89852037041,-8.32518526416e-05,-4.01975135154e-05,0.000132111236384,0.999999987
23505000000,2015,23505000000,world,0.00190339642784,-0.00163982199569,2.89853339695,-8.96498878392e-05,-4.15087435841e-05,0.00013219653256,0.999999986382
23515000000,2016,23515000000,world,0.00190070890487,-0.0016289174352,2.89854803219,-9.58830959895e-05,-4.26983482445e-05,0.000132281281362,0.999999985742
23525000000,2017,23525000000,world,0.00189798766037,-0.00161786319445,2.89856429214,-0.000101921874119,-4.38310637136e-05,0.000132365415013,0.999999985085
23535000000,2018,23535000000,world,0.00189510534833,-0.00160604103317,2.89858225851,-0.000107800523203,-4.49085009159e-05,0.000132448984621,0.99999998441
23545000000,2019,23545000000,world,0.0018921828457,-0.00159396912701,2.89860179553,-0.000113472014414,-4.59050508358e-05,0.000132532194903,0.999999983726
23555000000,2020,23555000000,world,0.0018893173159,-0.00158213640999,2.89862265885,-0.000118920738434,-4.67947267703e-05,0.000132614858303,0.999999983041
23565000000,2021,23565000000,world,0.00188641214932,-0.00157008703875,2.89864470116,-0.000124221858226,-4.75770753925e-05,0.000132696652154,0.999999982348
23575000000,2022,23575000000,world,0.0018834599543,-0.0015577815356,2.89866799166,-0.000129396047093,-4.8224191616e-05,0.00013277765981,0.999999981651
23585000000,2023,23585000000,world,0.00188046105439,-0.00154519769679,2.8986925957,-0.000134361296971,-4.87200251502e-05,0.000132858082079,0.999999980961
23595000000,2024,23595000000,world,0.00187748080598,-0.00153271515029,2.89871877703,-0.000138993611475,-4.91175937639e-05,0.000132937913039,0.999999980298
23605000000,2025,23605000000,world,0.00187445047332,-0.00151984144178,2.8987468593,-0.000143318719991,-4.94161749363e-05,0.000133017153651,0.999999979662
23615000000,2026,23615000000,world,0.00187142251823,-0.00150689995799,2.89877662956,-0.000147293347302,-4.9600301051e-05,0.000133095994903,0.999999979065
23625000000,2027,23625000000,world,0.00186839313362,-0.00149393098315,2.89880772832,-0.000150940599311,-4.96624775641e-05,0.000133174395326,0.999999978508
23635000000,2028,23635000000,world,0.00186533897511,-0.00148067142776,2.89883980738,-0.000154304474165,-4.96033378115e-05,0.00013325195163,0.999999977987
23645000000,2029,23645000000,world,0.00186229274202,-0.00146736472858,2.898872423,-0.000157378332606,-4.94125623914e-05,0.000133328686539,0.999999977507
23655000000,2030,23655000000,world,0.00185923857013,-0.00145390340478,2.89890543977,-0.000160133597696,-4.90626458829e-05,0.000133404801794,0.999999977077
23665000000,2031,23665000000,world,0.00185618108246,-0.00144001266373,2.89893896683,-0.000162524363605,-4.85886190538e-05,0.000133480298844,0.999999976704
23675000000,2032,23675000000,world,0.00185313664219,-0.00142598983639,2.89897308773,-0.000164497992217,-4.79861590333e-05,0.000133555141447,0.9999999764
23685000000,2033,23685000000,world,0.00185009499935,-0.0014120465767,2.89900778626,-0.000166018755591,-4.72294798825e-05,0.000133629274232,0.999999976175
23695000000,2034,23695000000,world,0.00184705576721,-0.00139808334856,2.89904281376,-0.000167106949189,-4.63165217326e-05,0.000133702754175,0.999999976027
23705000000,2035,23705000000,world,0.00184403536429,-0.00138410431691,2.89907792655,-0.000167760389272,-4.52548703158e-05,0.000133775205029,0.999999975956
23715000000,2036,23715000000,world,0.0018410070075,-0.001370195172,2.89911291488,-0.000167987120462,-4.40580206097e-05,0.000133846564372,0.999999975962
23725000000,2037,23725000000,world,0.00183802633219,-0.00135619423102,2.89914762218,-0.000167791549492,-4.27112786394e-05,0.000133916983528,0.999999976044
23735000000,2038,23735000000,world,0.00183513827965,-0.00134213058468,2.89918200233,-0.000167134639336,-4.12009852259e-05,0.000133986567671,0.999999976208
23745000000,2039,23745000000,world,0.00183225242359,-0.00132813255939,2.89921607293,-0.000165994316466,-3.95453562883e-05,0.000134055316944,0.999999976456
23755000000,2040,23755000000,world,0.00182944810851,-0.0013141403873,2.89924978891,-0.000164372258984,-3.77260562626e-05,0.00013412330769,0.999999976785
23765000000,2041,23765000000,world,0.00182666815951,-0.00130016869339,2.89928295988,-0.000162263574541,-3.57534112113e-05,0.000134190743192,0.999999977193
23775000000,2042,23775000000,world,0.00182392467207,-0.00128624254702,2.89931534467,-0.000159636929464,-3.36472337721e-05,0.000134257327183,0.999999977679
23785000000,2043,23785000000,world,0.00182113906264,-0.00127229888331,2.89934709421,-0.000156513561147,-3.14375857591e-05,0.000134322881638,0.999999978236
23795000000,2044,23795000000,world,0.00181847818702,-0.0012584547135,2.89937856388,-0.000152874795524,-2.91284488909e-05,0.00013438749932,0.99999997886
23805000000,2045,23805000000,world,0.00181599208642,-0.00124481458079,2.89940996994,-0.000148723139734,-2.66733868011e-05,0.000134451340147,0.999999979546
23815000000,2046,23815000000,world,0.00181372884581,-0.00123148250037,2.89944127233,-0.00014406949615,-2.40695120296e-05,0.000134514342287,0.999999980285
23825000000,2047,23825000000,world,0.00181144690423,-0.00121814523914,2.89947241837,-0.000138957416256,-2.13329417443e-05,0.000134576637342,0.999999981062
23835000000,2048,23835000000,world,0.00180911027193,-0.00120474753967,2.89950327048,-0.000133387167687,-1.84713053038e-05,0.000134638427279,0.99999998187
23845000000,2049,23845000000,world,0.00180679224252,-0.00119138483522,2.89953369117,-0.000127291936864,-1.55073952657e-05,0.000134699550073,0.999999982706
23855000000,2050,23855000000,world,0.00180457005007,-0.00117820085171,2.89956362651,-0.000120658337267,-1.24630706034e-05,0.000134759668807,0.999999983563
23865000000,2051,23865000000,world,0.00180226924048,-0.00116487345127,2.8995930632,-0.00011351407036,-9.39986375427e-06,0.000134818904524,0.999999984425
23875000000,2052,23875000000,world,0.0018002239115,-0.00115202420366,2.89962196175,-0.000105834664991,-6.24540386372e-06,0.000134877382843,0.999999985284
23885000000,2053,23885000000,world,0.00179832784287,-0.00113944549593,2.89965004106,-9.77184909059e-05,-2.98516212582e-06,0.000134935106723,0.999999986117
23895000000,2054,23895000000,world,0.00179662450407,-0.00112737587341,2.89967704433,-8.91669932224e-05,3.90977678332e-07,0.000134992094552,0.999999986913
23905000000,2055,23905000000,world,0.00179520498196,-0.00111590037078,2.89970284616,-8.01797358775e-05,3.89198151585e-06,0.00013504848902,0.999999987659
23915000000,2056,23915000000,world,0.00179385219429,-0.00110474186218,2.89972734884,-7.07126234889e-05,7.46065496728e-06,0.000135104360962,0.999999988345
23925000000,2057,23925000000,world,0.00179247179692,-0.00109353668082,2.89975045569,-6.07771867898e-05,1.10482660298e-05,0.000135159342182,0.999999988958
23935000000,2058,23935000000,world,0.00179510810708,-0.00109288000015,2.89977242163,-4.92485120413e-05,1.50244713185e-05,0.000135212546501,0.999999989533
23945000000,2059,23945000000,world,0.00180675269518,-0.00111583845838,2.89979369513,-3.48134086444e-05,1.98697632849e-05,0.000135263121594,0.999999990049
23955000000,2060,23955000000,world,0.00181801157984,-0.00114034304752,2.89981458517,-2.00760747822e-05,2.46580247093e-05,0.000135313086443,0.99999999034
23965000000,2061,23965000000,world,0.00183024345991,-0.00116878033225,2.89983491126,-4.9476581082e-06,2.95081332331e-05,0.000135362054761,0.999999990391
23975000000,2062,23975000000,world,0.00184429901794,-0.00120395620396,2.89985458826,1.07256118627e-05,3.44724318105e-05,0.000135409930108,0.99999999018
23985000000,2063,23985000000,world,0.00185705669714,-0.00123709486311,2.89987380588,2.60107167277e-05,3.91423775423e-05,0.000135457375529,0.999999989721
23995000000,2064,23995000000,world,0.00186941287535,-0.00127021003926,2.89989279599,4.10884570993e-05,4.35233546481e-05,0.000135503814905,0.999999989028
24005000000,2065,24005000000,world,0.00188086335313,-0.00130097365406,2.89991187797,5.55819904406e-05,4.74794395693e-05,0.000135549323743,0.999999988141
24015000000,2066,24015000000,world,0.00188993742283,-0.00132686588074,2.89993146507,6.90971499611e-05,5.08056323451e-05,0.000135593878733,0.999999987129
24025000000,2067,24025000000,world,0.00189657634547,-0.00134839836056,2.89995209643,8.13715138686e-05,5.35643114285e-05,0.000135637316996,0.999999986056
24035000000,2068,24035000000,world,0.00190066317768,-0.00136433275682,2.89997413185,9.21106147142e-05,5.57021284686e-05,0.000135679759533,0.999999985002
24045000000,2069,24045000000,world,0.00190216899269,-0.00137441841761,2.89999779677,0.000101221044395,5.71962047892e-05,0.000135721313781,0.999999984031
24055000000,2070,24055000000,world,0.00190058186294,-0.0013765741295,2.90002325817,0.000108517365191,5.79690646016e-05,0.000135762276038,0.999999983216
24065000000,2071,24065000000,world,0.0018926843453,-0.00134970976832,2.90005063018,0.00011181934405,5.76692170024e-05,0.000135806336686,0.999999982864
24075000000,2072,24075000000,world,0.00188112215506,-0.00130541071795,2.90007991773,0.000112372817736,5.66061074449e-05,0.000135851727831,0.999999982856
24085000000,2073,24085000000,world,0.00186998183325,-0.00126270092238,2.90011099881,0.000112203429064,5.52829679666e-05,0.000135896004898,0.999999982943
24095000000,2074,24095000000,world,0.00185921366599,-0.0012213163495,2.90014358735,0.000111313580435,5.37444886948e-05,0.000135939478716,0.999999983121
24105000000,2075,24105000000,world,0.00184893151232,-0.00118139025844,2.9001774906,0.000109792200797,5.19345622727e-05,0.000135982156012,0.999999983379
24115000000,2076,24115000000,world,0.00183914651886,-0.00114320052949,2.90021256655,0.00010776065236,4.98702019767e-05,0.00013602406176,0.999999983699
24125000000,2077,24125000000,world,0.00182987126159,-0.00110685120649,2.90024869855,0.000105310640767,4.75779094969e-05,0.000136065414986,0.999999984066
24135000000,2078,24135000000,world,0.00182114491543,-0.0010724229674,2.90028605089,0.000102494021325,4.51030168824e-05,0.000136106162162,0.999999984468
24145000000,2079,24145000000,world,0.00181277538636,-0.00103977085537,2.90032472401,9.93157096332e-05,4.24644304554e-05,0.000136145920465,0.999999984899
24155000000,2080,24155000000,world,0.00180488528303,-0.00100898779344,2.90036442895,9.58052163146e-05,3.97425575964e-05,0.000136184786136,0.999999985348
24165000000,2081,24165000000,world,0.00179757251284,-0.000980143157606,2.90040485949,9.20425528474e-05,3.70075633356e-05,0.00013622300598,0.999999985801
24175000000,2082,24175000000,world,0.00179072895816,-0.000953060002111,2.90044558224,8.81077769187e-05,3.41421061153e-05,0.000136260552394,0.999999986252
24185000000,2083,24185000000,world,0.00178447978873,-0.000927815757591,2.90048638569,8.40648429583e-05,3.11520596311e-05,0.000136297453271,0.999999986693
24195000000,2084,24195000000,world,0.00177864830292,-0.000904125776895,2.90052746195,7.99291725587e-05,2.80348394408e-05,0.000136333861338,0.999999987119
24205000000,2085,24205000000,world,0.00177328810183,-0.000881939387875,2.90056865611,7.56889678468e-05,2.48338938671e-05,0.000136369848079,0.999999987529
24215000000,2086,24215000000,world,0.00176818331827,-0.000860929989752,2.90060964039,7.13036304041e-05,2.1563747471e-05,0.00013640501295,0.999999987922
24225000000,2087,24225000000,world,0.00176333813237,-0.000841039807632,2.90065037271,6.67473992526e-05,1.82767245891e-05,0.000136439323815,0.999999988298
24235000000,2088,24235000000,world,0.00175866785709,-0.000822125504762,2.90069090743,6.20333857771e-05,1.50447159948e-05,0.00013647297938,0.99999998865
24245000000,2089,24245000000,world,0.00175412841426,-0.000803972095909,2.90073138765,5.72397162502e-05,1.17649997174e-05,0.000136505987068,0.999999988976
24255000000,2090,24255000000,world,0.0017497115224,-0.000786529390841,2.9007720341,5.24033697824e-05,8.3929622224e-06,0.000136538286965,0.99999998927
24265000000,2091,24265000000,world,0.00174531976353,-0.000769558143491,2.90081303529,4.75300015231e-05,4.92679616835e-06,0.000136570030451,0.999999989533
24275000000,2092,24275000000,world,0.00174097334574,-0.000753066905076,2.90085450157,4.26013199746e-05,1.39527101533e-06,0.000136601421563,0.999999989762
24285000000,2093,24285000000,world,0.00173670633152,-0.000737005129652,2.9008966025,3.75883414485e-05,-2.15774398725e-06,0.000136632123771,0.999999989957
24295000000,2094,24295000000,world,0.00173230958531,-0.000721076702794,2.90093947057,3.24242899854e-05,-5.71152573131e-06,0.000136661968119,0.99999999012
24305000000,2095,24305000000,world,0.00172787720098,-0.00070536868287,2.90098304073,2.7114421226e-05,-9.17000787642e-06,0.000136691135575,0.999999990248
24315000000,2096,24315000000,world,0.00172360781855,-0.000690106746901,2.90102710781,2.1782014651e-05,-1.2575790382e-05,0.000136719851963,0.999999990338
24325000000,2097,24325000000,world,0.00171948314402,-0.000675224453618,2.90107140208,1.64735131096e-05,-1.60187612523e-05,0.000136748059737,0.999999990386
24335000000,2098,24335000000,world,0.00171530425821,-0.000660377357338,2.90111569322,1.11789547065e-05,-1.95114399847e-05,0.000136775832402,0.999999990393
24345000000,2099,24345000000,world,0.00171125099597,-0.000645805516807,2.90115988269,5.91383157172e-06,-2.30126492898e-05,0.000136803361089,0.99999999036
24355000000,2100,24355000000,world,0.00170719316636,-0.000631297701854,2.90120387243,6.21509723021e-07,-2.64944193408e-05,0.00013683041892,0.999999990288
24365000000,2101,24365000000,world,0.00170304748713,-0.000616733435373,2.90124751479,-4.75001389237e-06,-2.99302899216e-05,0.000136856711584,0.999999990176
24375000000,2102,24375000000,world,0.00169877634925,-0.000602054363944,2.90129058996,-1.02299002169e-05,-3.32506034049e-05,0.000136882330034,0.999999990026
24385000000,2103,24385000000,world,0.00169447846134,-0.000587393065922,2.90133286379,-1.57263792615e-05,-3.64412456213e-05,0.000136907474706,0.999999989841
24395000000,2104,24395000000,world,0.0016900377962,-0.000572556677161,2.90137424393,-2.11825476813e-05,-3.9630048294e-05,0.00013693209964,0.999999989615
24405000000,2105,24405000000,world,0.00168541532538,-0.000557440048382,2.90141485475,-2.65834418628e-05,-4.28204814975e-05,0.000136956234929,0.999999989351
24415000000,2106,24415000000,world,0.00168086356502,-0.0005424275207,2.90145450261,-3.18803188848e-05,-4.59686628561e-05,0.000136980051128,0.999999989053
24425000000,2107,24425000000,world,0.00167623154848,-0.000527270881021,2.9014930481,-3.71387887819e-05,-4.90392428693e-05,0.000137003312406,0.999999988723
24435000000,2108,24435000000,world,0.00167139976211,-0.000511788156907,2.9015305119,-4.24188331494e-05,-5.2010910548e-05,0.000137025475504,0.99999998836
24445000000,2109,24445000000,world,0.00166649717658,-0.000496245479966,2.90156664437,-4.77328525131e-05,-5.48193441483e-05,0.000137046432697,0.999999987967
24455000000,2110,24455000000,world,0.0016615655802,-0.000480628282295,2.9016014834,-5.30371641867e-05,-5.74122652454e-05,0.000137066408052,0.999999987552
24465000000,2111,24465000000,world,0.00165637829235,-0.000464580137113,2.90163530744,-5.82682495744e-05,-5.99202553423e-05,0.000137085432668,0.999999987111
24475000000,2112,24475000000,world,0.00165104731817,-0.000448236260224,2.90166807092,-6.33810956722e-05,-6.23473420265e-05,0.00013710351312,0.999999986649
24485000000,2113,24485000000,world,0.00164558740485,-0.000431598354872,2.90169970263,-6.83527084164e-05,-6.46779825529e-05,0.000137120807755,0.999999986171
24495000000,2114,24495000000,world,0.00164023378351,-0.00041513491296,2.90173015257,-7.31678770474e-05,-6.68588286708e-05,0.00013713743252,0.999999985685
24505000000,2115,24505000000,world,0.00163471700748,-0.000398315681729,2.90175936739,-7.7902137653e-05,-6.88937003236e-05,0.000137152982802,0.999999985187
24515000000,2116,24515000000,world,0.0016291981598,-0.000381511810575,2.9017872743,-8.25477031909e-05,-7.07371249093e-05,0.000137167399431,0.999999984684
24525000000,2117,24525000000,world,0.00162373417582,-0.000364781104186,2.90181389641,-8.70837216133e-05,-7.23300064512e-05,0.00013718087663,0.999999984183
24535000000,2118,24535000000,world,0.00161805536568,-0.000347606405583,2.90183933068,-9.14633590974e-05,-7.37575646355e-05,0.000137193513015,0.999999983686
24545000000,2119,24545000000,world,0.00161227674034,-0.00033010289757,2.90186370133,-9.56356749828e-05,-7.50423963411e-05,0.00013720526913,0.999999983199
24555000000,2120,24555000000,world,0.00160650820096,-0.00031255271145,2.90188708376,-9.95464571754e-05,-7.61586658413e-05,0.000137216281958,0.999999982731
24565000000,2121,24565000000,world,0.00160069566899,-0.000294812968205,2.90190943258,-0.000103227402446,-7.70949436951e-05,0.00013722671711,0.999999982285
24575000000,2122,24575000000,world,0.00159488653013,-0.000277030422707,2.90193075526,-0.000106676830204,-7.78317227669e-05,0.000137236281768,0.999999981864
24585000000,2123,24585000000,world,0.00158904661443,-0.000259114527088,2.90195119338,-0.000109931729831,-7.83625941717e-05,0.000137244765564,0.999999981469
24595000000,2124,24595000000,world,0.001583190601,-0.000241112617088,2.90197083181,-0.000112989503582,-7.8658779785e-05,0.000137252312186,0.999999981104
24605000000,2125,24605000000,world,0.00157732595743,-0.000223030319664,2.90198950737,-0.000115775427485,-7.87190218564e-05,0.000137259109012,0.99999998078
24615000000,2126,24615000000,world,0.0015714889857,-0.000204963549547,2.90200717215,-0.000118235277971,-7.85795044866e-05,0.000137265119094,0.999999980502
24625000000,2127,24625000000,world,0.00156563677473,-0.00018663222445,2.9020237411,-0.000120380895758,-7.82304891736e-05,0.00013727037863,0.999999980273
24635000000,2128,24635000000,world,0.00155981389232,-0.00016835295982,2.90203913263,-0.000122179338304,-7.76573437528e-05,0.000137275121892,0.999999980099
24645000000,2129,24645000000,world,0.00155400749566,-0.000150006460222,2.90205331055,-0.000123646186303,-7.68618107287e-05,0.0001372791784,0.999999979979
24655000000,2130,24655000000,world,0.00154822587489,-0.00013175765927,2.90206600069,-0.000124782946376,-7.5849604293e-05,0.000137282254623,0.999999979915
24665000000,2131,24665000000,world,0.0015424606146,-0.000113498333559,2.9020773516,-0.000125610242864,-7.46290224137e-05,0.000137284412743,0.999999979903
24675000000,2132,24675000000,world,0.00153674020803,-9.51527035734e-05,2.90208791175,-0.000126101217504,-7.31718220163e-05,0.000137285838257,0.999999979948
24685000000,2133,24685000000,world,0.0015311138033,-7.67258806138e-05,2.90209798947,-0.000126222747236,-7.14864316077e-05,0.000137286511001,0.999999980055
24695000000,2134,24695000000,world,0.00152554770525,-5.83278675151e-05,2.90210788612,-0.000125945760887,-6.95646495394e-05,0.0001372865925,0.999999980225
24705000000,2135,24705000000,world,0.00151999769146,-3.99757001107e-05,2.90211748536,-0.000125242353398,-6.74035983896e-05,0.000137286544604,0.999999980462
24715000000,2136,24715000000,world,0.00151448504984,-2.16446649312e-05,2.90212650186,-0.000124106693779,-6.50154835928e-05,0.000137286360567,0.999999980761
24725000000,2137,24725000000,world,0.00150911114798,-3.36144137576e-06,2.9021347636,-0.000122535861776,-6.24127478321e-05,0.000137285617729,0.999999981121
24735000000,2138,24735000000,world,0.00150377468629,1.48507640344e-05,2.90214195187,-0.000120539457266,-5.96386323142e-05,0.000137284325448,0.999999981533
24745000000,2139,24745000000,world,0.00149844129254,3.30233864581e-05,2.90214763242,-0.000118114656754,-5.66943900087e-05,0.000137282687386,0.999999981994
24755000000,2140,24755000000,world,0.00149324252216,5.11000262354e-05,2.90215134126,-0.00011526062339,-5.35295000595e-05,0.000137280702094,0.999999982502
24765000000,2141,24765000000,world,0.00148813143674,6.90467753864e-05,2.90215282372,-0.000111980797311,-5.01379156301e-05,0.00013727834712,0.999999983051
24775000000,2142,24775000000,world,0.00148306286416,8.69102417238e-05,2.90215202814,-0.000108282545934,-4.6516137925e-05,0.000137275751221,0.999999983633
24785000000,2143,24785000000,world,0.00147812897668,0.000104613347459,2.90214888042,-0.000104139293297,-4.26753759549e-05,0.000137273014345,0.999999984245
24795000000,2144,24795000000,world,0.00147341506223,0.000122055313809,2.90214304913,-9.95108554135e-05,-3.8647257152e-05,0.000137269756088,0.99999998488
24805000000,2145,24805000000,world,0.00146862947662,0.000139511085852,2.90213449361,-9.44402595195e-05,-3.45078883123e-05,0.000137265893468,0.999999985524
24815000000,2146,24815000000,world,0.00146401762573,0.00015674833691,2.90212339861,-8.89014610666e-05,-3.0274797801e-05,0.000137261548737,0.99999998617
24825000000,2147,24825000000,world,0.00145971697772,0.00017358214621,2.90211008567,-8.29279564789e-05,-2.58586399493e-05,0.000137256816609,0.999999986807
24835000000,2148,24835000000,world,0.00145548019639,0.000190255002734,2.90209485979,-7.65792552774e-05,-2.12622316251e-05,0.000137251666004,0.999999987423
24845000000,2149,24845000000,world,0.00145123927639,0.000206909835749,2.90207798973,-6.98852447779e-05,-1.64839086799e-05,0.000137246187688,0.999999988004
24855000000,2150,24855000000,world,0.00144734589861,0.00022297106997,2.90205975286,-6.27740492848e-05,-1.15056529621e-05,0.000137240447846,0.999999988546
24865000000,2151,24865000000,world,0.00144373458738,0.000238573175392,2.9020404991,-5.52005978385e-05,-6.39600335802e-06,0.000137234235443,0.999999989039
24875000000,2152,24875000000,world,0.00144007164408,0.000254179117331,2.90202039456,-4.72253794107e-05,-1.25004886117e-06,0.000137227422373,0.999999989468
24885000000,2153,24885000000,world,0.00143640758221,0.000269736660004,2.90199945657,-3.88374573039e-05,3.862321166e-06,0.000137220109877,0.999999989824
24895000000,2154,24895000000,world,0.00143306429233,0.000284762403572,2.90197766916,-3.00671457302e-05,9.04322893416e-06,0.000137212431516,0.999999990093
24905000000,2155,24905000000,world,0.00142973573795,0.000299673761426,2.901955464,-2.10396226178e-05,1.43131697543e-05,0.000137204367151,0.999999990264
24915000000,2156,24915000000,world,0.00143366742051,0.000303861313888,2.90193318862,-1.06745557521e-05,2.04494395386e-05,0.000137194944417,0.999999990323
24925000000,2157,24925000000,world,0.0014499902264,0.000284898199991,2.90191083688,2.26678875714e-06,2.79762793208e-05,0.00013718374854,0.999999990196
24935000000,2158,24935000000,world,0.00146564353635,0.000266744395793,2.90188851898,1.53227632596e-05,3.53809725124e-05,0.000137172145856,0.999999989849
24945000000,2159,24945000000,world,0.00148645393798,0.000240580166656,2.90186629607,2.93442480303e-05,4.31506712262e-05,0.000137159063668,0.999999989232
24955000000,2160,24955000000,world,0.00150690184336,0.000213645684513,2.90184435116,4.34632141441e-05,5.05252652933e-05,0.000137145042773,0.999999988375
24965000000,2161,24965000000,world,0.00152515745572,0.000189457294842,2.90182261988,5.71001678478e-05,5.72890002657e-05,0.000137130548875,0.999999987326
24975000000,2162,24975000000,world,0.00154292502008,0.000163106065048,2.90180078202,7.049009959e-05,6.36877151851e-05,0.000137114784011,0.999999986087
24985000000,2163,24985000000,world,0.00155680998807,0.000141314115609,2.90177903533,8.27761979067e-05,6.931620744e-05,0.000137098236416,0.999999984774
24995000000,2164,24995000000,world,0.00156776042068,0.000124018519727,2.90175757558,9.38868742759e-05,7.42158205994e-05,0.000137081456353,0.999999983443
25005000000,2165,25005000000,world,0.00157495683164,0.000112065791108,2.90173654965,0.000103762871991,7.82092293664e-05,0.000137064210429,0.999999982165
25015000000,2166,25015000000,world,0.00157846104925,0.000106274297056,2.90171622122,0.000112260903945,8.12367873553e-05,0.00013704637406,0.999999981008
25025000000,2167,25025000000,world,0.00157919189535,0.00010545243904,2.90169685718,0.000119432808981,8.33576623563e-05,0.000137027988645,0.999999980005
