%time,field.header.seq,field.header.stamp,field.header.frame_id,field.point.x,field.point.y,field.point.z
22865000000,0,22865000000,world,0.00199330890803,-0.0021369345838,2.89727607862
22875000000,1,22875000000,world,0.00199214810338,-0.00212800624595,2.89730808579
22885000000,2,22885000000,world,0.00199102296965,-0.00211923479452,2.89733994454
22895000000,3,22895000000,world,0.0019899190595,-0.00211056443588,2.89737155413
22905000000,4,22905000000,world,0.00198881731626,-0.00210192089343,2.89740308628
22915000000,5,22915000000,world,0.00198776145921,-0.00209347811636,2.89743494359
22925000000,6,22925000000,world,0.00198672013053,-0.00208511389363,2.89746678151
22935000000,7,22935000000,world,0.00198567331964,-0.00207674092133,2.89749834346
22945000000,8,22945000000,world,0.00198469531651,-0.00206871734332,2.89752975561
22955000000,9,22955000000,world,0.0019837076396,-0.00206066673441,2.89756095741
22965000000,10,22965000000,world,0.00198274920715,-0.00205277030313,2.8975918203
22975000000,11,22975000000,world,0.0019818280779,-0.00204509477939,2.89762226339
22985000000,12,22985000000,world,0.0019809103147,-0.00203745115658,2.89765251172
22995000000,13,22995000000,world,0.001980014929,-0.00202997074353,2.89768285704
23005000000,14,23005000000,world,0.00197913006824,-0.00202259945218,2.89771351569
23015000000,15,23015000000,world,0.00197825472514,-0.00201532644702,2.89774446818
23025000000,16,23025000000,world,0.00197738763443,-0.00200829437262,2.89777549554
23035000000,17,23035000000,world,0.00197652535747,-0.0020013551701,2.89780637138
23045000000,18,23045000000,world,0.00197566978937,-0.00199448166274,2.89783699548
23055000000,19,23055000000,world,0.00197480759519,-0.00198770812771,2.89786727064
23065000000,20,23065000000,world,0.00197393921302,-0.00198099432703,2.89789696785
23075000000,21,23075000000,world,0.00197306195459,-0.00197433660543,2.89792612925
23085000000,22,23085000000,world,0.00197217357047,-0.00196773634502,2.89795487066
23095000000,23,23095000000,world,0.00197129570856,-0.00196117693662,2.89798311105
23105000000,24,23105000000,world,0.00197043886582,-0.00195466771933,2.89801067766
23115000000,25,23115000000,world,0.00196953883752,-0.00194817888704,2.89803755371
23125000000,26,23125000000,world,0.00196865554099,-0.00194172552078,2.89806369223
23135000000,27,23135000000,world,0.00196776986896,-0.00193531413878,2.89808914754
23145000000,28,23145000000,world,0.00196680305613,-0.00192888669115,2.89811414406
23155000000,29,23155000000,world,0.00196583190687,-0.00192247272442,2.89813874327
23165000000,30,23165000000,world,0.00196486444076,-0.0019160962993,2.89816274164
23175000000,31,23175000000,world,0.00196385383526,-0.0019097016096,2.89818583226
23185000000,32,23185000000,world,0.00196283269633,-0.00190329006619,2.89820829327
23195000000,33,23195000000,world,0.00196174442386,-0.00189679663806,2.89823017304
23205000000,34,23205000000,world,0.00196059388261,-0.00189023666951,2.89825114189
23215000000,35,23215000000,world,0.00195944401349,-0.0018837087705,2.8982713046
23225000000,36,23225000000,world,0.0019582081037,-0.00187706448938,2.89829064272
23235000000,37,23235000000,world,0.00195697468683,-0.0018704483822,2.89830889653
23245000000,38,23245000000,world,0.00195566513456,-0.001863686801,2.89832574072
23255000000,39,23255000000,world,0.00195436373558,-0.001856939987,2.89834098414
23265000000,40,23265000000,world,0.00195302960824,-0.00185012760173,2.89835451714
23275000000,41,23275000000,world,0.00195154093408,-0.00184299788568,2.89836633109
23285000000,42,23285000000,world,0.0019500544089,-0.00183589558112,2.89837670191
23295000000,43,23295000000,world,0.001948553321,-0.00182878406639,2.89838585878
23305000000,44,23305000000,world,0.0019469355338,-0.00182142378794,2.89839394099
23315000000,45,23315000000,world,0.00194528713905,-0.00181397008888,2.89840108353
23325000000,46,23325000000,world,0.00194367706403,-0.0018066042646,2.89840747929
23335000000,47,23335000000,world,0.00194192837411,-0.00179886015109,2.89841335675
23345000000,48,23345000000,world,0.00194019153339,-0.0017911429186,2.89841886034
23355000000,49,23355000000,world,0.00193839165409,-0.00178327107071,2.89842412076
23365000000,50,23365000000,world,0.00193642179834,-0.00177496787351,2.89842928142
23375000000,51,23375000000,world,0.00193448038882,-0.00176674493646,2.89843449817
23385000000,52,23385000000,world,0.00193251268312,-0.00175845535856,2.8984397816
23395000000,53,23395000000,world,0.00193037069888,-0.00174959800025,2.89844498132
23405000000,54,23405000000,world,0.00192822835708,-0.00174076161513,2.89845014598
23415000000,55,23415000000,world,0.0019260563629,-0.0017317582408,2.89845543638
23425000000,56,23425000000,world,0.00192371062091,-0.00172221437521,2.89846105117
23435000000,57,23435000000,world,0.00192134107544,-0.00171259581195,2.89846727618
23445000000,58,23445000000,world,0.00191895077288,-0.00170291675572,2.89847423313
23455000000,59,23455000000,world,0.00191652769625,-0.00169311844966,2.89848178713
23465000000,60,23465000000,world,0.00191400747043,-0.0016829170358,2.89848982533
23475000000,61,23475000000,world,0.00191151000319,-0.00167276016197,2.89849867635
23485000000,62,23485000000,world,0.00190888486414,-0.00166209009911,2.89850885078
23495000000,63,23495000000,world,0.00190613560737,-0.00165093742149,2.89852037041
23505000000,64,23505000000,world,0.00190339642784,-0.00163982199569,2.89853339695
23515000000,65,23515000000,world,0.00190070890487,-0.0016289174352,2.89854803219
23525000000,66,23525000000,world,0.00189798766037,-0.00161786319445,2.89856429214
23535000000,67,23535000000,world,0.00189510534833,-0.00160604103317,2.89858225851
23545000000,68,23545000000,world,0.0018921828457,-0.00159396912701,2.89860179553
23555000000,69,23555000000,world,0.0018893173159,-0.00158213640999,2.89862265885
23565000000,70,23565000000,world,0.00188641214932,-0.00157008703875,2.89864470116
23575000000,71,23575000000,world,0.0018834599543,-0.0015577815356,2.89866799166
23585000000,72,23585000000,world,0.00188046105439,-0.00154519769679,2.8986925957
23595000000,73,23595000000,world,0.00187748080598,-0.00153271515029,2.89871877703
23605000000,74,23605000000,world,0.00187445047332,-0.00151984144178,2.8987468593
23615000000,75,23615000000,world,0.00187142251823,-0.00150689995799,2.89877662956
23625000000,76,23625000000,world,0.00186839313362,-0.00149393098315,2.89880772832
23635000000,77,23635000000,world,0.00186533897511,-0.00148067142776,2.89883980738
23645000000,78,23645000000,world,0.00186229274202,-0.00146736472858,2.898872423
23655000000,79,23655000000,world,0.00185923857013,-0.00145390340478,2.89890543977
23665000000,80,23665000000,world,0.00185618108246,-0.00144001266373,2.89893896683
23675000000,81,23675000000,world,0.00185313664219,-0.00142598983639,2.89897308773
23685000000,82,23685000000,world,0.00185009499935,-0.0014120465767,2.89900778626
23695000000,83,23695000000,world,0.00184705576721,-0.00139808334856,2.89904281376
23705000000,84,23705000000,world,0.00184403536429,-0.00138410431691,2.89907792655
23715000000,85,23715000000,world,0.0018410070075,-0.001370195172,2.89911291488
23725000000,86,23725000000,world,0.00183802633219,-0.00135619423102,2.89914762218
23735000000,87,23735000000,world,0.00183513827965,-0.00134213058468,2.89918200233
23745000000,88,23745000000,world,0.00183225242359,-0.00132813255939,2.89921607293
23755000000,89,23755000000,world,0.00182944810851,-0.0013141403873,2.89924978891
23765000000,90,23765000000,world,0.00182666815951,-0.00130016869339,2.89928295988
23775000000,91,23775000000,world,0.00182392467207,-0.00128624254702,2.89931534467
23785000000,92,23785000000,world,0.00182113906264,-0.00127229888331,2.89934709421
23795000000,93,23795000000,world,0.00181847818702,-0.0012584547135,2.89937856388
23805000000,94,23805000000,world,0.00181599208642,-0.00124481458079,2.89940996994
23815000000,95,23815000000,world,0.00181372884581,-0.00123148250037,2.89944127233
23825000000,96,23825000000,world,0.00181144690423,-0.00121814523914,2.89947241837
23835000000,97,23835000000,world,0.00180911027193,-0.00120474753967,2.89950327048
23845000000,98,23845000000,world,0.00180679224252,-0.00119138483522,2.89953369117
23855000000,99,23855000000,world,0.00180457005007,-0.00117820085171,2.89956362651
23865000000,100,23865000000,world,0.00180226924048,-0.00116487345127,2.8995930632
23875000000,101,23875000000,world,0.0018002239115,-0.00115202420366,2.89962196175
23885000000,102,23885000000,world,0.00179832784287,-0.00113944549593,2.89965004106
23895000000,103,23895000000,world,0.00179662450407,-0.00112737587341,2.89967704433
23905000000,104,23905000000,world,0.00179520498196,-0.00111590037078,2.89970284616
23915000000,105,23915000000,world,0.00179385219429,-0.00110474186218,2.89972734884
23925000000,106,23925000000,world,0.00179247179692,-0.00109353668082,2.89975045569
23935000000,107,23935000000,world,0.00179510810708,-0.00109288000015,2.89977242163
23945000000,108,23945000000,world,0.00180675269518,-0.00111583845838,2.89979369513
23955000000,109,23955000000,world,0.00181801157984,-0.00114034304752,2.89981458517
23965000000,110,23965000000,world,0.00183024345991,-0.00116878033225,2.89983491126
23975000000,111,23975000000,world,0.00184429901794,-0.00120395620396,2.89985458826
23985000000,112,23985000000,world,0.00185705669714,-0.00123709486311,2.89987380588
23995000000,113,23995000000,world,0.00186941287535,-0.00127021003926,2.89989279599
24005000000,114,24005000000,world,0.00188086335313,-0.00130097365406,2.89991187797
24015000000,115,24015000000,world,0.00188993742283,-0.00132686588074,2.89993146507
24025000000,116,24025000000,world,0.00189657634547,-0.00134839836056,2.89995209643
24035000000,117,24035000000,world,0.00190066317768,-0.00136433275682,2.89997413185
24045000000,118,24045000000,world,0.00190216899269,-0.00137441841761,2.89999779677
24055000000,119,24055000000,world,0.00190058186294,-0.0013765741295,2.90002325817
24065000000,120,24065000000,world,0.0018926843453,-0.00134970976832,2.90005063018
24075000000,121,24075000000,world,0.00188112215506,-0.00130541071795,2.90007991773
24085000000,122,24085000000,world,0.00186998183325,-0.00126270092238,2.90011099881
24095000000,123,24095000000,world,0.00185921366599,-0.0012213163495,2.90014358735
24105000000,124,24105000000,world,0.00184893151232,-0.00118139025844,2.9001774906
24115000000,125,24115000000,world,0.00183914651886,-0.00114320052949,2.90021256655
24125000000,126,24125000000,world,0.00182987126159,-0.00110685120649,2.90024869855
24135000000,127,24135000000,world,0.00182114491543,-0.0010724229674,2.90028605089
24145000000,128,24145000000,world,0.00181277538636,-0.00103977085537,2.90032472401
24155000000,129,24155000000,world,0.00180488528303,-0.00100898779344,2.90036442895
24165000000,130,24165000000,world,0.00179757251284,-0.000980143157606,2.90040485949
24175000000,131,24175000000,world,0.00179072895816,-0.000953060002111,2.90044558224
24185000000,132,24185000000,world,0.00178447978873,-0.000927815757591,2.90048638569
24195000000,133,24195000000,world,0.00177864830292,-0.000904125776895,2.90052746195
24205000000,134,24205000000,world,0.00177328810183,-0.000881939387875,2.90056865611
24215000000,135,24215000000,world,0.00176818331827,-0.000860929989752,2.90060964039
24225000000,136,24225000000,world,0.00176333813237,-0.000841039807632,2.90065037271
24235000000,137,24235000000,world,0.00175866785709,-0.000822125504762,2.90069090743
24245000000,138,24245000000,world,0.00175412841426,-0.000803972095909,2.90073138765
24255000000,139,24255000000,world,0.0017497115224,-0.000786529390841,2.9007720341
24265000000,140,24265000000,world,0.00174531976353,-0.000769558143491,2.90081303529
24275000000,141,24275000000,world,0.00174097334574,-0.000753066905076,2.90085450157
24285000000,142,24285000000,world,0.00173670633152,-0.000737005129652,2.9008966025
24295000000,143,24295000000,world,0.00173230958531,-0.000721076702794,2.90093947057
24305000000,144,24305000000,world,0.00172787720098,-0.00070536868287,2.90098304073
24315000000,145,24315000000,world,0.00172360781855,-0.000690106746901,2.90102710781
24325000000,146,24325000000,world,0.00171948314402,-0.000675224453618,2.90107140208
24335000000,147,24335000000,world,0.00171530425821,-0.000660377357338,2.90111569322
24345000000,148,24345000000,world,0.00171125099597,-0.000645805516807,2.90115988269
24355000000,149,24355000000,world,0.00170719316636,-0.000631297701854,2.90120387243
24365000000,150,24365000000,world,0.00170304748713,-0.000616733435373,2.90124751479
24375000000,151,24375000000,world,0.00169877634925,-0.000602054363944,2.90129058996
24385000000,152,24385000000,world,0.00169447846134,-0.000587393065922,2.90133286379
24395000000,153,24395000000,world,0.0016900377962,-0.000572556677161,2.90137424393
24405000000,154,24405000000,world,0.00168541532538,-0.000557440048382,2.90141485475
24415000000,155,24415000000,world,0.00168086356502,-0.0005424275207,2.90145450261
24425000000,156,24425000000,world,0.00167623154848,-0.000527270881021,2.9014930481
24435000000,157,24435000000,world,0.00167139976211,-0.000511788156907,2.9015305119
24445000000,158,24445000000,world,0.00166649717658,-0.000496245479966,2.90156664437
24455000000,159,24455000000,world,0.0016615655802,-0.000480628282295,2.9016014834
24465000000,160,24465000000,world,0.00165637829235,-0.000464580137113,2.90163530744
24475000000,161,24475000000,world,0.00165104731817,-0.000448236260224,2.90166807092
24485000000,162,24485000000,world,0.00164558740485,-0.000431598354872,2.90169970263
24495000000,163,24495000000,world,0.00164023378351,-0.00041513491296,2.90173015257
24505000000,164,24505000000,world,0.00163471700748,-0.000398315681729,2.90175936739
24515000000,165,24515000000,world,0.0016291981598,-0.000381511810575,2.9017872743
24525000000,166,24525000000,world,0.00162373417582,-0.000364781104186,2.90181389641
24535000000,167,24535000000,world,0.00161805536568,-0.000347606405583,2.90183933068
24545000000,168,24545000000,world,0.00161227674034,-0.00033010289757,2.90186370133
24555000000,169,24555000000,world,0.00160650820096,-0.00031255271145,2.90188708376
24565000000,170,24565000000,world,0.00160069566899,-0.000294812968205,2.90190943258
24575000000,171,24575000000,world,0.00159488653013,-0.000277030422707,2.90193075526
24585000000,172,24585000000,world,0.00158904661443,-0.000259114527088,2.90195119338
24595000000,173,24595000000,world,0.001583190601,-0.000241112617088,2.90197083181
24605000000,174,24605000000,world,0.00157732595743,-0.000223030319664,2.90198950737
24615000000,175,24615000000,world,0.0015714889857,-0.000204963549547,2.90200717215
24625000000,176,24625000000,world,0.00156563677473,-0.00018663222445,2.9020237411
24635000000,177,24635000000,world,0.00155981389232,-0.00016835295982,2.90203913263
24645000000,178,24645000000,world,0.00155400749566,-0.000150006460222,2.90205331055
24655000000,179,24655000000,world,0.00154822587489,-0.00013175765927,2.90206600069
24665000000,180,24665000000,world,0.0015424606146,-0.000113498333559,2.9020773516
24675000000,181,24675000000,world,0.00153674020803,-9.51527035734e-05,2.90208791175
24685000000,182,24685000000,world,0.0015311138033,-7.67258806138e-05,2.90209798947
24695000000,183,24695000000,world,0.00152554770525,-5.83278675151e-05,2.90210788612
24705000000,184,24705000000,world,0.00151999769146,-3.99757001107e-05,2.90211748536
24715000000,185,24715000000,world,0.00151448504984,-2.16446649312e-05,2.90212650186
24725000000,186,24725000000,world,0.00150911114798,-3.36144137576e-06,2.9021347636
24735000000,187,24735000000,world,0.00150377468629,1.48507640344e-05,2.90214195187
24745000000,188,24745000000,world,0.00149844129254,3.30233864581e-05,2.90214763242
24755000000,189,24755000000,world,0.00149324252216,5.11000262354e-05,2.90215134126
24765000000,190,24765000000,world,0.00148813143674,6.90467753864e-05,2.90215282372
24775000000,191,24775000000,world,0.00148306286416,8.69102417238e-05,2.90215202814
24785000000,192,24785000000,world,0.00147812897668,0.000104613347459,2.90214888042
24795000000,193,24795000000,world,0.00147341506223,0.000122055313809,2.90214304913
24805000000,194,24805000000,world,0.00146862947662,0.000139511085852,2.90213449361
24815000000,195,24815000000,world,0.00146401762573,0.00015674833691,2.90212339861
24825000000,196,24825000000,world,0.00145971697772,0.00017358214621,2.90211008567
24835000000,197,24835000000,world,0.00145548019639,0.000190255002734,2.90209485979
24845000000,198,24845000000,world,0.00145123927639,0.000206909835749,2.90207798973
24855000000,199,24855000000,world,0.00144734589861,0.00022297106997,2.90205975286
24865000000,200,24865000000,world,0.00144373458738,0.000238573175392,2.9020404991
24875000000,201,24875000000,world,0.00144007164408,0.000254179117331,2.90202039456
24885000000,202,24885000000,world,0.00143640758221,0.000269736660004,2.90199945657
24895000000,203,24895000000,world,0.00143306429233,0.000284762403572,2.90197766916
24905000000,204,24905000000,world,0.00142973573795,0.000299673761426,2.901955464
24915000000,205,24915000000,world,0.00143366742051,0.000303861313888,2.90193318862
24925000000,206,24925000000,world,0.0014499902264,0.000284898199991,2.90191083688
24935000000,207,24935000000,world,0.00146564353635,0.000266744395793,2.90188851898
24945000000,208,24945000000,world,0.00148645393798,0.000240580166656,2.90186629607
24955000000,209,24955000000,world,0.00150690184336,0.000213645684513,2.90184435116
24965000000,210,24965000000,world,0.00152515745572,0.000189457294842,2.90182261988
24975000000,211,24975000000,world,0.00154292502008,0.000163106065048,2.90180078202
24985000000,212,24985000000,world,0.00155680998807,0.000141314115609,2.90177903533
24995000000,213,24995000000,world,0.00156776042068,0.000124018519727,2.90175757558
25005000000,214,25005000000,world,0.00157495683164,0.000112065791108,2.90173654965
25015000000,215,25015000000,world,0.00157846104925,0.000106274297056,2.90171622122
25025000000,216,25025000000,world,0.00157919189535,0.00010545243904,2.90169685718
25035000000,217,25035000000,world,0.0015743579926,0.000112947034784,2.90167874162
25045000000,218,25045000000,world,0.00156206595193,0.000139741437803,2.90166227873
25055000000,219,25055000000,world,0.00154313241284,0.000183892993689,2.90164753615
25065000000,220,25065000000,world,0.00152484598586,0.000226557537704,2.90163433757
25075000000,221,25075000000,world,0.0015071365279,0.000268046935526,2.90162258072
25085000000,222,25085000000,world,0.00149009614436,0.000308142688502,2.90161199732
25095000000,223,25095000000,world,0.00147375762507,0.000346723547958,2.90160249293
25105000000,224,25105000000,world,0.00145828659481,0.000383601960093,2.90159426201
25115000000,225,25115000000,world,0.00144351218357,0.000418859685216,2.90158748629
25125000000,226,25125000000,world,0.00142956627727,0.000452379510144,2.90158222557
25135000000,227,25135000000,world,0.0014165669004,0.000484094092119,2.90157807679
25145000000,228,25145000000,world,0.00140427234815,0.000514254484427,2.90157455101
25155000000,229,25155000000,world,0.0013926544178,0.000542914452686,2.90157173953
25165000000,230,25165000000,world,0.00138183426927,0.000569978296724,2.901569913
25175000000,231,25175000000,world,0.00137150045555,0.000595795367854,2.90156921357
25185000000,232,25185000000,world,0.00136154199901,0.000620523583381,2.90156941913
25195000000,233,25195000000,world,0.00135198215977,0.000644219168083,2.90157031824
25205000000,234,25205000000,world,0.0013430187193,0.000666732329469,2.90157163578
25215000000,235,25215000000,world,0.00133491552311,0.000687840009622,2.90157303863
25225000000,236,25225000000,world,0.00132759576547,0.000707670136804,2.90157420521
25235000000,237,25235000000,world,0.00131965451736,0.000727090581339,2.90157486316
25245000000,238,25245000000,world,0.00131241756299,0.000745443329161,2.90157489703
25255000000,239,25255000000,world,0.00130581558395,0.000762846268114,2.90157423181
25265000000,240,25265000000,world,0.00129923046421,0.000779778603228,2.90157276426
25275000000,241,25275000000,world,0.00129304447966,0.000796053384036,2.90157016251
25285000000,242,25285000000,world,0.00128717180183,0.00081211890834,2.90156600729
25295000000,243,25295000000,world,0.00128134911732,0.000828604802789,2.90156007816
25305000000,244,25305000000,world,0.00127576756035,0.000844901016189,2.90155247095
25315000000,245,25315000000,world,0.00127019321846,0.000861533985455,2.9015432107
25325000000,246,25325000000,world,0.00126492252654,0.000877659632519,2.90153203661
25335000000,247,25335000000,world,0.00125917481555,0.000893782792866,2.90151872116
25345000000,248,25345000000,world,0.00125345432266,0.000909577060237,2.90150341674
25355000000,249,25355000000,world,0.00124744327917,0.000925150391401,2.90148630304
25365000000,250,25365000000,world,0.00124127706998,0.000941510677634,2.90146740599
25375000000,251,25375000000,world,0.00123519519496,0.000957849448816,2.90144666545
25385000000,252,25385000000,world,0.00122903702519,0.000974844773536,2.90142396507
25395000000,253,25395000000,world,0.00122289793305,0.000991492669546,2.90139908419
25405000000,254,25405000000,world,0.00121657940854,0.00100783414659,2.90137184975
25415000000,255,25415000000,world,0.00120999086078,0.00102386714804,2.90134224089
25425000000,256,25425000000,world,0.0012032189857,0.00103970466582,2.90131026741
25435000000,257,25435000000,world,0.00119618934199,0.00105586701334,2.90127591055
25445000000,258,25445000000,world,0.00118920630374,0.00107202407869,2.90123904436
25455000000,259,25455000000,world,0.00118211860181,0.0010887264807,2.90119948093
25465000000,260,25465000000,world,0.00117507449052,0.00110525824382,2.90115693489
25475000000,261,25475000000,world,0.00116764133354,0.00112216363448,2.90111116344
25485000000,262,25485000000,world,0.00116021905078,0.00113893537176,2.90106211644
25495000000,263,25495000000,world,0.00115228913211,0.00115584535027,2.90100978552
25505000000,264,25505000000,world,0.00114402404915,0.00117282696069,2.90095409445
25515000000,265,25515000000,world,0.00113526264518,0.00119006816217,2.90089491796
25525000000,266,25525000000,world,0.00112617739543,0.00120778303965,2.90083213979
25535000000,267,25535000000,world,0.00111697238011,0.00122567176892,2.90076569732
25545000000,268,25545000000,world,0.00110771445321,0.00124366521096,2.90069556695
25555000000,269,25555000000,world,0.00109836498781,0.00126197638091,2.90062178078
25565000000,270,25565000000,world,0.00108883674852,0.0012802776134,2.90054446127
25575000000,271,25575000000,world,0.00107898333711,0.00129860708786,2.90046375523
25585000000,272,25585000000,world,0.00106856773623,0.00131739430731,2.90037981495
25595000000,273,25595000000,world,0.00105769375119,0.00133648622373,2.90029255583
25605000000,274,25605000000,world,0.00104608795282,0.00135598076225,2.90020199029
25615000000,275,25615000000,world,0.00103424097611,0.00137579561756,2.90010870756
25625000000,276,25625000000,world,0.00102219600363,0.00139584222482,2.90001300079
25635000000,277,25635000000,world,0.00101015251405,0.00141607402295,2.89991488561
25645000000,278,25645000000,world,0.000997848142688,0.00143652876889,2.89981454576
25655000000,279,25655000000,world,0.000985011003925,0.00145730755228,2.8997123305
25665000000,280,25665000000,world,0.00097171815763,0.00147839051932,2.89960851691
25675000000,281,25675000000,world,0.000957997237113,0.00149986232308,2.89950350362
25685000000,282,25685000000,world,0.000943876532933,0.0015217719883,2.89939789572
25695000000,283,25695000000,world,0.000929497422648,0.00154395017985,2.89929224544
25705000000,284,25705000000,world,0.000914637884659,0.00156629276061,2.89918705646
25715000000,285,25715000000,world,0.000899184307234,0.0015887729792,2.89908287014
25725000000,286,25725000000,world,0.000883451359272,0.00161142369843,2.89898020778
25735000000,287,25735000000,world,0.000867123844793,0.00163439055108,2.89887949409
25745000000,288,25745000000,world,0.000850488055643,0.001657638279,2.89878106207
25755000000,289,25755000000,world,0.000833777595245,0.00168136271372,2.89868525639
25765000000,290,25765000000,world,0.000816992226148,0.00170558491851,2.89859233185
25775000000,291,25775000000,world,0.000799996899315,0.0017301362281,2.89850253829
25785000000,292,25785000000,world,0.000782684942605,0.00175481236522,2.89841612133
25795000000,293,25795000000,world,0.000765067083473,0.00177970037909,2.89833307556
25805000000,294,25805000000,world,0.000747108977244,0.00180484313812,2.89825331538
25815000000,295,25815000000,world,0.00072856247702,0.00183014927515,2.89817678012
25825000000,296,25825000000,world,0.000709689778419,0.00185574951856,2.89810349876
25835000000,297,25835000000,world,0.000690456769773,0.00188167307488,2.8980335202
25845000000,298,25845000000,world,0.00067069122505,0.00190805653847,2.89796692049
25855000000,299,25855000000,world,0.000650629283716,0.00193481092324,2.89790386093
25865000000,300,25865000000,world,0.000630283460742,0.00196196412904,2.89784462803
25875000000,301,25875000000,world,0.00060977060531,0.00198927387182,2.89778965786
25885000000,302,25885000000,world,0.00058888503797,0.00201690269142,2.8977391966
25895000000,303,25895000000,world,0.000567586343939,0.00204475404074,2.89769343097
25905000000,304,25905000000,world,0.00054586764952,0.00207284074856,2.89765275598
25915000000,305,25915000000,world,0.000523725425625,0.00210128842532,2.89761772669
25925000000,306,25925000000,world,0.000501059169953,0.0021299851086,2.89758879934
25935000000,307,25935000000,world,0.000477976282761,0.00215904973548,2.89756596472
25945000000,308,25945000000,world,0.000454458571619,0.00218848080215,2.89754906614
25955000000,309,25955000000,world,0.000430184238351,0.00221805358462,2.89753803677
25965000000,310,25965000000,world,0.000405519106379,0.00224799780797,2.89753314988
25975000000,311,25975000000,world,0.000380469195296,0.00227830841856,2.89753475014
25985000000,312,25985000000,world,0.000355457868115,0.00230837766965,2.89754312104
25995000000,313,25995000000,world,0.000330090484503,0.00233876659175,2.89755827238
26005000000,314,26005000000,world,0.000304319784628,0.00236953823646,2.89758012746
26015000000,315,26015000000,world,0.000278148079888,0.00240068430012,2.89760861259
26025000000,316,26025000000,world,0.000251579163775,0.00243219474348,2.897643657
26035000000,317,26035000000,world,0.00022461800462,0.00246405601229,2.89768519269
26045000000,318,26045000000,world,0.000198080576207,0.00249554986082,2.89773318063
26055000000,319,26055000000,world,0.000171312169277,0.00252723233314,2.89778777492
26065000000,320,26065000000,world,0.000144102420608,0.00255927108795,2.89784920887
26075000000,321,26075000000,world,0.000116453631916,0.00259165083401,2.8979177071
26085000000,322,26085000000,world,8.8371700812e-05,0.00262435394384,2.89799348544
26095000000,323,26095000000,world,6.07156066204e-05,0.0026561434227,2.89807671478
26105000000,324,26105000000,world,3.2950625748e-05,0.00268778049861,2.89816717138
26115000000,325,26115000000,world,4.7055978648e-06,0.00271979292359,2.89826441515
26125000000,326,26125000000,world,-2.32351953134e-05,0.00275037885487,2.89836802492
26135000000,327,26135000000,world,-5.14962784589e-05,0.00278097357547,2.89847762078
26145000000,328,26145000000,world,-8.00603185442e-05,0.00281139991963,2.8985928578
26155000000,329,26155000000,world,-0.000109050286247,0.00284204465114,2.89871349116
26165000000,330,26165000000,world,-0.00013447847555,0.00286545513697,2.89883933845
26175000000,331,26175000000,world,-0.000151387259878,0.00287223694851,2.89897028566
26185000000,332,26185000000,world,-0.000168615081309,0.00287931050542,2.8991063217
26195000000,333,26195000000,world,-0.000183424356673,0.00288190091987,2.89924749179
26205000000,334,26205000000,world,-0.000199936764651,0.00288722524165,2.89939393094
26215000000,335,26215000000,world,-0.00022156468182,0.00290146231388,2.89954574646
26225000000,336,26225000000,world,-0.000245528306547,0.00291957354016,2.89970277516
26235000000,337,26235000000,world,-0.000270873705349,0.00293982907894,2.89986474189
26245000000,338,26245000000,world,-0.000297505213786,0.00296205352467,2.90003138181
26255000000,339,26255000000,world,-0.00032532099865,0.00298605677797,2.90020244049
26265000000,340,26265000000,world,-0.000354215953561,0.0030116434896,2.90037767349
26275000000,341,26275000000,world,-0.000384087623514,0.003038615299,2.90055684598
26285000000,342,26285000000,world,-0.000418003686618,0.00307126032402,2.900739717
26295000000,343,26295000000,world,-0.00045456812381,0.00310755705189,2.90092581078
26305000000,344,26305000000,world,-0.000491474365894,0.00314419902382,2.9011144847
26315000000,345,26315000000,world,-0.000529788202331,0.00318341988331,2.90130511752
26325000000,346,26325000000,world,-0.000578494885553,0.00324377788786,2.90149717066
26335000000,347,26335000000,world,-0.000626551679658,0.00330250452585,2.9016902756
26345000000,348,26345000000,world,-0.000671206455268,0.00335683504053,2.90188414408
26355000000,349,26355000000,world,-0.000715128232693,0.00340918606444,2.9020785941
26365000000,350,26365000000,world,-0.000750760131869,0.00344450261904,2.90227346185
26375000000,351,26375000000,world,-0.000782931243691,0.00347235949474,2.90246856451
26385000000,352,26385000000,world,-0.00081411736529,0.00349660495044,2.90266371894
26395000000,353,26395000000,world,-0.000844657152597,0.00351765706062,2.9028589156
26405000000,354,26405000000,world,-0.000875432508283,0.00353871666795,2.90305427336
26415000000,355,26415000000,world,-0.000911285763161,0.00356876857602,2.90324989411
26425000000,356,26425000000,world,-0.00095030847889,0.00360428956896,2.90344561429
26435000000,357,26435000000,world,-0.000989194994501,0.00363916631039,2.9036410792
26445000000,358,26445000000,world,-0.0010279178025,0.00367334993414,2.90383594483
26455000000,359,26455000000,world,-0.00107057124294,0.00371558143896,2.90402997833
26465000000,360,26465000000,world,-0.00111101814879,0.00375387541471,2.90422333049
26475000000,361,26475000000,world,-0.00114820360341,0.00378568802096,2.90441603966
26485000000,362,26485000000,world,-0.00118136127195,0.0038083027989,2.90460778323
26495000000,363,26495000000,world,-0.0012148086673,0.00383020552029,2.90479803599
26505000000,364,26505000000,world,-0.00124951072577,0.00385352932896,2.90498637084
26515000000,365,26515000000,world,-0.00128523705088,0.00387800993521,2.90517256679
26525000000,366,26525000000,world,-0.00132457399685,0.00390971509056,2.90535645595
26535000000,367,26535000000,world,-0.00136384397806,0.00394116861007,2.90553795812
26545000000,368,26545000000,world,-0.00140302510752,0.00397228972543,2.90571692637
26555000000,369,26555000000,world,-0.00144038992218,0.00399925620712,2.9058931418
26565000000,370,26565000000,world,-0.00147607919483,0.00402233486313,2.90606643443
26575000000,371,26575000000,world,-0.00151118433651,0.00404336419496,2.906236681
26585000000,372,26585000000,world,-0.00154600510403,0.0040628297582,2.90640372842
26595000000,373,26595000000,world,-0.00158277867794,0.00408510060762,2.90656738072
26605000000,374,26605000000,world,-0.00162042294064,0.0041087444623,2.90672720955
26615000000,375,26615000000,world,-0.00165973094077,0.00413542945692,2.9068828398
26625000000,376,26625000000,world,-0.00169831727384,0.00416034765191,2.90703441317
26635000000,377,26635000000,world,-0.00173628361239,0.00418359406182,2.90718200939
26645000000,378,26645000000,world,-0.00177281312699,0.00420317282998,2.90732559013
26655000000,379,26655000000,world,-0.00180975391379,0.00422269469274,2.90746511659
26665000000,380,26665000000,world,-0.00184724227461,0.00424263639241,2.9076005178
26675000000,381,26675000000,world,-0.00188601434801,0.00426456176018,2.90773174789
26685000000,382,26685000000,world,-0.00192508094292,0.00428669247515,2.90785881835
26695000000,383,26695000000,world,-0.00196392143748,0.00430792325051,2.90798165391
26705000000,384,26705000000,world,-0.00200212798326,0.00432735939469,2.90810029106
26715000000,385,26715000000,world,-0.00203997703754,0.00434527909486,2.90821492734
26725000000,386,26725000000,world,-0.00207792504697,0.00436277531138,2.90832527964
26735000000,387,26735000000,world,-0.00211664850723,0.00438113848736,2.90843106133
26745000000,388,26745000000,world,-0.00215570558281,0.00439959669488,2.90853243869
26755000000,389,26755000000,world,-0.00219525736946,0.00441863750853,2.90862954924
26765000000,390,26765000000,world,-0.00223465933346,0.00443693536162,2.9087223941
26775000000,391,26775000000,world,-0.0022740120476,0.00445456861144,2.90881097157
26785000000,392,26785000000,world,-0.00231301205583,0.00447086959769,2.9088953293
26795000000,393,26795000000,world,-0.00235213428022,0.00448680703169,2.90897562023
26805000000,394,26805000000,world,-0.0023915162756,0.00450260907023,2.90905188056
26815000000,395,26815000000,world,-0.00243141802369,0.00451888921219,2.909124222
26825000000,396,26825000000,world,-0.00247151850652,0.00453509090606,2.90919326116
26835000000,397,26835000000,world,-0.00251173617377,0.00455099647477,2.90925883949
26845000000,398,26845000000,world,-0.00255182288743,0.00456612667307,2.90932048287
26855000000,399,26855000000,world,-0.00259192167258,0.00458069207242,2.90937808443
26865000000,400,26865000000,world,-0.00263196608674,0.00459461270737,2.90943169352
26875000000,401,26875000000,world,-0.00267207079435,0.00460808695519,2.90948134168
26885000000,402,26885000000,world,-0.00271248720961,0.00462173706033,2.9095270131
26895000000,403,26895000000,world,-0.00275316331529,0.00463542243017,2.9095685468
26905000000,404,26905000000,world,-0.00279402480859,0.00464900025155,2.90960591744
26915000000,405,26915000000,world,-0.00283494761244,0.00466220986685,2.9096392343
26925000000,406,26925000000,world,-0.00287580695697,0.00467475378484,2.90966860597
26935000000,407,26935000000,world,-0.0029167382017,0.00468684784889,2.9096940835
26945000000,408,26945000000,world,-0.0029577906968,0.00469869694818,2.90971572205
26955000000,409,26955000000,world,-0.00299894497197,0.004710155571,2.90973364594
26965000000,410,26965000000,world,-0.00304029611759,0.00472154036839,2.909747992
26975000000,411,26975000000,world,-0.00308183929071,0.00473283891694,2.90975899492
26985000000,412,26985000000,world,-0.00312356690115,0.00474422377175,2.90976697801
26995000000,413,26995000000,world,-0.00316543527542,0.00475545287161,2.90977206908
27005000000,414,27005000000,world,-0.00320739412813,0.00476628743221,2.90977414997
27015000000,415,27015000000,world,-0.00324941923418,0.00477696872921,2.90977308234
27025000000,416,27025000000,world,-0.00329154107864,0.0047873150663,2.9097685864
27035000000,417,27035000000,world,-0.00333373069203,0.00479732954438,2.90976028793
27045000000,418,27045000000,world,-0.00337597765829,0.00480705113177,2.90974806745
27055000000,419,27055000000,world,-0.00341832631963,0.00481683024459,2.90973210665
27065000000,420,27065000000,world,-0.00346078316397,0.00482641510315,2.90971244559
27075000000,421,27075000000,world,-0.00350339623169,0.00483621801588,2.90968904134
27085000000,422,27085000000,world,-0.00354614532756,0.00484588280644,2.90966187913
27095000000,423,27095000000,world,-0.00358903063413,0.00485515533389,2.9096308525
27105000000,424,27105000000,world,-0.00363202649121,0.00486407329613,2.90959566349
27115000000,425,27115000000,world,-0.00367512355133,0.00487268433321,2.90955600878
27125000000,426,27125000000,world,-0.00371831016619,0.00488104449234,2.90951187542
27135000000,427,27135000000,world,-0.00376146191917,0.00488949839626,2.90946371976
27145000000,428,27145000000,world,-0.00380439902552,0.00489854260151,2.90941196574
27155000000,429,27155000000,world,-0.0038474489343,0.00490771556387,2.90935688682
27165000000,430,27165000000,world,-0.00389061794166,0.00491721636239,2.90929867614
27175000000,431,27175000000,world,-0.00393430718276,0.0049265149079,2.9092374584
27185000000,432,27185000000,world,-0.00397817152547,0.00493549726026,2.90917313538
27195000000,433,27195000000,world,-0.00402227109848,0.0049440962753,2.90910548673
27205000000,434,27205000000,world,-0.00406659363554,0.00495234118894,2.90903431993
27215000000,435,27215000000,world,-0.00411102675606,0.00496032342616,2.90895947653
27225000000,436,27225000000,world,-0.00415530810236,0.0049688310913,2.90888087191
27235000000,437,27235000000,world,-0.0041996796302,0.00497718103032,2.90879878346
27245000000,438,27245000000,world,-0.00424401807428,0.00498590788975,2.90871358911
27255000000,439,27255000000,world,-0.00428833606823,0.00499498899993,2.90862548235
27265000000,440,27265000000,world,-0.0043328025874,0.00500393525212,2.90853448114
27275000000,441,27275000000,world,-0.00437749653117,0.00501355492702,2.90844064702
27285000000,442,27285000000,world,-0.00442232371922,0.00502292503864,2.90834419163
27295000000,443,27295000000,world,-0.00446745456057,0.00503245362553,2.90824533931
27305000000,444,27305000000,world,-0.00451277200248,0.00504196599644,2.90814420893
27315000000,445,27315000000,world,-0.00455817922291,0.00505164188205,2.90804080933
27325000000,446,27325000000,world,-0.00460369426437,0.00506112224811,2.90793501999
27335000000,447,27335000000,world,-0.00464926413876,0.00507048569411,2.90782669401
27345000000,448,27345000000,world,-0.00469474464873,0.00507995742286,2.90771569086
27355000000,449,27355000000,world,-0.00474033975149,0.00508950530453,2.90760207572
27365000000,450,27365000000,world,-0.00478600836032,0.00509919672056,2.90748638683
27375000000,451,27375000000,world,-0.00483167157273,0.00510951727535,2.90736908666
27385000000,452,27385000000,world,-0.00487745695904,0.00511975114429,2.90725034631
27395000000,453,27395000000,world,-0.00492337485565,0.00512998235671,2.90713029394
27405000000,454,27405000000,world,-0.00496945470761,0.00514040136485,2.90700914768
27415000000,455,27415000000,world,-0.00501565012579,0.00515080266063,2.90688749923
27425000000,456,27425000000,world,-0.00506202830471,0.00516200994976,2.90676588355
27435000000,457,27435000000,world,-0.00510851293908,0.0051732109923,2.90664430639
27445000000,458,27445000000,world,-0.005155084952,0.00518468483189,2.90652264913
27455000000,459,27455000000,world,-0.00520169735447,0.00519717320024,2.90640087202
27465000000,460,27465000000,world,-0.00524826466536,0.00521019288348,2.90627910256
27475000000,461,27475000000,world,-0.00529487806814,0.00522342190876,2.90615748645
27485000000,462,27485000000,world,-0.00534155203853,0.00523657993456,2.90603616469
27495000000,463,27495000000,world,-0.00538828928259,0.00524969308655,2.90591528724
27505000000,464,27505000000,world,-0.00543514684889,0.00526285902501,2.90579502216
27515000000,465,27515000000,world,-0.00548213260918,0.0052761169027,2.90567547292
27525000000,466,27525000000,world,-0.00552920930107,0.00528985394339,2.90555662319
27535000000,467,27535000000,world,-0.00557636765247,0.00530425044436,2.90543846492
27545000000,468,27545000000,world,-0.00562364999342,0.00531899527613,2.90532101744
27555000000,469,27555000000,world,-0.00567111235107,0.0053347947055,2.90520432608
27565000000,470,27565000000,world,-0.0057186544415,0.0053506989871,2.90508849157
27575000000,471,27575000000,world,-0.00576619316885,0.0053669252649,2.90497366939
27585000000,472,27585000000,world,-0.00581379228076,0.00538322417185,2.90486016257
27595000000,473,27595000000,world,-0.00586123021135,0.00539940694453,2.90474824194
27605000000,474,27605000000,world,-0.00590876024091,0.00541576105938,2.9046380247
27615000000,475,27615000000,world,-0.0059562601798,0.00543247317134,2.90452956192
27625000000,476,27625000000,world,-0.00600386519773,0.00544938816406,2.9044227795
27635000000,477,27635000000,world,-0.0060516060223,0.00546707881071,2.90431758618
27645000000,478,27645000000,world,-0.0060994540007,0.00548511850725,2.90421394156
27655000000,479,27655000000,world,-0.00614752603258,0.00550383912791,2.90411182497
27665000000,480,27665000000,world,-0.00619576547581,0.00552307157128,2.90401118351
27675000000,481,27675000000,world,-0.00624398617002,0.00554248964921,2.90391195235
27685000000,482,27685000000,world,-0.00629222079543,0.00556211602158,2.90381424106
27695000000,483,27695000000,world,-0.00634036383658,0.00558181949463,2.90371828907
27705000000,484,27705000000,world,-0.00638834521712,0.00560154982319,2.90362444262
27715000000,485,27715000000,world,-0.00643641990732,0.00562157479354,2.90353317985
27725000000,486,27725000000,world,-0.00648443746798,0.00564194589427,2.90344496037
27735000000,487,27735000000,world,-0.00653255587996,0.0056626466047,2.90336015578
27745000000,488,27745000000,world,-0.00658089217408,0.00568412241526,2.90327901121
27755000000,489,27755000000,world,-0.00662933717981,0.00570598348228,2.90320132234
27765000000,490,27765000000,world,-0.00667792230735,0.00572829781925,2.90312693787
27775000000,491,27775000000,world,-0.00672658340715,0.00575093454905,2.90305627815
27785000000,492,27785000000,world,-0.00677509111116,0.00577342782743,2.90298978449
27795000000,493,27795000000,world,-0.00682367870157,0.00579627738587,2.9029276202
27805000000,494,27805000000,world,-0.0068720705896,0.00581904948761,2.90286986368
27815000000,495,27815000000,world,-0.00692054591635,0.00584220794457,2.90281652794
27825000000,496,27825000000,world,-0.00696908381868,0.0058657415488,2.90276761966
27835000000,497,27835000000,world,-0.00701775683207,0.00588967366039,2.90272314708
27845000000,498,27845000000,world,-0.00706655021237,0.00591400494973,2.9026828431
27855000000,499,27855000000,world,-0.00711537757439,0.00593848493632,2.9026462749
27865000000,500,27865000000,world,-0.00716407415513,0.00596283480875,2.90261326046
27875000000,501,27875000000,world,-0.00721282462663,0.00598754074896,2.90258361845
27885000000,502,27885000000,world,-0.00726156792531,0.00601246112886,2.90255717921
27895000000,503,27895000000,world,-0.0073104241384,0.00603775186381,2.90253391573
27905000000,504,27905000000,world,-0.007359388755,0.00606340969406,2.90251395501
27915000000,505,27915000000,world,-0.00740843863215,0.0060890462225,2.90249750856
27925000000,506,27925000000,world,-0.00745756359375,0.00611507253581,2.90248457381
27935000000,507,27935000000,world,-0.00750668530874,0.00614096832832,2.90247502892
27945000000,508,27945000000,world,-0.00755583237498,0.00616706305258,2.90246857599
27955000000,509,27955000000,world,-0.00760501949052,0.00619341754498,2.90246519343
27965000000,510,27965000000,world,-0.00765426014645,0.00621980166624,2.90246498926
27975000000,511,27975000000,world,-0.00770359175359,0.0062462098224,2.90246776024
27985000000,512,27985000000,world,-0.00775299507728,0.00627250035399,2.90247354983
27995000000,513,27995000000,world,-0.00780258618962,0.00629909922135,2.90248279137
28005000000,514,28005000000,world,-0.00785286460971,0.00632589148769,2.90249579562
28015000000,515,28015000000,world,-0.00790333532185,0.00635295804366,2.90251249276
28025000000,516,28025000000,world,-0.00795385105722,0.00638021306501,2.90253264795
28035000000,517,28035000000,world,-0.00800420954647,0.00640763933898,2.90255601908
28045000000,518,28045000000,world,-0.0080539250421,0.0064349338483,2.90258235884
28055000000,519,28055000000,world,-0.0081036665052,0.00646260541551,2.90261138666
28065000000,520,28065000000,world,-0.00815309134536,0.00648973879698,2.90264282475
28075000000,521,28075000000,world,-0.00820257498242,0.00651723677564,2.90267640446
28085000000,522,28085000000,world,-0.00825268560056,0.00654415575336,2.90271189185
28095000000,523,28095000000,world,-0.00830289625849,0.00657132608501,2.90274919527
28105000000,524,28105000000,world,-0.00835355745541,0.00659793036039,2.90278831284
28115000000,525,28115000000,world,-0.00840427232313,0.00662477757533,2.90282947277
28125000000,526,28125000000,world,-0.00845649952823,0.00662346761624,2.90287291258
28135000000,527,28135000000,world,-0.00850871505289,0.00662269753451,2.90291863977
28145000000,528,28145000000,world,-0.00856136909172,0.00661436649644,2.90296660439
28155000000,529,28155000000,world,-0.00861387916676,0.00660901537924,2.90301675579
28165000000,530,28165000000,world,-0.00866585702102,0.00661664601108,2.90306907236
28175000000,531,28175000000,world,-0.00871766930623,0.00662781586711,2.90312367565
28185000000,532,28185000000,world,-0.00876918338712,0.00664540146227,2.90318072594
28195000000,533,28195000000,world,-0.00882042710833,0.0066688565269,2.90324021401
28205000000,534,28205000000,world,-0.00887156911429,0.00669374943465,2.90330195507
28215000000,535,28215000000,world,-0.00892262931169,0.00671980541805,2.90336543942
28225000000,536,28225000000,world,-0.00897187714187,0.00676495553609,2.90342987597
28235000000,537,28235000000,world,-0.00902078855279,0.00681403153592,2.90349459643
28245000000,538,28245000000,world,-0.00906940739741,0.00686562926421,2.90355907049
28255000000,539,28255000000,world,-0.00911930934337,0.00690351315136,2.90362312489
28265000000,540,28265000000,world,-0.00916984427908,0.00693501064796,2.90368660378
28275000000,541,28275000000,world,-0.00922062471601,0.00696192069174,2.9037492818
28285000000,542,28285000000,world,-0.00927178023489,0.00697979440803,2.90381108171
28295000000,543,28295000000,world,-0.00932241128838,0.00700349091317,2.90387211367
28305000000,544,28305000000,world,-0.00937272304945,0.00703511766211,2.90393239505
28315000000,545,28315000000,world,-0.00942319172924,0.00707100275736,2.90399165862
28325000000,546,28325000000,world,-0.00947452388649,0.00710346857176,2.90404972214
28335000000,547,28335000000,world,-0.00952638908074,0.00712865456218,2.90410692805
28345000000,548,28345000000,world,-0.00957842935802,0.00714818184371,2.90416311349
28355000000,549,28355000000,world,-0.00963044296511,0.00716671282619,2.90421793568
28365000000,550,28365000000,world,-0.00968250319541,0.00718429898478,2.90427124834
28375000000,551,28375000000,world,-0.00973452577365,0.00720387587377,2.90432291749
28385000000,552,28385000000,world,-0.0097863502316,0.00722831143079,2.90437289367
28395000000,553,28395000000,world,-0.00983844606787,0.00725459485553,2.90442129493
28405000000,554,28405000000,world,-0.00989075486948,0.00728169432774,2.90446814643
28415000000,555,28415000000,world,-0.00994341486585,0.00730595801462,2.90451338465
28425000000,556,28425000000,world,-0.00999652333286,0.00732657013415,2.90455691133
28435000000,557,28435000000,world,-0.0100498138754,0.00734388971445,2.90459858849
28445000000,558,28445000000,world,-0.0101032750497,0.00735816248639,2.9046383466
28455000000,559,28455000000,world,-0.0101566000341,0.00737348727669,2.90467620178
28465000000,560,28465000000,world,-0.0102099461,0.00738882197487,2.90471228407
28475000000,561,28475000000,world,-0.0102632749037,0.00740828932913,2.90474674858
28485000000,562,28485000000,world,-0.0103166885998,0.00742718083748,2.90477964706
28495000000,563,28495000000,world,-0.0103705074947,0.00744546466129,2.90481101991
28505000000,564,28505000000,world,-0.0104244586926,0.00746311460092,2.90484098787
28515000000,565,28515000000,world,-0.0104788712206,0.00747672243741,2.90486965896
28525000000,566,28525000000,world,-0.0105333859362,0.0074895037025,2.90489691113
28535000000,567,28535000000,world,-0.0105879917378,0.00750111405525,2.90492254771
28545000000,568,28545000000,world,-0.0106425687553,0.00751472880939,2.90494643457
28555000000,569,28555000000,world,-0.0106972274259,0.00752911801128,2.90496860544
28565000000,570,28565000000,world,-0.0107521063386,0.00754224043531,2.9049891865
28575000000,571,28575000000,world,-0.0108072183991,0.00755319339148,2.90500847841
28585000000,572,28585000000,world,-0.0108625597778,0.0075622517683,2.90502681924
28595000000,573,28595000000,world,-0.0109180703622,0.00757036720945,2.90504444865
28605000000,574,28605000000,world,-0.0109736697222,0.00757973189475,2.90506158004
28615000000,575,28615000000,world,-0.0110293416309,0.00758869871102,2.90507837159
28625000000,576,28625000000,world,-0.0110850724758,0.0075994377664,2.90509494347
28635000000,577,28635000000,world,-0.0111408923919,0.00760962888671,2.90511131585
28645000000,578,28645000000,world,-0.0111969570809,0.00761871691054,2.9051274893
28655000000,579,28655000000,world,-0.0112532013414,0.00762665843253,2.90514347633
28665000000,580,28665000000,world,-0.0113097385675,0.00763273572985,2.905159281
28675000000,581,28675000000,world,-0.0113664771862,0.00763820648831,2.90517494392
28685000000,582,28685000000,world,-0.0114233083258,0.0076433145254,2.90519067136
28695000000,583,28695000000,world,-0.0114801942562,0.00764938096217,2.90520661271
28705000000,584,28705000000,world,-0.0115372131218,0.00765507532271,2.90522257698
28715000000,585,28715000000,world,-0.011594398722,0.00766056018809,2.90523852931
28725000000,586,28725000000,world,-0.0116518129379,0.00766502227919,2.90525484518
28735000000,587,28735000000,world,-0.0117094194631,0.00766864559023,2.90527150008
28745000000,588,28745000000,world,-0.01176574241,0.00767144622943,2.90528821405
28755000000,589,28755000000,world,-0.0118218632818,0.00767381262913,2.90530527581
28765000000,590,28765000000,world,-0.011877954603,0.00767630039549,2.90532299089
28775000000,591,28775000000,world,-0.0119343405499,0.00767827710392,2.90534115914
28785000000,592,28785000000,world,-0.0119924686673,0.00768055728674,2.90535952157
28795000000,593,28795000000,world,-0.0120513300112,0.00768238311823,2.90537782777
28805000000,594,28805000000,world,-0.0121110126261,0.00768373229135,2.90539608854
28815000000,595,28815000000,world,-0.0121703091868,0.00768432984635,2.90541460211
28825000000,596,28825000000,world,-0.0122297161982,0.00768436494913,2.90543376864
28835000000,597,28835000000,world,-0.0122892357141,0.00768394525106,2.90545400519
28845000000,598,28845000000,world,-0.0123488451206,0.00768311445754,2.90547567628
28855000000,599,28855000000,world,-0.0124086331833,0.00768177275995,2.90549908539
28865000000,600,28865000000,world,-0.0124690712381,0.00768064660299,2.9055245033
28875000000,601,28875000000,world,-0.012529780727,0.00767916994208,2.90555205471
28885000000,602,28885000000,world,-0.0125912220458,0.00767836195715,2.90558183636
28895000000,603,28895000000,world,-0.0126527801632,0.00767697407827,2.9056140854
28905000000,604,28905000000,world,-0.0127143375172,0.00767541984128,2.90564903753
28915000000,605,28915000000,world,-0.0127760165036,0.00767328530249,2.90568680584
28925000000,606,28925000000,world,-0.0128374817202,0.00767041155698,2.90572744061
28935000000,607,28935000000,world,-0.0128990634815,0.00766698362125,2.90577082116
28945000000,608,28945000000,world,-0.0129608645074,0.00766323879274,2.90581676884
28955000000,609,28955000000,world,-0.0130228607322,0.00765908079505,2.90586503886
28965000000,610,28965000000,world,-0.0130854601939,0.00765559820368,2.90591531588
28975000000,611,28975000000,world,-0.0131483589446,0.00765216315013,2.90596707631
28985000000,612,28985000000,world,-0.0132115623659,0.00764902057335,2.9060197657
28995000000,613,28995000000,world,-0.0132748763701,0.00764540626541,2.90607289671
29005000000,614,29005000000,world,-0.0133381191573,0.00764166035697,2.90612609194
29015000000,615,29015000000,world,-0.0134014779189,0.00763738721546,2.906179244
29025000000,616,29025000000,world,-0.0134648853791,0.0076326156069,2.90623215111
29035000000,617,29035000000,world,-0.0135286454957,0.00762783069525,2.90628440289
29045000000,618,29045000000,world,-0.0135927058395,0.00762288629703,2.90633599803
29055000000,619,29055000000,world,-0.0136571784864,0.00761821820064,2.90638720165
29065000000,620,29065000000,world,-0.0137219576454,0.00761348120357,2.90643775036
29075000000,621,29075000000,world,-0.0137869712557,0.00760915819998,2.90648709743
29085000000,622,29085000000,world,-0.0138521805444,0.00760452745367,2.90653484102
29095000000,623,29095000000,world,-0.0139174489492,0.00759991513619,2.90658068692
29105000000,624,29105000000,world,-0.0139828917895,0.00759498712543,2.90662448533
29115000000,625,29115000000,world,-0.0140485090981,0.00759011849534,2.9066661803
29125000000,626,29125000000,world,-0.014114342095,0.00758492178928,2.90670589081
29135000000,627,29135000000,world,-0.0141805280599,0.00758006181944,2.90674380073
29145000000,628,29145000000,world,-0.0142469882009,0.00757514627619,2.90678017061
29155000000,629,29155000000,world,-0.0143139787546,0.00757054676007,2.90681527858
29165000000,630,29165000000,world,-0.0143813732513,0.00756604313706,2.90684907358
29175000000,631,29175000000,world,-0.0144489624986,0.00756135255234,2.90688126386
29185000000,632,29185000000,world,-0.0145167983309,0.0075574194584,2.90691164635
29195000000,633,29195000000,world,-0.0145848144886,0.00755320216925,2.90694027329
29205000000,634,29205000000,world,-0.0146527153312,0.00754969884219,2.90696725029
29215000000,635,29215000000,world,-0.0147206916724,0.00754633495489,2.90699279452
29225000000,636,29225000000,world,-0.0147887664145,0.00754317930798,2.90701717274
29235000000,637,29235000000,world,-0.0148569531575,0.00754023142275,2.90704042228
29245000000,638,29245000000,world,-0.0149255193867,0.00753728701824,2.90706235543
29255000000,639,29255000000,world,-0.0149944090651,0.00753432883705,2.90708269148
29265000000,640,29265000000,world,-0.0150635916427,0.0075314437766,2.90710109377
29275000000,641,29275000000,world,-0.0151331197408,0.0075289659455,2.90711735878
29285000000,642,29285000000,world,-0.0152028008347,0.00752667429081,2.90713145803
29295000000,643,29295000000,world,-0.0152724756581,0.00752546426149,2.90714325314
29305000000,644,29305000000,world,-0.015342370274,0.00752413674261,2.90715233901
29315000000,645,29315000000,world,-0.0154121831538,0.00752336658542,2.90715834405
29325000000,646,29325000000,world,-0.0154821592946,0.0075226756362,2.90716131317
29335000000,647,29335000000,world,-0.0155523654208,0.00752201299323,2.90716146668
29345000000,648,29345000000,world,-0.0156227087164,0.00752195747883,2.90715894785
29355000000,649,29355000000,world,-0.0156932990028,0.00752191111399,2.9071536905
29365000000,650,29365000000,world,-0.0157641989489,0.00752297822799,2.90714561951
29375000000,651,29375000000,world,-0.0158353428979,0.00752418963587,2.90713480535
29385000000,652,29385000000,world,-0.0159067178286,0.00752545878788,2.90712136215
29395000000,653,29395000000,world,-0.015978255891,0.00752787125051,2.90710533899
29405000000,654,29405000000,world,-0.0160500097243,0.00753054377929,2.90708645721
29415000000,655,29415000000,world,-0.0161219434116,0.00753342308131,2.90706434152
29425000000,656,29425000000,world,-0.0161937711962,0.00753732318845,2.90703881722
29435000000,657,29435000000,world,-0.0162657751502,0.00754145232654,2.90701013098
29445000000,658,29445000000,world,-0.0163375817941,0.0075466554367,2.9069785541
29455000000,659,29455000000,world,-0.0164096305867,0.00755198783197,2.90694427001
29465000000,660,29465000000,world,-0.016481827713,0.00755790030965,2.9069074134
29475000000,661,29475000000,world,-0.0165542418485,0.00756408745239,2.90686795104
29485000000,662,29485000000,world,-0.0166269035677,0.00757094610154,2.90682576496
29495000000,663,29495000000,world,-0.0166997760294,0.00757811824113,2.90678066752
29505000000,664,29505000000,world,-0.0167727267062,0.00758597467625,2.90673246799
29515000000,665,29515000000,world,-0.0168457697761,0.00759415115409,2.90668101489
29525000000,666,29525000000,world,-0.0169188788546,0.00760276799575,2.90662626761
29535000000,667,29535000000,world,-0.0169921478185,0.0076117440778,2.90656826564
29545000000,668,29545000000,world,-0.0170654239485,0.00762128434625,2.90650708436
29555000000,669,29555000000,world,-0.0171389066645,0.00763117556185,2.90644287568
29565000000,670,29565000000,world,-0.0172124286231,0.00764183470181,2.90637579072
29575000000,671,29575000000,world,-0.0172860437119,0.00765313496072,2.90630590025
29585000000,672,29585000000,world,-0.0173596382676,0.00766533870352,2.90623323028
29595000000,673,29595000000,world,-0.0174333147523,0.00767820177853,2.90615796362
29605000000,674,29605000000,world,-0.0175069344698,0.00769161280764,2.90608037243
29615000000,675,29615000000,world,-0.0175806448348,0.0077054955131,2.90600076129
29625000000,676,29625000000,world,-0.0176545208049,0.00771977088178,2.90591944748
29635000000,677,29635000000,world,-0.0177284787465,0.00773436463393,2.90583675523
29645000000,678,29645000000,world,-0.0178026125883,0.00774943397909,2.90575303832
29655000000,679,29655000000,world,-0.017876696216,0.00776508326503,2.90566858868
29665000000,680,29665000000,world,-0.017950941974,0.00778124217412,2.90558347139
29675000000,681,29675000000,world,-0.0180250434486,0.007798188667,2.90549771002
29685000000,682,29685000000,world,-0.0180991747169,0.00781576849583,2.90541147274
29695000000,683,29695000000,world,-0.0181731049759,0.00783389608518,2.90532500447
29705000000,684,29705000000,world,-0.018247108147,0.00785256262,2.90523853261
29715000000,685,29715000000,world,-0.0183210478426,0.00787139083061,2.90515223969
29725000000,686,29725000000,world,-0.0183951182375,0.00789074712097,2.90506612455
29735000000,687,29735000000,world,-0.0184692122381,0.0079103273893,2.90498018261
29745000000,688,29745000000,world,-0.0185434433739,0.00793049579673,2.90489462694
29755000000,689,29755000000,world,-0.0186176613455,0.00795121358376,2.90480972389
29765000000,690,29765000000,world,-0.0186918634016,0.00797248709281,2.90472585458
29775000000,691,29775000000,world,-0.0187658699244,0.00799422615353,2.9046434487
29785000000,692,29785000000,world,-0.0188398631873,0.00801652413189,2.90456258791
29795000000,693,29795000000,world,-0.0189136598544,0.00803895797485,2.90448319068
29805000000,694,29805000000,world,-0.0189875717983,0.00806203457883,2.9044053117
29815000000,695,29815000000,world,-0.0190614018688,0.00808505436938,2.90432906735
29825000000,696,29825000000,world,-0.0191353319784,0.00810874006625,2.90425468909
29835000000,697,29835000000,world,-0.0192091752601,0.00813264055658,2.90418245272
29845000000,698,29845000000,world,-0.0192830293799,0.00815702163052,2.90411286736
29855000000,699,29855000000,world,-0.0193566852869,0.0081815663586,2.90404646183
29865000000,700,29865000000,world,-0.0194300778151,0.00820598804646,2.90398298876
29875000000,701,29875000000,world,-0.019503498618,0.00823096745012,2.90392195914
29885000000,702,29885000000,world,-0.0195769855339,0.00825650092985,2.90386294007
29895000000,703,29895000000,world,-0.019650526174,0.00828257630064,2.90380548553
29905000000,704,29905000000,world,-0.0197171753063,0.0082804378102,2.90374922193
29915000000,705,29915000000,world,-0.0197838893662,0.00827842370605,2.90369406604
29925000000,706,29925000000,world,-0.0198495978209,0.00827034400626,2.90363995914
29935000000,707,29935000000,world,-0.0199177840584,0.00827039257754,2.90358670696
29945000000,708,29945000000,world,-0.0199882365147,0.00827824781852,2.9035344179
29955000000,709,29955000000,world,-0.0200613559448,0.00829620653563,2.90348342386
29965000000,710,29965000000,world,-0.0201347259061,0.00831603162038,2.90343384063
29975000000,711,29975000000,world,-0.0202082698712,0.0083376556914,2.90338595073
29985000000,712,29985000000,world,-0.0202815063003,0.00835796227362,2.90334017492
29995000000,713,29995000000,world,-0.0203546454108,0.00837876602037,2.90329676912
30005000000,714,30005000000,world,-0.0204281967216,0.00839974735714,2.90325587913
30015000000,715,30015000000,world,-0.0205018895591,0.00842156295804,2.90321751633
30025000000,716,30025000000,world,-0.0205762460802,0.00844588321658,2.90318163077
30035000000,717,30035000000,world,-0.0206513104393,0.00847341630705,2.90314832492
30045000000,718,30045000000,world,-0.0207263721749,0.00851124969529,2.90311790556
30055000000,719,30055000000,world,-0.0208009971808,0.00856962402029,2.90309069724
30065000000,720,30065000000,world,-0.02087464838,0.00863201471335,2.90306691428
30075000000,721,30075000000,world,-0.0209477772056,0.00869300945896,2.90304670516
30085000000,722,30085000000,world,-0.0210208754628,0.00873640200423,2.90303024104
30095000000,723,30095000000,world,-0.0210939249033,0.00876721519571,2.90301757004
30105000000,724,30105000000,world,-0.0211670816865,0.00878750795924,2.90300863182
30115000000,725,30115000000,world,-0.021240325685,0.00880338748204,2.90300336467
30125000000,726,30125000000,world,-0.0213133377361,0.00882644199002,2.9030018919
