%time,field.header.seq,field.header.stamp,field.header.frame_id,field.twist.linear.x,field.twist.linear.y,field.twist.linear.z,field.twist.angular.x,field.twist.angular.y,field.twist.angular.z
22678000000,2252,22678000000,,0.0443345543425,0.00335538745379,0.0162926752226,0.0,0.0,0.0
22685000000,2253,22685000000,,-0.0208581429695,-0.00206981971581,-0.00559962209776,0.0,0.0,0.0
22696000000,2254,22696000000,,-0.00341198584475,0.0699098747894,0.017453163446,0.0,0.0,0.0
22705000000,2255,22705000000,,0.00523477016834,-0.00262038862955,-0.00437189423825,0.0,0.0,0.0
22716000000,2256,22716000000,,-0.0253702433152,-0.00789560398814,0.00125602868589,0.0,0.0,0.0
22725000000,2257,22725000000,,-0.00151796643814,0.00541944883694,-0.0181879492711,0.0,0.0,0.0
22736000000,2258,22736000000,,-0.00334837850344,0.01302095029,0.0206379529936,0.0,0.0,0.0
22745000000,2259,22745000000,,0.0318792504412,-0.014703640068,-0.0389704376289,0.0,0.0,0.0
22756000000,2260,22756000000,,0.00433873341955,-0.00403452152363,0.031429019753,0.0,0.0,0.0
22763000000,2261,22763000000,,0.0418182642412,0.00837401468618,0.00578862315907,0.0,0.0,0.0
22777000000,2262,22777000000,,0.033561949869,0.0150793960046,-0.00971411502039,0.0,0.0,0.0
22786000000,2263,22786000000,,-0.0122249100155,-0.0322651247047,0.0128391804097,0.0,0.0,0.0
22795000000,2264,22795000000,,-0.0228461468632,0.0085342868645,0.00255908530003,0.0,0.0,0.0
22805000000,2265,22805000000,,-0.0184632014971,0.00342888865393,0.000120692835361,0.0,0.0,0.0
22815000000,2266,22815000000,,-0.0202725578551,0.0281977910073,-0.0266254518336,0.0,0.0,0.0
22826000000,2267,22826000000,,0.0215134067914,-0.00578714468799,-0.0145310479198,0.0,0.0,0.0
22837000000,2268,22837000000,,0.0058533261072,0.0278011635741,0.00567153309933,0.0,0.0,0.0
22845000000,2269,22845000000,,-0.00201519486792,-0.00273857539719,0.00978790695215,0.0,0.0,0.0
22855000000,2270,22855000000,,-0.00143960939481,-0.0181943115824,0.00892288031146,0.0,0.0,0.0
22866000000,2271,22866000000,,-0.0231612094977,-0.0051155829684,-0.0386038324902,0.0,0.0,0.0
22876000000,2272,22876000000,,-0.0202113711399,0.00799681955729,-0.0426554994607,0.0,0.0,0.0
22885000000,2273,22885000000,,0.0348159428555,-1.37815104557e-05,0.0524502422825,0.0,0.0,0.0
22895000000,2274,22895000000,,0.00165792082055,0.00489090219008,-0.0119951715053,0.0,0.0,0.0
22906000000,2275,22906000000,,0.0202694405675,-0.00625550589084,0.0105655044986,0.0,0.0,0.0
22916000000,2276,22916000000,,0.00712465616196,0.0227040205143,0.0288388947801,0.0,0.0,0.0
22925000000,2277,22925000000,,0.0310885445621,0.00430378395572,0.0120560640921,0.0,0.0,0.0
22935000000,2278,22935000000,,0.00335813171079,0.0446264095561,-0.0226289163858,0.0,0.0,0.0
22946000000,2279,22946000000,,-0.0289138441257,-0.025788209426,0.00209861649818,0.0,0.0,0.0
22956000000,2280,22956000000,,-0.0149375968399,-0.00530997901128,-0.0172466834786,0.0,0.0,0.0
22965000000,2281,22965000000,,0.0208672003011,0.000599365078543,0.0107915884327,0.0,0.0,0.0
22976000000,2282,22976000000,,0.00689296129934,-0.00918505271156,0.0139281567981,0.0,0.0,0.0
22986000000,2283,22986000000,,0.0165589140053,-0.0122637638272,0.0269121243177,0.0,0.0,0.0
22996000000,2284,22996000000,,-0.000118131011122,0.00353858161581,0.00940077819468,0.0,0.0,0.0
23007000000,2285,23007000000,,0.00638652937164,0.00804352557488,0.0221557090663,0.0,0.0,0.0
23015000000,2286,23015000000,,-0.0108874372282,-0.00446300312423,0.00464926670971,0.0,0.0,0.0
23025000000,2287,23025000000,,0.0161920683347,-0.012765306753,0.0250667091414,0.0,0.0,0.0
23036000000,2288,23036000000,,-0.0229412452137,-0.00497696759284,-0.0116484956431,0.0,0.0,0.0
23046000000,2289,23046000000,,-0.0161697265168,-0.0226019551352,-0.00399950789286,0.0,0.0,0.0
23055000000,2290,23055000000,,0.0029020132154,0.00748778080781,0.019394774301,0.0,0.0,0.0
23065000000,2291,23065000000,,-0.0159982868295,0.0109533758384,0.000761027224422,0.0,0.0,0.0
23075000000,2292,23075000000,,0.00410692785318,0.00959031219944,-0.0171750018431,0.0,0.0,0.0
23085000000,2293,23085000000,,-0.00754256406819,0.0190118235857,0.00802539419292,0.0,0.0,0.0
23096000000,2294,23096000000,,-0.0320375753021,0.0435235582265,-0.0190909223652,0.0,0.0,0.0
23106000000,2295,23106000000,,-0.0380479201851,-0.0105987450282,-0.000685434463835,0.0,0.0,0.0
23116000000,2296,23116000000,,0.0013397127355,-0.0191700568814,-0.0120692803678,0.0,0.0,0.0
23126000000,2297,23126000000,,0.0024404438472,0.0196518780381,0.0338753664197,0.0,0.0,0.0
23136000000,2298,23136000000,,0.0304063697049,0.00318768656459,-0.033365249249,0.0,0.0,0.0
23148000000,2299,23148000000,,0.0014460420424,-0.00527433630221,0.00463026063838,0.0,0.0,0.0
23156000000,2300,23156000000,,-0.00166754373118,-0.010539918088,0.0410554356475,0.0,0.0,0.0
23166000000,2301,23166000000,,-0.0217693826366,0.000275123799959,-0.0122959282746,0.0,0.0,0.0
23176000000,2302,23176000000,,0.00907496878033,0.0315916324213,0.00405435907471,0.0,0.0,0.0
23186000000,2303,23186000000,,-0.0255640005565,0.0105629226234,0.0153235102564,0.0,0.0,0.0
23196000000,2304,23196000000,,0.0421795019244,0.00260152709026,0.0292850171944,0.0,0.0,0.0
23206000000,2305,23206000000,,-0.00462619096845,-0.009043511486,0.0145116127416,0.0,0.0,0.0
23215000000,2306,23215000000,,-0.00632267412163,0.0205900118497,-0.0234232819794,0.0,0.0,0.0
23226000000,2307,23226000000,,0.0108061321837,-0.0210576628799,0.0111023685688,0.0,0.0,0.0
23235000000,2308,23235000000,,0.00967601722404,-0.00127050181603,-0.0213611455416,0.0,0.0,0.0
23245000000,2309,23245000000,,-0.0262931515694,-0.0242814175476,-0.0259612735379,0.0,0.0,0.0
23255000000,2310,23255000000,,0.0167883363339,0.0108944890295,-0.00659248668714,0.0,0.0,0.0
23265000000,2311,23265000000,,-0.0254843138649,0.0222466267205,-0.00664565833202,0.0,0.0,0.0
23276000000,2312,23276000000,,-0.019132080379,-0.0114544231285,-0.00280442119149,0.0,0.0,0.0
23285000000,2313,23285000000,,0.0187211733551,-0.0221517388873,-0.0164582905437,0.0,0.0,0.0
23296000000,2314,23296000000,,-0.00632439645612,-0.0143463813454,-0.0077236919462,0.0,0.0,0.0
23306000000,2315,23306000000,,-0.0250930484917,0.00192665215043,-0.0256268590039,0.0,0.0,0.0
23316000000,2316,23316000000,,-0.00561194991893,-0.0024033888587,-0.0096782434071,0.0,0.0,0.0
23325000000,2317,23325000000,,-0.0249630516665,0.0203691364232,-0.0120148463752,0.0,0.0,0.0
23335000000,2318,23335000000,,0.0335672639522,-0.0385935784844,0.00208891308167,0.0,0.0,0.0
23346000000,2319,23346000000,,-0.0327933660744,-0.00173082375157,0.0142091188294,0.0,0.0,0.0
23355000000,2320,23355000000,,0.00100968346328,0.021745517958,-0.00996235014845,0.0,0.0,0.0
23366000000,2321,23366000000,,0.0401919596414,-0.0376123832182,-0.00615095732661,0.0,0.0,0.0
23376000000,2322,23376000000,,-0.0277193066666,0.000823919426557,-0.0142249300058,0.0,0.0,0.0
23386000000,2323,23386000000,,0.0182924021369,0.0276690121567,-0.0257590061747,0.0,0.0,0.0
23395000000,2324,23395000000,,-0.0105703499295,0.0142919204801,-0.0145185677463,0.0,0.0,0.0
23406000000,2325,23406000000,,-0.0328142271553,-0.000150558055381,0.00945150817144,0.0,0.0,0.0
23415000000,2326,23415000000,,0.0262525916069,0.00706294364186,0.00893358369846,0.0,0.0,0.0
23426000000,2327,23426000000,,-0.0300882990547,0.00236994932315,-0.00108404428726,0.0,0.0,0.0
23435000000,2328,23435000000,,-0.00728042531851,0.0016243556478,-0.0511735630273,0.0,0.0,0.0
23446000000,2329,23446000000,,-0.0033365472967,0.0279541966947,0.0100214474004,0.0,0.0,0.0
23455000000,2330,23455000000,,0.0204292319767,-0.022401268236,0.0025888014751,0.0,0.0,0.0
23465000000,2331,23465000000,,-0.022313098239,-0.0152372806992,-0.0215254904024,0.0,0.0,0.0
23475000000,2332,23475000000,,0.00119832025531,-0.00777900594674,-0.0045913465582,0.0,0.0,0.0
23486000000,2333,23486000000,,-0.00568562358821,0.0238086767441,-0.0197628931202,0.0,0.0,0.0
23495000000,2334,23495000000,,-0.013736554397,0.00733134563773,0.0190750517033,0.0,0.0,0.0
23506000000,2335,23506000000,,0.0121579603891,-0.0185945701525,0.0121707203207,0.0,0.0,0.0
23517000000,2336,23517000000,,-0.00582182530485,-0.0246910572803,0.0147889144829,0.0,0.0,0.0
23525000000,2337,23525000000,,-0.00887753243198,-0.045092945228,-0.0108891280375,0.0,0.0,0.0
23535000000,2338,23535000000,,-0.0147734349601,0.0128946148943,0.000883389068833,0.0,0.0,0.0
23546000000,2339,23546000000,,-0.00640960892656,-0.0210826326802,-0.00569522679274,0.0,0.0,0.0
23557000000,2340,23557000000,,-8.07134111847e-05,0.00838418113456,-0.036133391529,0.0,0.0,0.0
23566000000,2341,23566000000,,0.0112387924321,-0.0248110160624,0.0056553454005,0.0,0.0,0.0
23576000000,2342,23576000000,,0.0110277898631,0.00811511876678,0.0238177772464,0.0,0.0,0.0
23587000000,2343,23587000000,,-0.00200438827912,-0.00846372206547,0.0207205683646,0.0,0.0,0.0
23595000000,2344,23595000000,,0.00784148217739,-0.00254316558314,0.0347567377654,0.0,0.0,0.0
23606000000,2345,23606000000,,0.0156970186581,0.0387044009262,-0.035311411892,0.0,0.0,0.0
23615000000,2346,23615000000,,0.0152606882583,-0.0110336744029,-0.0168616847701,0.0,0.0,0.0
23625000000,2347,23625000000,,-0.00492758680499,0.0199639504632,0.00885192413636,0.0,0.0,0.0
23636000000,2348,23636000000,,-0.0380496490632,-0.0105944807287,0.0143971189626,0.0,0.0,0.0
23645000000,2349,23645000000,,-0.02757092319,0.0344422207234,-0.0213941269453,0.0,0.0,0.0
23656000000,2350,23656000000,,-0.0146291067619,0.0235724679331,0.0178321041263,0.0,0.0,0.0
23665000000,2351,23665000000,,0.0155304241542,0.0187598991039,0.0175975572957,0.0,0.0,0.0
23675000000,2352,23675000000,,0.0207406188858,0.0534837456716,0.0145518240022,0.0,0.0,0.0
23686000000,2353,23686000000,,-0.0118744651839,0.0451254231898,0.00403606275189,0.0,0.0,0.0
23696000000,2354,23696000000,,0.0280300044517,0.0215820813245,-0.0136145572832,0.0,0.0,0.0
23706000000,2355,23706000000,,0.00879014844535,-0.0158366486043,-0.0012894049753,0.0,0.0,0.0
23716000000,2356,23716000000,,0.00993345663557,0.0149299759872,0.0117700343049,0.0,0.0,0.0
23726000000,2357,23726000000,,-0.00131427979575,-0.00458252645493,-0.0338575216206,0.0,0.0,0.0
23735000000,2358,23735000000,,-0.0157247427189,0.0344039067908,0.0231039957325,0.0,0.0,0.0
23746000000,2359,23746000000,,0.00235214530354,-0.0015375917412,-0.026313911035,0.0,0.0,0.0
23755000000,2360,23755000000,,0.00812882587471,0.0324911000225,-0.0155265718134,0.0,0.0,0.0
23765000000,2361,23765000000,,-0.00870472483877,-0.0177499525357,0.00387001274353,0.0,0.0,0.0
23776000000,2362,23776000000,,-0.0111130315021,0.000101212625244,0.01319671563,0.0,0.0,0.0
23786000000,2363,23786000000,,0.029432980568,0.00792105192809,0.00102823401575,0.0,0.0,0.0
23796000000,2364,23796000000,,0.0259880121478,-0.024608315421,0.014451032266,0.0,0.0,0.0
23806000000,2365,23806000000,,0.0303164156471,-0.0337185098513,0.00486441820828,0.0,0.0,0.0
23817000000,2366,23817000000,,0.00275666031749,0.0275325538323,0.000860403997083,0.0,0.0,0.0
23826000000,2367,23826000000,,-0.00697366808794,0.0168214952509,0.0198773748361,0.0,0.0,0.0
23836000000,2368,23836000000,,0.0146112879074,0.0389701046319,0.0288537835285,0.0,0.0,0.0
23845000000,2369,23845000000,,0.0297493858195,0.0124215397724,0.029025543506,0.0,0.0,0.0
23857000000,2370,23857000000,,-0.042657957735,-0.0113456982735,0.0141870044733,0.0,0.0,0.0
23865000000,2371,23865000000,,0.0114714099882,0.000447565071656,0.00908624202959,0.0,0.0,0.0
23876000000,2372,23876000000,,0.0124633184766,-0.0297125581338,0.0136488455837,0.0,0.0,0.0
23886000000,2373,23886000000,,0.00552891175387,0.0162383325257,0.00618451679216,0.0,0.0,0.0
23895000000,2374,23895000000,,0.0140551536463,-0.0323261931649,-0.0307880500334,0.0,0.0,0.0
23909000000,2375,23909000000,,-0.00860296539278,-0.0363222547438,0.0372580538555,0.0,0.0,0.0
23915000000,2376,23915000000,,0.00793773504875,-0.00038194719778,0.0235638065642,0.0,0.0,0.0
23926000000,2377,23926000000,,0.0186164542743,0.00713221099797,-0.0108544690974,0.0,0.0,0.0
23936000000,2378,23936000000,,-0.0180017412432,0.0147055917213,-0.0137028353422,0.0,0.0,0.0
23946000000,2379,23946000000,,-0.0396123386603,0.0145330499388,-0.016889134562,0.0,0.0,0.0
23955000000,2380,23955000000,,0.0129229701768,0.0254639821303,-0.00830939573137,0.0,0.0,0.0
23965000000,2381,23965000000,,0.0351774876984,0.0127531873942,-0.0285447851149,0.0,0.0,0.0
23976000000,2382,23976000000,,-0.00809950284483,-0.0119674873592,-0.0472683786264,0.0,0.0,0.0
23986000000,2383,23986000000,,-0.00203096836599,-0.0196563857002,-0.00339580901113,0.0,0.0,0.0
23995000000,2384,23995000000,,-0.00544804649178,-0.0219753667061,-0.0238018406615,0.0,0.0,0.0
24005000000,2385,24005000000,,0.00728243571278,0.00483676867731,-0.0179996743854,0.0,0.0,0.0
24016000000,2386,24016000000,,0.0186356288211,0.00447599738977,-0.0129517081988,0.0,0.0,0.0
24025000000,2387,24025000000,,-0.00355905969789,-0.0129016744138,0.00705525199085,0.0,0.0,0.0
24035000000,2388,24035000000,,-0.0175562810179,-0.0136154447464,-0.00202571918953,0.0,0.0,0.0
24046000000,2389,24046000000,,-0.0150009155921,0.000621604300297,0.0194682067618,0.0,0.0,0.0
24055000000,2390,24055000000,,0.0199853513543,-0.0104532364235,-0.0161538155643,0.0,0.0,0.0
24065000000,2391,24065000000,,-0.00401343586089,0.0367423008886,0.00567216814556,0.0,0.0,0.0
24076000000,2392,24076000000,,0.0194473457167,-0.00277231005491,0.00784385219061,0.0,0.0,0.0
24086000000,2393,24086000000,,-0.0106508990444,0.0257226919989,0.00309768648494,0.0,0.0,0.0
24095000000,2394,24095000000,,0.00158052314391,-0.00147572288641,-0.0256177229346,0.0,0.0,0.0
24107000000,2395,24107000000,,0.0259687579336,0.00160449374119,0.0049865615511,0.0,0.0,0.0
24117000000,2396,24117000000,,0.0181201626424,0.0188204598478,0.0296041115302,0.0,0.0,0.0
24125000000,2397,24125000000,,0.0324394190732,0.00146381165476,0.013079255023,0.0,0.0,0.0
24136000000,2398,24136000000,,0.00384080068286,-0.00406107145319,0.0488823830526,0.0,0.0,0.0
24145000000,2399,24145000000,,0.009709883023,0.0168956208277,-0.0183171500515,0.0,0.0,0.0
24156000000,2400,24156000000,,0.0691372010057,-0.0194881816319,0.00280417307151,0.0,0.0,0.0
24165000000,2401,24165000000,,7.98506739361e-05,-0.0156857733285,0.0309927771226,0.0,0.0,0.0
24176000000,2402,24176000000,,-0.0121357975812,0.0266258352567,-0.00033583768238,0.0,0.0,0.0
24189000000,2403,24189000000,,-0.0134944935912,-0.00391151398958,-0.00588151046412,0.0,0.0,0.0
24196000000,2404,24196000000,,0.000158232371313,-0.000558979267596,-0.0055796094654,0.0,0.0,0.0
24206000000,2405,24206000000,,-0.0325122097409,-0.00312146807357,-0.0181902145009,0.0,0.0,0.0
24215000000,2406,24215000000,,-0.00229259884764,0.0256659002619,-0.0158400528546,0.0,0.0,0.0
24227000000,2407,24227000000,,-0.0166825203116,0.00713102744986,0.0195728387449,0.0,0.0,0.0
24236000000,2408,24236000000,,-0.00682935367729,0.0207384995088,-0.00704078681844,0.0,0.0,0.0
24246000000,2409,24246000000,,0.00926973300746,0.0226089307986,-0.0215422855029,0.0,0.0,0.0
24257000000,2410,24257000000,,0.0120602355394,0.0130460227001,-0.00853387252114,0.0,0.0,0.0
24265000000,2411,24265000000,,-0.0271659361438,-0.0204601323743,0.00528262991314,0.0,0.0,0.0
24275000000,2412,24275000000,,0.0285604470853,-0.00447460883523,0.014067849894,0.0,0.0,0.0
24285000000,2413,24285000000,,-0.0169277735428,-0.0541451705459,0.0178963807558,0.0,0.0,0.0
24296000000,2414,24296000000,,0.0209302705156,-0.0295038424884,0.0039929302611,0.0,0.0,0.0
24306000000,2415,24306000000,,-0.0160404618547,0.00938627537742,0.00738852184355,0.0,0.0,0.0
24316000000,2416,24316000000,,-0.00511825493249,-0.0261218667449,0.0099902490337,0.0,0.0,0.0
24325000000,2417,24325000000,,0.00872109312937,0.0259381265215,0.0189299893003,0.0,0.0,0.0
24337000000,2418,24337000000,,-0.0153337665635,-0.0392102322986,-0.0149521272182,0.0,0.0,0.0
24346000000,2419,24346000000,,-0.0017178835385,-0.0193305720277,0.0174538821917,0.0,0.0,0.0
24356000000,2420,24356000000,,-0.0265181866375,-0.0296169248262,-0.0155593764265,0.0,0.0,0.0
24366000000,2421,24366000000,,0.00268461580178,-0.028006341549,0.0245182397168,0.0,0.0,0.0
24376000000,2422,24376000000,,0.0216855559583,0.0166444561407,0.028323986813,0.0,0.0,0.0
24386000000,2423,24386000000,,0.0311091249539,0.00506467170075,-0.00613531474289,0.0,0.0,0.0
24395000000,2424,24395000000,,0.000598811221508,0.0228397096016,0.0276327735769,0.0,0.0,0.0
24406000000,2425,24406000000,,-0.00809178450418,0.00558401930891,0.0290281577832,0.0,0.0,0.0
24416000000,2426,24416000000,,0.0135579779376,-0.00327797275412,-0.0280348920654,0.0,0.0,0.0
24425000000,2427,24425000000,,0.00550641726575,-0.00786784000888,0.00973546926781,0.0,0.0,0.0
24436000000,2428,24436000000,,0.00765036881334,0.0056882765293,0.00627818414233,0.0,0.0,0.0
24446000000,2429,24446000000,,-0.0117420103346,0.0408754954191,0.00587642604463,0.0,0.0,0.0
24455000000,2430,24455000000,,-0.00231336636773,-0.00455104241022,0.00532718732163,0.0,0.0,0.0
24466000000,2431,24466000000,,0.00427771654822,0.00380134806743,0.0359379276961,0.0,0.0,0.0
24475000000,2432,24475000000,,-0.0259974870948,0.0303003011204,0.0087552901685,0.0,0.0,0.0
24486000000,2433,24486000000,,0.00434165519426,0.00321585420143,-0.00396349023521,0.0,0.0,0.0
24496000000,2434,24496000000,,0.0120597709184,-0.0205343615425,-0.00954137382178,0.0,0.0,0.0
24505000000,2435,24505000000,,-0.0189582227904,-0.00446846925695,-0.0293675034191,0.0,0.0,0.0
24516000000,2436,24516000000,,-0.0104718931027,-0.0135056438141,-0.00465111624531,0.0,0.0,0.0
24525000000,2437,24525000000,,0.000637665100429,0.005490770953,0.0101598187918,0.0,0.0,0.0
24540000000,2438,24540000000,,0.0201912863103,0.00274043453946,-0.00839446045286,0.0,0.0,0.0
24546000000,2439,24546000000,,-0.00340235278694,0.0261887411473,-0.000173603432761,0.0,0.0,0.0
24555000000,2440,24555000000,,-0.0248347028868,0.0289098060903,-0.0129474537814,0.0,0.0,0.0
24565000000,2441,24565000000,,-0.00281865621312,0.021345393149,0.0188655022481,0.0,0.0,0.0
24576000000,2442,24576000000,,7.28936987181e-05,0.0216671566986,0.000320159688069,0.0,0.0,0.0
24586000000,2443,24586000000,,-0.00408122574387,0.00645533096316,0.0153773142,0.0,0.0,0.0
24595000000,2444,24595000000,,-0.000282576174409,-0.0166824975601,-0.0465113662942,0.0,0.0,0.0
24605000000,2445,24605000000,,-0.012125342487,-0.00846052184686,0.000449686669191,0.0,0.0,0.0
24615000000,2446,24615000000,,0.0153427558647,0.00689462179444,0.0304776924261,0.0,0.0,0.0
24625000000,2447,24625000000,,0.0127280320774,-0.0121666036688,-0.0471749765054,0.0,0.0,0.0
24635000000,2448,24635000000,,-0.0386565787785,0.011126694812,-0.0171735117041,0.0,0.0,0.0
24646000000,2449,24646000000,,-0.00607938082766,0.0238607887977,0.00700982797626,0.0,0.0,0.0
24655000000,2450,24655000000,,0.0171691449072,-0.00470807419012,-0.028155925988,0.0,0.0,0.0
24665000000,2451,24665000000,,0.00271077614736,-0.00790728331664,0.0252427922285,0.0,0.0,0.0
24675000000,2452,24675000000,,0.00933762486995,-0.017095895208,-0.010687422893,0.0,0.0,0.0
24685000000,2453,24685000000,,0.00798734036103,-0.00921554144265,0.00918716973397,0.0,0.0,0.0
24696000000,2454,24696000000,,0.0014550503156,0.0179843381903,0.0282784933304,0.0,0.0,0.0
24705000000,2455,24705000000,,0.0148786840159,0.0168453999963,0.0395820870422,0.0,0.0,0.0
24715000000,2456,24715000000,,0.0243748389762,-0.0161123875918,-0.000711365004724,0.0,0.0,0.0
24725000000,2457,24725000000,,-0.0102634985399,-0.00907743352976,0.0174713231837,0.0,0.0,0.0
24735000000,2458,24735000000,,0.00313705783477,0.028133872584,0.0021742974864,0.0,0.0,0.0
24746000000,2459,24746000000,,0.00214661891421,-0.00778154392259,0.0390178330133,0.0,0.0,0.0
24755000000,2460,24755000000,,0.0228566774018,0.0029894721233,0.0157847095142,0.0,0.0,0.0
24765000000,2461,24765000000,,-0.0271353634317,0.00539700598052,0.0011343740164,0.0,0.0,0.0
24776000000,2462,24776000000,,-0.0257317538508,-0.00410836986528,-0.0192511085555,0.0,0.0,0.0
24785000000,2463,24785000000,,0.0238262121527,0.0209279871891,0.00488084238339,0.0,0.0,0.0
24796000000,2464,24796000000,,-0.0201254398572,0.00951887914612,-0.017866465694,0.0,0.0,0.0
24805000000,2465,24805000000,,0.010798694715,-9.21095731381e-05,-0.0149951772336,0.0,0.0,0.0
24815000000,2466,24815000000,,0.0185129138663,-0.00792021307865,0.0129305784832,0.0,0.0,0.0
24825000000,2467,24825000000,,-0.0175044108493,0.00630398474235,-0.0294691914439,0.0,0.0,0.0
24836000000,2468,24836000000,,-0.0243176682618,-0.0138381493794,-0.00729598395303,0.0,0.0,0.0
24845000000,2469,24845000000,,-0.00683344774013,0.0167069053742,0.00895157825469,0.0,0.0,0.0
24855000000,2470,24855000000,,-0.0134352516582,0.0246386133734,-0.0107826570196,0.0,0.0,0.0
24866000000,2471,24866000000,,0.0282696557082,-0.000276597912316,-0.0426705119369,0.0,0.0,0.0
24875000000,2472,24875000000,,-0.013433121862,-0.00872541154011,0.015743989309,0.0,0.0,0.0
24885000000,2473,24885000000,,-0.00131566707656,0.0326385190782,0.00500595407272,0.0,0.0,0.0
24895000000,2474,24895000000,,-0.00582632840775,0.0132211344028,-0.0129335602071,0.0,0.0,0.0
24905000000,2475,24905000000,,-0.0143081292013,0.0255735849241,-0.00370357859006,0.0,0.0,0.0
24915000000,2476,24915000000,,0.0368131224712,0.00521921178406,-0.020535279121,0.0,0.0,0.0
24925000000,2477,24925000000,,-0.0309905407188,-0.0107151005181,0.0340880593598,0.0,0.0,0.0
24935000000,2478,24935000000,,0.012606480544,-0.0175252084155,0.00553817129381,0.0,0.0,0.0
24946000000,2479,24946000000,,-0.044332422095,-0.00861008559519,-0.0262576120958,0.0,0.0,0.0
24955000000,2480,24955000000,,0.0165262352323,0.0218435532052,-0.0104559423207,0.0,0.0,0.0
24966000000,2481,24966000000,,-0.0118826221966,0.0167689370808,-0.0205171533921,0.0,0.0,0.0
24975000000,2482,24975000000,,0.00251516849811,-0.0381795213136,-0.0243073888982,0.0,0.0,0.0
24986000000,2483,24986000000,,-0.00697839941,-0.0285735970961,-0.0220364115765,0.0,0.0,0.0
24995000000,2484,24995000000,,-0.0100704506368,-0.0201722066847,-0.0389894198061,0.0,0.0,0.0
25005000000,2485,25005000000,,-0.0102618277521,0.0138599995542,0.0213055730022,0.0,0.0,0.0
25016000000,2486,25016000000,,-0.0115006648473,0.0253521055591,0.00980041100568,0.0,0.0,0.0
25025000000,2487,25025000000,,-0.00815196824634,-0.0172958601282,-0.0016510172414,0.0,0.0,0.0
25035000000,2488,25035000000,,0.0382100041362,-0.00450984223522,0.00272636423036,0.0,0.0,0.0
25045000000,2489,25045000000,,0.00836468951378,0.0129956944505,0.0203321566244,0.0,0.0,0.0
25055000000,2490,25055000000,,0.0136940935911,0.0154446306131,-0.0204040581286,0.0,0.0,0.0
25065000000,2491,25065000000,,-0.0241820671853,0.000117881523846,0.0136672712827,0.0,0.0,0.0
25075000000,2492,25075000000,,0.00761821180145,-0.00572263287209,-0.0189997185576,0.0,0.0,0.0
25085000000,2493,25085000000,,0.00511325613734,-0.0100481403278,-0.0100265189359,0.0,0.0,0.0
25095000000,2494,25095000000,,-0.0279515534795,0.0195275524784,0.0473258729024,0.0,0.0,0.0
25106000000,2495,25106000000,,0.0252298622741,0.0278926141036,0.0533406658617,0.0,0.0,0.0
25115000000,2496,25115000000,,0.00117610949973,-0.0235797045182,-0.0161180677701,0.0,0.0,0.0
25125000000,2497,25125000000,,0.030717925776,0.0108935323245,-0.0265398012612,0.0,0.0,0.0
25135000000,2498,25135000000,,-0.0342292616196,0.0103600902255,0.0173122928037,0.0,0.0,0.0
25146000000,2499,25146000000,,0.00884537334059,0.0223019260036,0.00381861575127,0.0,0.0,0.0
25155000000,2500,25155000000,,-0.0329907014548,0.0285626127305,0.0109433247165,0.0,0.0,0.0
25165000000,2501,25165000000,,-0.00735763694848,0.0242633049476,0.0234797355126,0.0,0.0,0.0
25175000000,2502,25175000000,,0.0506699056188,0.0106053850612,-0.00542381918347,0.0,0.0,0.0
25185000000,2503,25185000000,,0.010225124995,0.0353280104513,0.00710467725395,0.0,0.0,0.0
25198000000,2504,25198000000,,-0.0328532986958,0.00134309269365,0.00890373418241,0.0,0.0,0.0
25205000000,2505,25205000000,,0.0116403673115,0.00798109830256,-0.00644214206241,0.0,0.0,0.0
25216000000,2506,25216000000,,-0.00723995020548,0.0224361701567,0.0346314261661,0.0,0.0,0.0
25226000000,2507,25226000000,,-0.018337576971,-0.0196970082242,-0.00474910215341,0.0,0.0,0.0
25235000000,2508,25235000000,,0.0297048452764,-0.0218026903146,0.00598541525998,0.0,0.0,0.0
25246000000,2509,25246000000,,0.000548261113713,0.0172204155997,-0.0044669221514,0.0,0.0,0.0
25255000000,2510,25255000000,,-0.00796077415583,-0.00837900439016,-0.0161433927816,0.0,0.0,0.0
25265000000,2511,25265000000,,-0.0178565450549,0.01643974319,0.0279738579921,0.0,0.0,0.0
25278000000,2512,25278000000,,-0.00984725096689,-0.0090395950008,-0.0373521128091,0.0,0.0,0.0
25285000000,2513,25285000000,,-0.00463881277255,-0.0122350551967,0.0255411567445,0.0,0.0,0.0
25295000000,2514,25295000000,,0.0134333071852,0.0167077011235,-0.0140849705516,0.0,0.0,0.0
25307000000,2515,25307000000,,-0.0154511098418,0.00845879569754,-0.00140660875989,0.0,0.0,0.0
25317000000,2516,25317000000,,0.0369759467607,-0.0223001389633,0.00337406897385,0.0,0.0,0.0
25326000000,2517,25326000000,,-0.0118198185789,-0.0225915220604,0.0203705876711,0.0,0.0,0.0
25335000000,2518,25335000000,,0.00604029945406,-0.0538978009931,0.0119599069134,0.0,0.0,0.0
25345000000,2519,25345000000,,-0.00816796917892,-0.0135039377764,0.0241525394942,0.0,0.0,0.0
25355000000,2520,25355000000,,0.000868115062811,0.00513936231122,-0.0012345431044,0.0,0.0,0.0
25366000000,2521,25366000000,,-0.0189448619343,-0.007746243692,0.0070145834886,0.0,0.0,0.0
25375000000,2522,25375000000,,0.00424193806247,-0.00413112075204,0.00334709570584,0.0,0.0,0.0
25385000000,2523,25385000000,,0.00675913075147,0.0163748606477,0.00558066595707,0.0,0.0,0.0
25395000000,2524,25395000000,,0.0192352005533,-0.0169750378218,0.00445371025504,0.0,0.0,0.0
25405000000,2525,25405000000,,-0.00544861290732,-0.0132004537292,0.0179587992832,0.0,0.0,0.0
25415000000,2526,25415000000,,0.0264231906501,0.018000134757,0.0304950130409,0.0,0.0,0.0
25425000000,2527,25425000000,,0.0320718367146,0.0125761174305,-0.0204466756805,0.0,0.0,0.0
25435000000,2528,25435000000,,-0.0248087520656,-0.00759544931568,0.0100986964587,0.0,0.0,0.0
25445000000,2529,25445000000,,-0.0290127775309,-0.0377407987003,0.0318464872123,0.0,0.0,0.0
25456000000,2530,25456000000,,-0.00546645446558,0.0291354834079,0.0196727912308,0.0,0.0,0.0
25465000000,2531,25465000000,,-0.000381298315395,-0.00789213693387,-0.00640951508969,0.0,0.0,0.0
25475000000,2532,25475000000,,-0.00546376224571,0.0094496264962,0.0194861622316,0.0,0.0,0.0
25486000000,2533,25486000000,,-0.00615979734962,0.000667261920971,0.000258272193908,0.0,0.0,0.0
25495000000,2534,25495000000,,0.00182172630884,-0.00235953434089,0.0130644037067,0.0,0.0,0.0
25505000000,2535,25505000000,,0.0226363135914,0.00447658813173,-0.0222473758949,0.0,0.0,0.0
25515000000,2536,25515000000,,-0.00929408173207,0.0279337830395,0.00163378316246,0.0,0.0,0.0
25527000000,2537,25527000000,,0.0194221535336,-0.00845323946773,-0.00200429410663,0.0,0.0,0.0
25538000000,2538,25538000000,,0.00205348953005,0.0204934791176,-0.0111007568272,0.0,0.0,0.0
25547000000,2539,25547000000,,0.0444026668139,0.0293221113466,0.0305606899658,0.0,0.0,0.0
25557000000,2540,25557000000,,0.0197027927045,-0.00983779483994,-0.0404545090035,0.0,0.0,0.0
25568000000,2541,25568000000,,0.00458794982022,0.00374478124247,-0.0410729952409,0.0,0.0,0.0
25576000000,2542,25576000000,,-0.0210920760196,-0.0184728923018,0.00784346847724,0.0,0.0,0.0
25586000000,2543,25586000000,,-0.0342866863412,-0.0211883971649,0.0147737087022,0.0,0.0,0.0
25595000000,2544,25595000000,,-0.0140644579742,0.0333464914945,-0.0324566868462,0.0,0.0,0.0
25606000000,2545,25606000000,,-0.000366314087321,0.0494976088147,-0.0183223971401,0.0,0.0,0.0
25616000000,2546,25616000000,,-0.0260262874057,-0.0102690651382,-0.0138501225084,0.0,0.0,0.0
25631000000,2547,25631000000,,-0.0188829742479,-0.0156417512409,-0.0126971687071,0.0,0.0,0.0
25635000000,2548,25635000000,,-0.00469834466483,-0.0376050873268,-0.037434282932,0.0,0.0,0.0
25646000000,2549,25646000000,,-0.00286776745847,-0.0215732648842,-0.0482825776516,0.0,0.0,0.0
25656000000,2550,25656000000,,0.0110714542812,-0.003168545073,-0.0235589277913,0.0,0.0,0.0
25667000000,2551,25667000000,,-0.00556333112032,-0.0110665518266,-0.0285207677249,0.0,0.0,0.0
25676000000,2552,25676000000,,-0.01736819992,-0.00454607780173,-0.0395218724386,0.0,0.0,0.0
25688000000,2553,25688000000,,0.0209962802507,-0.00907729392726,-0.0223046780757,0.0,0.0,0.0
25695000000,2554,25695000000,,0.00916841721239,-0.0469041477238,-0.0314160919567,0.0,0.0,0.0
25708000000,2555,25708000000,,0.0166868885176,-0.0166926411286,-0.0301921900688,0.0,0.0,0.0
25718000000,2556,25718000000,,0.025704673887,-0.0297204162086,-0.0200125624535,0.0,0.0,0.0
25725000000,2557,25725000000,,0.0219371461999,-0.0164614547325,-0.0357599855604,0.0,0.0,0.0
25735000000,2558,25735000000,,-0.0028257681638,0.00874538366799,-0.027703026925,0.0,0.0,0.0
25748000000,2559,25748000000,,-0.0114744197646,0.00636326074492,1.92587869209e-05,0.0,0.0,0.0
25756000000,2560,25756000000,,-0.0014517921874,0.0131045813495,-0.0134831650602,0.0,0.0,0.0
25765000000,2561,25765000000,,0.0311031450787,0.0315098925602,-0.00945531429638,0.0,0.0,0.0
25775000000,2562,25775000000,,-0.0252112761524,-0.00117585373157,0.00340994898757,0.0,0.0,0.0
25786000000,2563,25786000000,,0.00440105022234,-0.0210382942564,0.00405178789499,0.0,0.0,0.0
25795000000,2564,25795000000,,-0.0105701512038,-0.012145308504,0.0253735173287,0.0,0.0,0.0
25806000000,2565,25806000000,,-0.00731908535656,-0.00128076556313,-0.0188510683848,0.0,0.0,0.0
25818000000,2566,25818000000,,0.0621363272011,0.0122410571954,-0.0435205348965,0.0,0.0,0.0
25827000000,2567,25827000000,,0.0288774204167,-0.0057826009142,0.0240692024864,0.0,0.0,0.0
25837000000,2568,25837000000,,-0.0373046827284,-0.0168019882847,-0.0153325801454,0.0,0.0,0.0
25845000000,2569,25845000000,,0.0185274225754,0.00721588183496,-0.0216301430104,0.0,0.0,0.0
25856000000,2570,25856000000,,-0.00138655024492,0.000526120034677,-0.0521102960906,0.0,0.0,0.0
25868000000,2571,25868000000,,0.0113112673817,-0.00831053253401,-0.0205722021819,0.0,0.0,0.0
25876000000,2572,25876000000,,-0.00995081564412,-0.011237133397,-0.00129504541327,0.0,0.0,0.0
25886000000,2573,25886000000,,-0.00958315504627,-0.0103604110407,-0.0454437885948,0.0,0.0,0.0
25897000000,2574,25897000000,,-0.0319759611761,-0.00755307966559,-0.020660997146,0.0,0.0,0.0
25905000000,2575,25905000000,,0.0130242299577,0.0393338718956,-0.038702351516,0.0,0.0,0.0
25915000000,2576,25915000000,,-0.0177716885206,-0.00821334539657,-0.0313306405123,0.0,0.0,0.0
25926000000,2577,25926000000,,-0.0126600864453,-0.00674554403208,-0.0157320081912,0.0,0.0,0.0
25936000000,2578,25936000000,,-0.0119256845802,-0.00791276258868,-0.00894086087604,0.0,0.0,0.0
25945000000,2579,25945000000,,-0.00296214690402,-0.00580183505037,-0.0279895541611,0.0,0.0,0.0
25956000000,2580,25956000000,,-0.00486724330115,0.0171532738711,-0.0340760640002,0.0,0.0,0.0
25965000000,2581,25965000000,,-0.0256313078756,0.0145837378078,-0.0315358325274,0.0,0.0,0.0
25974000000,2582,25974000000,,-0.0240511637288,0.0147363677707,0.0125215475407,0.0,0.0,0.0
25985000000,2583,25985000000,,0.00124234601293,0.0171072416187,0.00734250970177,0.0,0.0,0.0
25995000000,2584,25995000000,,-0.0403487894597,0.00237059416625,0.00308051938578,0.0,0.0,0.0
26006000000,2585,26006000000,,-0.0175009313284,-0.00738403095714,-0.00572884221617,0.0,0.0,0.0
26015000000,2586,26015000000,,0.0143247901433,-0.0216903270176,0.0101427784029,0.0,0.0,0.0
26026000000,2587,26026000000,,0.00930332793153,0.0118573496816,0.0170940651928,0.0,0.0,0.0
26035000000,2588,26035000000,,0.00472803230312,-0.0114759939805,0.00547082887433,0.0,0.0,0.0
26045000000,2589,26045000000,,0.0190322700526,0.0105752785483,-0.0109476217003,0.0,0.0,0.0
26055000000,2590,26055000000,,-0.0254133919385,-0.00154180475719,0.0118743933238,0.0,0.0,0.0
26066000000,2591,26066000000,,0.00574829692821,0.00698218839461,0.000956855376456,0.0,0.0,0.0
26075000000,2592,26075000000,,-0.00491967875684,-0.0172823781845,0.0138231457863,0.0,0.0,0.0
26086000000,2593,26086000000,,-0.0222540759375,0.0036259255109,0.0315818602019,0.0,0.0,0.0
26096000000,2594,26096000000,,0.00966383636098,-0.0096202656064,0.0155861566525,0.0,0.0,0.0
26105000000,2595,26105000000,,-0.0101710410162,0.00890393102482,0.00268042439631,0.0,0.0,0.0
26116000000,2596,26116000000,,-0.0137457955983,0.0225814807856,-0.000593120598318,0.0,0.0,0.0
26126000000,2597,26126000000,,0.0190529342773,0.0134363722941,-0.002154456743,0.0,0.0,0.0
26135000000,2598,26135000000,,0.0207581156489,-0.0244271472538,-0.0107035238008,0.0,0.0,0.0
26147000000,2599,26147000000,,0.00803479871412,-0.0323012649377,-0.0218077132624,0.0,0.0,0.0
26156000000,2600,26156000000,,-0.0166581277397,0.00135461476293,0.0116746223128,0.0,0.0,0.0
26165000000,2601,26165000000,,0.0291894485694,0.0066233968919,0.00360264723641,0.0,0.0,0.0
26175000000,2602,26175000000,,0.0267176104812,-0.00190124820136,0.00927192361427,0.0,0.0,0.0
26187000000,2603,26187000000,,-0.00679995436084,0.00110997840215,0.0365212172356,0.0,0.0,0.0
26196000000,2604,26196000000,,0.0180810291981,-0.0130167538519,0.0426054404828,0.0,0.0,0.0
26205000000,2605,26205000000,,0.0349136411114,-0.000821157566094,0.013464538104,0.0,0.0,0.0
26216000000,2606,26216000000,,0.0208171651807,-0.00676503023024,0.0221026907166,0.0,0.0,0.0
26225000000,2607,26225000000,,0.0119316959978,0.00424713923659,0.00840303844702,0.0,0.0,0.0
26235000000,2608,26235000000,,0.00680189404567,0.0156225020176,0.0276707903841,0.0,0.0,0.0
26246000000,2609,26246000000,,0.0149326061103,-0.011958808595,0.0189781308536,0.0,0.0,0.0
26257000000,2610,26257000000,,-0.0137594244994,-0.014852110444,0.0210338427762,0.0,0.0,0.0
26266000000,2611,26266000000,,0.0218154831838,-0.0113800410627,0.0233164271427,0.0,0.0,0.0
26276000000,2612,26276000000,,0.0114493298937,0.00124078229859,0.0323190103948,0.0,0.0,0.0
26285000000,2613,26285000000,,0.0071877896837,-0.0149988819299,0.0247139847799,0.0,0.0,0.0
26295000000,2614,26295000000,,0.0217574361703,0.00780264997084,0.0338897026097,0.0,0.0,0.0
26305000000,2615,26305000000,,-0.00859332486495,0.00743380800012,0.0117398734614,0.0,0.0,0.0
26315000000,2616,26315000000,,-0.0287569184467,0.0539853650482,-0.00510952582355,0.0,0.0,0.0
26325000000,2617,26325000000,,-0.00990096725667,0.0049830864375,0.0150987939803,0.0,0.0,0.0
26335000000,2618,26335000000,,-0.0238592608111,0.025532039293,0.0443257295631,0.0,0.0,0.0
26346000000,2619,26346000000,,0.0151154563267,0.0182217513399,-0.00843292485208,0.0,0.0,0.0
26355000000,2620,26355000000,,0.0185739616377,0.0424456618931,0.00968579783346,0.0,0.0,0.0
26366000000,2621,26366000000,,0.029385276915,-0.0044440839514,0.0268864414383,0.0,0.0,0.0
26375000000,2622,26375000000,,-0.0269559596841,0.00891161497443,0.0603737541671,0.0,0.0,0.0
26385000000,2623,26385000000,,0.0224986473071,0.0190344218464,0.0294868315434,0.0,0.0,0.0
26396000000,2624,26396000000,,-0.0110914465288,0.0375726695997,-0.00781659952753,0.0,0.0,0.0
26405000000,2625,26405000000,,0.00318815154246,0.0306774089001,-0.0165772657163,0.0,0.0,0.0
26415000000,2626,26415000000,,0.0169190610246,-0.00987982801521,0.00166897515515,0.0,0.0,0.0
26426000000,2627,26426000000,,0.033789481364,-0.0340356084239,-0.0364017559686,0.0,0.0,0.0
26436000000,2628,26436000000,,-0.0585566852934,-0.0292945713055,0.025827407672,0.0,0.0,0.0
26445000000,2629,26445000000,,0.00754658167622,-0.0327806498603,0.0502063704441,0.0,0.0,0.0
26456000000,2630,26456000000,,-0.0189073266933,0.00674645100249,0.026325388653,0.0,0.0,0.0
26465000000,2631,26465000000,,0.0172349620493,-0.0213694547198,0.019880308057,0.0,0.0,0.0
26476000000,2632,26476000000,,-0.0298811090877,-0.0186781094055,0.0339114167641,0.0,0.0,0.0
26485000000,2633,26485000000,,0.0208994200641,-0.00564200216287,0.00948936844558,0.0,0.0,0.0
26495000000,2634,26495000000,,-0.0105080295873,0.0176194369993,0.00330797911734,0.0,0.0,0.0
26505000000,2635,26505000000,,-0.013439707305,-0.0420812002517,0.0215037393027,0.0,0.0,0.0
26515000000,2636,26515000000,,-0.0110252154879,-0.0220114137195,0.0108094170458,0.0,0.0,0.0
26525000000,2637,26525000000,,-0.00414381350952,-0.0031773422647,0.0145001382329,0.0,0.0,0.0
26535000000,2638,26535000000,,-0.00424936512382,0.0106104575894,0.0341000369877,0.0,0.0,0.0
26545000000,2639,26545000000,,-0.0179963610797,0.00736019292836,0.0190934686611,0.0,0.0,0.0
26555000000,2640,26555000000,,-0.0186773680703,0.0299469121831,-0.0140192282297,0.0,0.0,0.0
26565000000,2641,26565000000,,-0.0176577485049,0.00850925436365,0.0487665596263,0.0,0.0,0.0
26575000000,2642,26575000000,,-0.0203509369859,0.00907574321367,-0.0101906942688,0.0,0.0,0.0
26585000000,2643,26585000000,,0.0249195099354,0.0285216630723,0.0069976377791,0.0,0.0,0.0
26595000000,2644,26595000000,,-0.010878428723,0.00880100095835,0.0103716424569,0.0,0.0,0.0
26605000000,2645,26605000000,,0.0147953791771,0.0163818347523,0.0241883116971,0.0,0.0,0.0
26615000000,2646,26615000000,,0.0228101794787,0.0440685827476,0.00978545896986,0.0,0.0,0.0
26625000000,2647,26625000000,,-0.00155955052561,-0.00118190416194,0.0138536077179,0.0,0.0,0.0
26635000000,2648,26635000000,,-0.0143631548311,0.00178723929974,-0.0215685128217,0.0,0.0,0.0
26645000000,2649,26645000000,,-0.0175977519177,-0.001065108699,0.00466281514473,0.0,0.0,0.0
26655000000,2650,26655000000,,-0.00196139676112,-0.010937673265,0.0157476722191,0.0,0.0,0.0
26665000000,2651,26665000000,,-0.00113418979331,-0.00357798718659,-0.0166706165025,0.0,0.0,0.0
26675000000,2652,26675000000,,-0.039695111639,0.0093706673625,0.0339923066166,0.0,0.0,0.0
26685000000,2653,26685000000,,-0.0115070105899,0.0152029677025,0.0395730594932,0.0,0.0,0.0
26695000000,2654,26695000000,,-0.0212283653044,-0.0160472249968,-0.0112094310034,0.0,0.0,0.0
26705000000,2655,26705000000,,0.00363994615563,-0.00172392492708,0.0212900460729,0.0,0.0,0.0
26715000000,2656,26715000000,,-0.0319710922475,0.0301999252101,0.0069889962751,0.0,0.0,0.0
26725000000,2657,26725000000,,-0.00110240998944,-0.0105307887226,0.011259663,0.0,0.0,0.0
26736000000,2658,26736000000,,0.0309284024642,-0.00868174628578,0.00617314573622,0.0,0.0,0.0
26745000000,2659,26745000000,,0.00674563478007,0.0168401073521,-0.00678003585079,0.0,0.0,0.0
26755000000,2660,26755000000,,0.0048085838139,-0.00982940082686,-0.00175694830206,0.0,0.0,0.0
26765000000,2661,26765000000,,-0.0103589155356,-0.00258006134211,0.0199718395753,0.0,0.0,0.0
26776000000,2662,26776000000,,-0.00458638291352,-0.0199906672123,0.030493728823,0.0,0.0,0.0
26785000000,2663,26785000000,,-0.0297331658399,-0.00469578411507,-0.0564830794441,0.0,0.0,0.0
26796000000,2664,26796000000,,-0.00241443277399,-0.0142351894575,0.0423759327584,0.0,0.0,0.0
26805000000,2665,26805000000,,-0.00147395510498,0.0121694505679,0.000879274276088,0.0,0.0,0.0
26815000000,2666,26815000000,,-0.00701611285358,-0.0107569733315,0.0364243539985,0.0,0.0,0.0
26825000000,2667,26825000000,,0.0138362294482,0.0236042746813,-0.00197368561821,0.0,0.0,0.0
26835000000,2668,26835000000,,0.0228008035963,-0.0179371203294,0.00260684664773,0.0,0.0,0.0
26846000000,2669,26846000000,,-0.0218910394899,-0.00433689031751,0.0200965173107,0.0,0.0,0.0
26855000000,2670,26855000000,,0.0285315370803,0.030071208783,0.0270332987272,0.0,0.0,0.0
26865000000,2671,26865000000,,-0.0439857770302,0.0122075977767,-0.0032179416109,0.0,0.0,0.0
26875000000,2672,26875000000,,-0.0128361878467,0.0146870134301,0.000215969240615,0.0,0.0,0.0
26885000000,2673,26885000000,,-0.0244855266795,0.00252235501319,-0.00465910782132,0.0,0.0,0.0
26896000000,2674,26896000000,,-0.0193751144765,-0.0299006823053,0.0014957521376,0.0,0.0,0.0
26907000000,2675,26907000000,,-0.00890476688946,0.014446492242,-0.00666982975162,0.0,0.0,0.0
26915000000,2676,26915000000,,0.00308784819832,0.00109217744804,-0.0110654191913,0.0,0.0,0.0
26925000000,2677,26925000000,,0.0399073874889,0.000741555153541,-0.0228106082918,0.0,0.0,0.0
26936000000,2678,26936000000,,-0.00466276584981,-0.00402613798694,0.00198002430646,0.0,0.0,0.0
26945000000,2679,26945000000,,0.00657198070111,-0.00779308249354,0.0107750543766,0.0,0.0,0.0
26956000000,2680,26956000000,,-0.0169537366347,-0.0223933458589,0.0302881403632,0.0,0.0,0.0
26967000000,2681,26967000000,,-0.0189775037562,0.0234841457028,0.031052479389,0.0,0.0,0.0
26980000000,2682,26980000000,,-0.0228163196778,-0.032405878963,0.0236678239538,0.0,0.0,0.0
26985000000,2683,26985000000,,-0.00178910473182,0.00108213725473,-0.0126310036089,0.0,0.0,0.0
26996000000,2684,26996000000,,0.0443879895863,0.0215732258652,-0.0398767187989,0.0,0.0,0.0
27008000000,2685,27008000000,,0.024239297033,0.00458343706922,-0.0261002452359,0.0,0.0,0.0
27015000000,2686,27015000000,,-0.00179712468092,0.00762346545844,0.0065906087878,0.0,0.0,0.0
27028000000,2687,27028000000,,-0.010029761717,-0.0118974793558,-0.0186364491476,0.0,0.0,0.0
27035000000,2688,27035000000,,0.00301108687449,0.000457751463933,0.00300811252421,0.0,0.0,0.0
27045000000,2689,27045000000,,0.00655151284889,-0.0240013563863,0.0127843710077,0.0,0.0,0.0
27055000000,2690,27055000000,,-0.00604806654648,0.0284518038277,0.0275557249966,0.0,0.0,0.0
27066000000,2691,27066000000,,-0.0358122067081,0.017295731261,-0.00176907912054,0.0,0.0,0.0
27076000000,2692,27076000000,,-0.0278501983719,-0.0142458494161,-0.032077716929,0.0,0.0,0.0
27086000000,2693,27086000000,,-0.0231629174698,-0.00370042920132,-0.0113952000636,0.0,0.0,0.0
27095000000,2694,27095000000,,-0.0141139682758,0.025584757823,0.00288158043012,0.0,0.0,0.0
27105000000,2695,27105000000,,-0.017890906963,0.0162364099395,-0.0164698802206,0.0,0.0,0.0
27116000000,2696,27116000000,,-0.0215130911993,-0.0155312771448,-0.0005351070796,0.0,0.0,0.0
27125000000,2697,27125000000,,-0.0138381235613,-0.00154216336809,-0.00907516407573,0.0,0.0,0.0
27135000000,2698,27135000000,,-0.0189769564862,-0.0183009679397,0.0120354569162,0.0,0.0,0.0
27145000000,2699,27145000000,,0.0114164585011,0.0386516605317,0.0185198460628,0.0,0.0,0.0
27155000000,2700,27155000000,,-0.060137901137,-0.0126246429181,0.0148960759074,0.0,0.0,0.0
27166000000,2701,27166000000,,-0.0193580140223,-0.00226194950793,0.017787913419,0.0,0.0,0.0
27175000000,2702,27175000000,,-0.00563075618784,-0.00566771808066,0.0272420846396,0.0,0.0,0.0
27185000000,2703,27185000000,,0.000352283012666,-0.00410641454172,-0.0256675660373,0.0,0.0,0.0
27195000000,2704,27195000000,,-0.0102603623463,0.026678163041,0.00370964303716,0.0,0.0,0.0
27205000000,2705,27205000000,,-0.0219356943128,2.64346323319e-05,0.000910489010183,0.0,0.0,0.0
27215000000,2706,27215000000,,-0.0349209605753,-0.0244792976784,0.00829916155103,0.0,0.0,0.0
27226000000,2707,27226000000,,0.020622126273,0.0100017103985,-0.0162473322627,0.0,0.0,0.0
27235000000,2708,27235000000,,0.0154224154787,-0.0158057293167,-0.0123925820651,0.0,0.0,0.0
27246000000,2709,27246000000,,-0.0125127083723,-0.0350219377106,0.0220880101091,0.0,0.0,0.0
27255000000,2710,27255000000,,-0.00703402788925,0.0135671784234,-0.00254180681276,0.0,0.0,0.0
27265000000,2711,27265000000,,-0.0212095321479,-0.00749085574564,-0.0135363988385,0.0,0.0,0.0
27276000000,2712,27276000000,,0.0296253097238,-0.00316852983533,0.0119463879012,0.0,0.0,0.0
27286000000,2713,27286000000,,0.0240546059011,0.00518191929868,-0.0261923378859,0.0,0.0,0.0
27295000000,2714,27295000000,,-0.0441406185899,-0.0221452673668,-0.0437501459035,0.0,0.0,0.0
27305000000,2715,27305000000,,0.0309420624292,0.0307513847087,-0.0367301381812,0.0,0.0,0.0
27315000000,2716,27315000000,,-0.0250035664952,0.0198925270774,-0.0096788582022,0.0,0.0,0.0
27326000000,2717,27326000000,,0.0259252372978,0.022169435227,-0.0108704774501,0.0,0.0,0.0
27335000000,2718,27335000000,,0.00591395504428,-0.0462410048239,-0.00496389513025,0.0,0.0,0.0
27346000000,2719,27346000000,,0.0219699755794,-0.00582135884145,-0.0533504844137,0.0,0.0,0.0
27356000000,2720,27356000000,,0.00292351484582,-0.00578258848989,0.00198425780457,0.0,0.0,0.0
27365000000,2721,27365000000,,-0.0115836961474,0.0449861436893,0.0348832692554,0.0,0.0,0.0
27376000000,2722,27376000000,,-0.0134664820841,0.00233018380752,0.00399439052592,0.0,0.0,0.0
27386000000,2723,27386000000,,-0.00668275664303,0.0114349413133,0.0340794141549,0.0,0.0,0.0
27396000000,2724,27396000000,,-0.0226277120268,0.00511439858032,-3.67198887304e-05,0.0,0.0,0.0
27405000000,2725,27405000000,,-0.0199738717783,0.0107430818924,-0.0151805796197,0.0,0.0,0.0
27415000000,2726,27415000000,,-0.0159660341631,0.0399562275646,0.0119758549925,0.0,0.0,0.0
27425000000,2727,27425000000,,0.0124700818219,-0.0151864437928,-0.0149230718147,0.0,0.0,0.0
27437000000,2728,27437000000,,0.00824351862766,-0.0155949650413,-0.0165672782776,0.0,0.0,0.0
27446000000,2729,27446000000,,-0.021253135755,-0.0151530537139,-0.0178694349336,0.0,0.0,0.0
27457000000,2730,27457000000,,0.0126014230779,-0.00432732674589,0.0149890039154,0.0,0.0,0.0
27466000000,2731,27466000000,,0.0535721495671,-0.00344586158741,-0.00331913103526,0.0,0.0,0.0
27475000000,2732,27475000000,,-0.0190735325311,0.0297167087639,-0.0260222070713,0.0,0.0,0.0
27485000000,2733,27485000000,,-0.0484302655565,-0.000160499161564,-0.00674660706029,0.0,0.0,0.0
27496000000,2734,27496000000,,0.00204872244116,-0.0355749477179,0.0219306145102,0.0,0.0,0.0
27505000000,2735,27505000000,,-0.0107828532446,0.0308100804429,-0.0131499573025,0.0,0.0,0.0
27516000000,2736,27516000000,,0.00728103350836,0.0148244860847,-0.0274325905354,0.0,0.0,0.0
27525000000,2737,27525000000,,-0.0192651256679,-0.00373591366566,0.0115941083482,0.0,0.0,0.0
27535000000,2738,27535000000,,-0.0384060867901,0.0318239757782,-0.0301538215118,0.0,0.0,0.0
27545000000,2739,27545000000,,0.0220030905941,-0.0178267989503,-0.0183256416108,0.0,0.0,0.0
27555000000,2740,27555000000,,-0.00304259713812,0.0364079972449,-0.0136402834507,0.0,0.0,0.0
27565000000,2741,27565000000,,0.0171732986436,0.00301109873058,-0.0320590392737,0.0,0.0,0.0
27576000000,2742,27576000000,,0.0198996560217,-0.0263299841097,0.000526143990186,0.0,0.0,0.0
27586000000,2743,27586000000,,-0.0248603220615,0.0102821791613,-0.0355594210814,0.0,0.0,0.0
27595000000,2744,27595000000,,-0.00612560750316,0.00659701250337,-0.00472332040391,0.0,0.0,0.0
27605000000,2745,27605000000,,0.00369825517928,0.00362177773767,-0.00568963960196,0.0,0.0,0.0
27615000000,2746,27615000000,,0.0227970036991,-0.00547973878662,0.00016309062287,0.0,0.0,0.0
27626000000,2747,27626000000,,-0.015184230902,0.00143897582607,-0.0210636609664,0.0,0.0,0.0
27636000000,2748,27636000000,,-0.00131617472424,0.00970536903592,-0.0234145344485,0.0,0.0,0.0
27646000000,2749,27646000000,,-0.00207143584286,0.00621856034008,0.0131899951699,0.0,0.0,0.0
27656000000,2750,27656000000,,-0.00137873493153,-0.00936028014099,-0.0434178418074,0.0,0.0,0.0
27665000000,2751,27665000000,,-0.0237894056426,-0.0183178378466,0.0135378287691,0.0,0.0,0.0
27675000000,2752,27675000000,,0.00343294759488,-0.0187689121584,-0.0348872009196,0.0,0.0,0.0
27686000000,2753,27686000000,,0.024953896373,0.0255035012743,-0.0507057555652,0.0,0.0,0.0
27696000000,2754,27696000000,,0.00137467993342,0.0420506089135,-0.00646550529724,0.0,0.0,0.0
27706000000,2755,27706000000,,-0.0152210755337,0.00263391718704,0.0153261215009,0.0,0.0,0.0
27716000000,2756,27716000000,,-0.00833906348663,0.0297378605304,-0.026646506285,0.0,0.0,0.0
27725000000,2757,27725000000,,-0.0126453368638,0.0503061441095,-0.048639979622,0.0,0.0,0.0
27735000000,2758,27735000000,,0.00477074416257,0.00235636782474,-0.0100041190732,0.0,0.0,0.0
27745000000,2759,27745000000,,-0.00607999692103,-0.00285662744557,-0.0193467681819,0.0,0.0,0.0
27755000000,2760,27755000000,,0.0138518401911,0.00116018871409,0.0104829690876,0.0,0.0,0.0
27765000000,2761,27765000000,,0.00549633037086,0.000724286699702,-0.0122241126179,0.0,0.0,0.0
27775000000,2762,27775000000,,-8.37874548267e-05,0.0116314880646,-0.0358647067929,0.0,0.0,0.0
27786000000,2763,27786000000,,0.00469887070301,0.0121250586896,-0.0144085597095,0.0,0.0,0.0
27796000000,2764,27796000000,,-0.000557862882857,0.0189873380418,-0.0233542508121,0.0,0.0,0.0
27805000000,2765,27805000000,,0.000825357518092,-0.00620209888791,0.0240788289878,0.0,0.0,0.0
27815000000,2766,27815000000,,-0.0154700927337,0.0103115254868,0.0078168433551,0.0,0.0,0.0
27825000000,2767,27825000000,,-0.0245825808843,-0.00976319726745,-0.00657708924394,0.0,0.0,0.0
27836000000,2768,27836000000,,0.0390439830267,0.00507946096574,0.00725122485871,0.0,0.0,0.0
27846000000,2769,27846000000,,-0.0247118059136,0.00160531226797,-0.00750530877303,0.0,0.0,0.0
27855000000,2770,27855000000,,-0.0386444275265,0.0117344013243,0.0114669535776,0.0,0.0,0.0
27865000000,2771,27865000000,,-0.0297879560109,0.0135149339883,-0.0274600812225,0.0,0.0,0.0
27876000000,2772,27876000000,,0.0151075820707,0.00626810506916,0.00491076844947,0.0,0.0,0.0
27886000000,2773,27886000000,,0.0231525459924,0.0110097448662,-0.0034793269726,0.0,0.0,0.0
27896000000,2774,27896000000,,-0.00583634101072,-0.0261298889102,0.0190393641647,0.0,0.0,0.0
27905000000,2775,27905000000,,0.0312267059439,-0.0300146330347,-0.00874704830715,0.0,0.0,0.0
27916000000,2776,27916000000,,-0.0401357290051,-0.00789115566745,-0.0241762333691,0.0,0.0,0.0
27926000000,2777,27926000000,,-0.0210540336183,-0.0246162528793,-0.0364838151281,0.0,0.0,0.0
27935000000,2778,27935000000,,-0.0138458848643,0.0292482271507,0.0128873837048,0.0,0.0,0.0
27946000000,2779,27946000000,,-0.0136276338715,-0.0153722717066,-0.00193044537925,0.0,0.0,0.0
27955000000,2780,27955000000,,-0.039687647607,-0.00969781100299,0.00905087169597,0.0,0.0,0.0
27965000000,2781,27965000000,,-0.00926070544124,-0.0042046758103,-0.042198499681,0.0,0.0,0.0
27975000000,2782,27975000000,,-0.00209171709356,-0.0196042107089,-0.00528467214625,0.0,0.0,0.0
27985000000,2783,27985000000,,-0.0137850962989,0.0226534590203,0.00975219967859,0.0,0.0,0.0
27996000000,2784,27996000000,,-0.00500843051669,0.00417659494337,0.024669548332,0.0,0.0,0.0
28006000000,2785,28006000000,,0.00630518677203,-0.0137831531679,0.0146839724007,0.0,0.0,0.0
28015000000,2786,28015000000,,0.0181631594824,-0.0315115379672,0.00359044733841,0.0,0.0,0.0
28026000000,2787,28026000000,,-0.0163500769305,0.022170531465,0.0148451632947,0.0,0.0,0.0
28036000000,2788,28036000000,,-0.00396254516722,-0.0139792353637,-0.000430764674979,0.0,0.0,0.0
28046000000,2789,28046000000,,-0.00690494022045,0.0018618935694,-0.000277099279977,0.0,0.0,0.0
28056000000,2790,28056000000,,0.0456402385404,-0.00755760944284,-0.00829071125843,0.0,0.0,0.0
28065000000,2791,28065000000,,-0.0306549353233,0.0308159671302,-0.0263838135444,0.0,0.0,0.0
28075000000,2792,28075000000,,-0.0160347262805,0.0286398318201,-0.00455027684673,0.0,0.0,0.0
28086000000,2793,28086000000,,0.0109478058865,0.0145068406766,-0.00148256656471,0.0,0.0,0.0
28095000000,2794,28095000000,,0.00299431923766,0.0201821323928,0.0430427461116,0.0,0.0,0.0
28105000000,2795,28105000000,,-0.0243550245469,0.0223444236004,-0.00100260276786,0.0,0.0,0.0
28115000000,2796,28115000000,,0.00782776184324,0.00731521141163,-0.0175710843907,0.0,0.0,0.0
28125000000,2797,28125000000,,-0.0316941866031,0.0274376112515,-0.0176048889852,0.0,0.0,0.0
28135000000,2798,28135000000,,0.0391248974939,-0.0177510169059,0.00280481023803,0.0,0.0,0.0
28145000000,2799,28145000000,,-0.0304081223314,-0.0209364295498,0.00753105665813,0.0,0.0,0.0
28155000000,2800,28155000000,,0.0407229183014,0.00978742316882,0.00601267918489,0.0,0.0,0.0
28165000000,2801,28165000000,,-0.0264691108573,-0.0158799323225,0.0581260423001,0.0,0.0,0.0
28176000000,2802,28176000000,,-0.013385014487,-0.00048716515104,0.0221709092157,0.0,0.0,0.0
28185000000,2803,28185000000,,0.0182582096398,0.0392388290239,0.0443621542484,0.0,0.0,0.0
28195000000,2804,28195000000,,0.00801620559203,-0.0139440299009,0.0116815564463,0.0,0.0,0.0
28205000000,2805,28205000000,,0.00319108469658,0.0100685511421,0.00324144065701,0.0,0.0,0.0
28216000000,2806,28216000000,,-0.0284688188699,0.0159068677634,0.0603867628231,0.0,0.0,0.0
28226000000,2807,28226000000,,0.000286313910875,0.0198697492683,0.0199597242823,0.0,0.0,0.0
28235000000,2808,28235000000,,-0.00863226420168,0.00705757026469,0.00133791962126,0.0,0.0,0.0
28245000000,2809,28245000000,,0.0277185941872,0.00689696200882,-0.00576183782523,0.0,0.0,0.0
28255000000,2810,28255000000,,-0.0392262053473,-0.00545979968472,0.0138415794882,0.0,0.0,0.0
28266000000,2811,28266000000,,0.00970748370463,0.0103359471225,0.00480461144352,0.0,0.0,0.0
28275000000,2812,28275000000,,0.013147916317,-0.00607178105513,0.0026284034817,0.0,0.0,0.0
28285000000,2813,28285000000,,-0.000703723688022,0.00921861410194,0.0363571782794,0.0,0.0,0.0
28295000000,2814,28295000000,,-0.0333341631322,-0.00652319055223,-0.030078322415,0.0,0.0,0.0
28305000000,2815,28305000000,,-0.0291237564807,0.00993028913987,0.0507094079562,0.0,0.0,0.0
28315000000,2816,28315000000,,0.00506908579645,0.0400191120587,0.0256672120749,0.0,0.0,0.0
28325000000,2817,28325000000,,-0.0128821444915,0.0148401364278,0.0150415631783,0.0,0.0,0.0
28337000000,2818,28337000000,,-0.0241168511067,-0.015116077727,-0.00834310892796,0.0,0.0,0.0
28345000000,2819,28345000000,,-0.00544985538783,0.000275998385131,-0.0059421603045,0.0,0.0,0.0
28355000000,2820,28355000000,,0.00195614579839,0.000843315515692,0.00954953150325,0.0,0.0,0.0
28366000000,2821,28366000000,,-0.0267905003698,0.0050676277229,-0.0075605849621,0.0,0.0,0.0
28375000000,2822,28375000000,,0.00373564768966,0.0311355735967,0.00643596755569,0.0,0.0,0.0
28385000000,2823,28385000000,,-0.035342468335,0.0223389419039,0.0159383241774,0.0,0.0,0.0
28395000000,2824,28395000000,,-0.0124176116951,0.0132002214268,0.0180668582905,0.0,0.0,0.0
28405000000,2825,28405000000,,-0.00420644583246,0.0152677262146,0.0055572621689,0.0,0.0,0.0
28416000000,2826,28416000000,,0.00258576154576,0.0384970413422,-0.0175819141517,0.0,0.0,0.0
28426000000,2827,28426000000,,0.00213607607525,0.0325660845822,-0.00801388432792,0.0,0.0,0.0
28436000000,2828,28436000000,,0.0333653972529,0.0269382176048,0.00229840147423,0.0,0.0,0.0
28446000000,2829,28446000000,,0.0105366835416,-0.0245012930389,0.0224919162559,0.0,0.0,0.0
28455000000,2830,28455000000,,-0.00900380404708,0.00215819369749,-0.00745472746044,0.0,0.0,0.0
28466000000,2831,28466000000,,-0.00627887072639,-0.0111383350663,-0.0166716782463,0.0,0.0,0.0
28475000000,2832,28475000000,,0.00445371014954,0.00167726935709,0.0185561484708,0.0,0.0,0.0
28486000000,2833,28486000000,,-0.000116323513382,0.0204895244231,0.027903968431,0.0,0.0,0.0
28495000000,2834,28495000000,,-0.0178954342373,-0.0185825262287,0.0206836930609,0.0,0.0,0.0
28505000000,2835,28505000000,,-0.00443030746846,0.0134129870725,-0.0186551074299,0.0,0.0,0.0
28515000000,2836,28515000000,,0.00323147615626,-0.0196500146163,0.00565976694847,0.0,0.0,0.0
28526000000,2837,28526000000,,0.0334707666592,-0.0176221252735,-0.00431605933189,0.0,0.0,0.0
28535000000,2838,28535000000,,-0.00804674095776,0.00463484107395,-0.0289191412938,0.0,0.0,0.0
28547000000,2839,28547000000,,-0.0122820995206,-0.0212359718593,-0.0154429106879,0.0,0.0,0.0
28555000000,2840,28555000000,,-0.00750089266687,0.00730661608605,-0.0149785301598,0.0,0.0,0.0
28566000000,2841,28566000000,,0.0315708542506,0.0119167049103,0.0265330010149,0.0,0.0,0.0
28575000000,2842,28575000000,,0.0153262179353,-0.0124944424702,-0.0100132194823,0.0,0.0,0.0
28585000000,2843,28585000000,,0.0098195919881,-0.0182199549949,0.000370799328938,0.0,0.0,0.0
28595000000,2844,28595000000,,-0.00637470225463,-0.000601487495576,0.0334228692,0.0,0.0,0.0
28605000000,2845,28605000000,,-0.0164628759471,-0.0264907757577,-0.000963339831779,0.0,0.0,0.0
28615000000,2846,28615000000,,-0.0240724457683,0.00421013104645,0.0334442755277,0.0,0.0,0.0
28625000000,2847,28625000000,,0.00663940931231,-0.0109396721379,0.00125775439851,0.0,0.0,0.0
28635000000,2848,28635000000,,-0.0213557936674,-0.00356125414707,0.0243771802683,0.0,0.0,0.0
28645000000,2849,28645000000,,-0.0112082189274,-0.0483744461115,-0.0179515618106,0.0,0.0,0.0
28655000000,2850,28655000000,,-0.042480199943,0.00404164698716,0.0194811107297,0.0,0.0,0.0
28666000000,2851,28666000000,,0.0182690742571,0.0274913402996,0.0199913152042,0.0,0.0,0.0
28675000000,2852,28675000000,,-0.00251297349206,0.0112728032072,-0.0345448998179,0.0,0.0,0.0
28685000000,2853,28685000000,,0.00847318439074,0.00810404123188,0.0158061067078,0.0,0.0,0.0
28695000000,2854,28695000000,,0.00314560524227,0.00108071093879,0.0258623353119,0.0,0.0,0.0
28705000000,2855,28705000000,,-0.0320848056259,-0.00868171058046,-0.0411195238327,0.0,0.0,0.0
28716000000,2856,28716000000,,-0.0107999822285,-0.0098342807411,0.0160196915174,0.0,0.0,0.0
28725000000,2857,28725000000,,-0.00582398205216,-0.0372819899638,0.0174714082144,0.0,0.0,0.0
28735000000,2858,28735000000,,0.0171086842279,-0.0274344739141,-0.00514475353757,0.0,0.0,0.0
28745000000,2859,28745000000,,-0.0186019457437,0.0140033035125,0.0187031263133,0.0,0.0,0.0
28755000000,2860,28755000000,,0.0144965885754,0.0370780274642,-0.019711225582,0.0,0.0,0.0
28766000000,2861,28766000000,,-0.00565339239989,0.0047576924702,-0.0222627382235,0.0,0.0,0.0
28775000000,2862,28775000000,,-0.0229478378547,0.0176445566886,0.0124516293389,0.0,0.0,0.0
28785000000,2863,28785000000,,-0.0207201520186,-0.0209504015767,-0.0337285080771,0.0,0.0,0.0
28795000000,2864,28795000000,,-0.034476315115,0.0220801690944,-0.02721657021,0.0,0.0,0.0
28805000000,2865,28805000000,,-0.0113203613746,-0.00459660478023,-0.0117073420496,0.0,0.0,0.0
28817000000,2866,28817000000,,0.0346155697677,-0.00941729338981,-0.0112785290024,0.0,0.0,0.0
28825000000,2867,28825000000,,0.00804511993228,0.00138315389026,0.011275307208,0.0,0.0,0.0
28837000000,2868,28837000000,,-0.0265529697762,0.00482019085642,-0.00412831989061,0.0,0.0,0.0
28845000000,2869,28845000000,,-0.00675114403494,0.00343979248726,-0.0275331882523,0.0,0.0,0.0
28855000000,2870,28855000000,,-0.002417972292,0.00663392340922,0.0232840323994,0.0,0.0,0.0
28865000000,2871,28865000000,,0.0389327932475,0.0250599165787,-0.0149295529227,0.0,0.0,0.0
28875000000,2872,28875000000,,0.0191376162609,0.00573237912589,-0.0175495422421,0.0,0.0,0.0
28886000000,2873,28886000000,,-0.000460766600828,0.0148119586775,0.00417693087624,0.0,0.0,0.0
28897000000,2874,28897000000,,-0.043357738271,0.0184629851536,0.00884910531816,0.0,0.0,0.0
28906000000,2875,28906000000,,-0.0160456219893,-0.0381015577523,0.0133435978638,0.0,0.0,0.0
28915000000,2876,28915000000,,-0.00338003823729,-0.0479663971003,0.00588828920146,0.0,0.0,0.0
28925000000,2877,28925000000,,-0.0725000611325,-0.0103000174279,0.03849726906,0.0,0.0,0.0
28936000000,2878,28936000000,,-0.00405200991127,-0.0190940106641,0.0324307458643,0.0,0.0,0.0
28945000000,2879,28945000000,,-0.0133869374473,-0.00982458558985,0.0326515053997,0.0,0.0,0.0
28956000000,2880,28956000000,,-0.000948349079376,0.0100061260997,0.0675798383647,0.0,0.0,0.0
28965000000,2881,28965000000,,0.0227329329073,-0.0104349685907,0.00337083488395,0.0,0.0,0.0
28977000000,2882,28977000000,,0.0123972193528,-0.00751775183765,0.0343046101134,0.0,0.0,0.0
28987000000,2883,28987000000,,-0.0175136712965,0.0144751678677,0.0197290874435,0.0,0.0,0.0
28995000000,2884,28995000000,,-0.0113537629552,-0.00975777132288,0.0113717921623,0.0,0.0,0.0
29005000000,2885,29005000000,,-0.0407481836589,0.0110613611086,-0.0233839954414,0.0,0.0,0.0
29016000000,2886,29016000000,,0.00151156148234,0.0228970457031,0.0429602373099,0.0,0.0,0.0
29027000000,2887,29027000000,,0.000463020092491,0.00489665633317,-0.00723840951852,0.0,0.0,0.0
29035000000,2888,29035000000,,-0.011991445667,0.0215141674542,0.026809764316,0.0,0.0,0.0
29047000000,2889,29047000000,,-0.0260541592014,-0.000886857357673,0.0127469740536,0.0,0.0,0.0
29055000000,2890,29055000000,,-0.0223900190623,-0.00983822264131,0.0110730987205,0.0,0.0,0.0
29067000000,2891,29067000000,,-0.0161723387617,0.0314750223146,-0.0182956603347,0.0,0.0,0.0
29075000000,2892,29075000000,,-0.00141696724799,-0.00623094941863,-0.00881766351075,0.0,0.0,0.0
29085000000,2893,29085000000,,-0.0259572992503,-0.00144965813528,-0.00964309204323,0.0,0.0,0.0
29095000000,2894,29095000000,,-0.0212419880615,0.030881187368,-0.0194863015491,0.0,0.0,0.0
29105000000,2895,29105000000,,-0.031722851515,-0.00407424425043,-0.0301507088815,0.0,0.0,0.0
29116000000,2896,29116000000,,-0.0288301006672,0.0040782337973,0.0245678102363,0.0,0.0,0.0
29126000000,2897,29126000000,,0.0155748980173,0.00940936307934,-0.0066322876156,0.0,0.0,0.0
29136000000,2898,29136000000,,0.0198341762341,-0.0231821397833,-0.00362685260497,0.0,0.0,0.0
